{
  "code": "CH",
  "states": [
    {
      "name": "Aargau",
      "state_code": "AG",
      "latitude": "47.38766640",
      "longitude": "8.25542950",
      "cities": [
        {
          "name": "Aarau",
          "latitude": "47.39254000",
          "longitude": "8.04422000"
        },
        {
          "name": "Aarburg",
          "latitude": "47.32067000",
          "longitude": "7.89986000"
        },
        {
          "name": "Aristau",
          "latitude": "47.28692000",
          "longitude": "8.36356000"
        },
        {
          "name": "Auw",
          "latitude": "47.21082000",
          "longitude": "8.36583000"
        },
        {
          "name": "Bad Zurzach",
          "latitude": "47.58764000",
          "longitude": "8.29365000"
        },
        {
          "name": "Baden",
          "latitude": "47.47333000",
          "longitude": "8.30592000"
        },
        {
          "name": "Berikon",
          "latitude": "47.35155000",
          "longitude": "8.37232000"
        },
        {
          "name": "Besenbüren",
          "latitude": "47.31439000",
          "longitude": "8.34586000"
        },
        {
          "name": "Bezirk Aarau",
          "latitude": "47.37706000",
          "longitude": "8.05235000"
        },
        {
          "name": "Bezirk Baden",
          "latitude": "47.45660000",
          "longitude": "8.30059000"
        },
        {
          "name": "Bezirk Bremgarten",
          "latitude": "47.34927000",
          "longitude": "8.33343000"
        },
        {
          "name": "Bezirk Brugg",
          "latitude": "47.47776000",
          "longitude": "8.17798000"
        },
        {
          "name": "Bezirk Kulm",
          "latitude": "47.28757000",
          "longitude": "8.13302000"
        },
        {
          "name": "Bezirk Laufenburg",
          "latitude": "47.51844000",
          "longitude": "8.03878000"
        },
        {
          "name": "Bezirk Lenzburg",
          "latitude": "47.37184000",
          "longitude": "8.18910000"
        },
        {
          "name": "Bezirk Muri",
          "latitude": "47.25233000",
          "longitude": "8.35362000"
        },
        {
          "name": "Bezirk Rheinfelden",
          "latitude": "47.54048000",
          "longitude": "7.83331000"
        },
        {
          "name": "Bezirk Zofingen",
          "latitude": "47.28864000",
          "longitude": "7.95697000"
        },
        {
          "name": "Bezirk Zurzach",
          "latitude": "47.56182000",
          "longitude": "8.28020000"
        },
        {
          "name": "Birmenstorf",
          "latitude": "47.46152000",
          "longitude": "8.24816000"
        },
        {
          "name": "Birr",
          "latitude": "47.43432000",
          "longitude": "8.20891000"
        },
        {
          "name": "Boniswil",
          "latitude": "47.31725000",
          "longitude": "8.18963000"
        },
        {
          "name": "Bremgarten",
          "latitude": "47.35109000",
          "longitude": "8.34214000"
        },
        {
          "name": "Brittnau",
          "latitude": "47.25954000",
          "longitude": "7.94689000"
        },
        {
          "name": "Brugg",
          "latitude": "47.48096000",
          "longitude": "8.20869000"
        },
        {
          "name": "Buchs",
          "latitude": "47.39358000",
          "longitude": "8.08233000"
        },
        {
          "name": "Buttwil",
          "latitude": "47.26828000",
          "longitude": "8.31064000"
        },
        {
          "name": "Densbüren",
          "latitude": "47.45260000",
          "longitude": "8.05330000"
        },
        {
          "name": "Dottikon",
          "latitude": "47.38437000",
          "longitude": "8.23981000"
        },
        {
          "name": "Dürrenäsch",
          "latitude": "47.32094000",
          "longitude": "8.15874000"
        },
        {
          "name": "Egliswil",
          "latitude": "47.34922000",
          "longitude": "8.18553000"
        },
        {
          "name": "Ehrendingen",
          "latitude": "47.50250000",
          "longitude": "8.34729000"
        },
        {
          "name": "Eiken",
          "latitude": "47.53361000",
          "longitude": "7.98801000"
        },
        {
          "name": "Endingen",
          "latitude": "47.53742000",
          "longitude": "8.29036000"
        },
        {
          "name": "Frick",
          "latitude": "47.51169000",
          "longitude": "8.02471000"
        },
        {
          "name": "Gebenstorf",
          "latitude": "47.48136000",
          "longitude": "8.23949000"
        },
        {
          "name": "Gipf-Oberfrick",
          "latitude": "47.49875000",
          "longitude": "8.00497000"
        },
        {
          "name": "Gontenschwil",
          "latitude": "47.27166000",
          "longitude": "8.14396000"
        },
        {
          "name": "Gränichen",
          "latitude": "47.35930000",
          "longitude": "8.10243000"
        },
        {
          "name": "Hägglingen",
          "latitude": "47.38851000",
          "longitude": "8.25285000"
        },
        {
          "name": "Hausen",
          "latitude": "47.46396000",
          "longitude": "8.20988000"
        },
        {
          "name": "Jonen",
          "latitude": "47.29750000",
          "longitude": "8.39282000"
        },
        {
          "name": "Kaiseraugst",
          "latitude": "47.53966000",
          "longitude": "7.72605000"
        },
        {
          "name": "Kaisten",
          "latitude": "47.54160000",
          "longitude": "8.04337000"
        },
        {
          "name": "Killwangen",
          "latitude": "47.43223000",
          "longitude": "8.35097000"
        },
        {
          "name": "Klingnau",
          "latitude": "47.58361000",
          "longitude": "8.24880000"
        },
        {
          "name": "Koblenz",
          "latitude": "47.60972000",
          "longitude": "8.23750000"
        },
        {
          "name": "Kölliken",
          "latitude": "47.33337000",
          "longitude": "8.02237000"
        },
        {
          "name": "Künten",
          "latitude": "47.38887000",
          "longitude": "8.33045000"
        },
        {
          "name": "Küttigen",
          "latitude": "47.41484000",
          "longitude": "8.04979000"
        },
        {
          "name": "Laufenburg",
          "latitude": "47.55985000",
          "longitude": "8.06225000"
        },
        {
          "name": "Lauffohr (Brugg)",
          "latitude": "47.50154000",
          "longitude": "8.23122000"
        },
        {
          "name": "Leibstadt",
          "latitude": "47.58790000",
          "longitude": "8.17611000"
        },
        {
          "name": "Lenzburg",
          "latitude": "47.38853000",
          "longitude": "8.17503000"
        },
        {
          "name": "Magden",
          "latitude": "47.52868000",
          "longitude": "7.81128000"
        },
        {
          "name": "Meisterschwanden",
          "latitude": "47.29489000",
          "longitude": "8.22867000"
        },
        {
          "name": "Mellingen",
          "latitude": "47.41903000",
          "longitude": "8.27331000"
        },
        {
          "name": "Menziken",
          "latitude": "47.23965000",
          "longitude": "8.18996000"
        },
        {
          "name": "Merenschwand",
          "latitude": "47.25944000",
          "longitude": "8.37633000"
        },
        {
          "name": "Möhlin",
          "latitude": "47.55915000",
          "longitude": "7.84329000"
        },
        {
          "name": "Muhen",
          "latitude": "47.33578000",
          "longitude": "8.05536000"
        },
        {
          "name": "Mumpf",
          "latitude": "47.54563000",
          "longitude": "7.92123000"
        },
        {
          "name": "Murgenthal",
          "latitude": "47.27145000",
          "longitude": "7.83935000"
        },
        {
          "name": "Muri",
          "latitude": "47.27428000",
          "longitude": "8.33854000"
        },
        {
          "name": "Neuenhof",
          "latitude": "47.44985000",
          "longitude": "8.32682000"
        },
        {
          "name": "Niederlenz",
          "latitude": "47.40079000",
          "longitude": "8.17640000"
        },
        {
          "name": "Niederrohrdorf",
          "latitude": "47.42409000",
          "longitude": "8.30404000"
        },
        {
          "name": "Oberentfelden",
          "latitude": "47.35639000",
          "longitude": "8.04594000"
        },
        {
          "name": "Oberlunkhofen",
          "latitude": "47.31244000",
          "longitude": "8.39242000"
        },
        {
          "name": "Oberrohrdorf",
          "latitude": "47.41833000",
          "longitude": "8.31983000"
        },
        {
          "name": "Oberrüti",
          "latitude": "47.16673000",
          "longitude": "8.39441000"
        },
        {
          "name": "Obersiggenthal",
          "latitude": "47.48750000",
          "longitude": "8.29652000"
        },
        {
          "name": "Oftringen",
          "latitude": "47.31382000",
          "longitude": "7.92533000"
        },
        {
          "name": "Othmarsingen",
          "latitude": "47.40125000",
          "longitude": "8.21383000"
        },
        {
          "name": "Reinach",
          "latitude": "47.25732000",
          "longitude": "8.18091000"
        },
        {
          "name": "Rheinfelden",
          "latitude": "47.55437000",
          "longitude": "7.79403000"
        },
        {
          "name": "Rothrist",
          "latitude": "47.30508000",
          "longitude": "7.89196000"
        },
        {
          "name": "Rudolfstetten",
          "latitude": "47.37101000",
          "longitude": "8.38083000"
        },
        {
          "name": "Rupperswil",
          "latitude": "47.40131000",
          "longitude": "8.12877000"
        },
        {
          "name": "Safenwil",
          "latitude": "47.32163000",
          "longitude": "7.98254000"
        },
        {
          "name": "Sarmenstorf",
          "latitude": "47.31109000",
          "longitude": "8.24950000"
        },
        {
          "name": "Schafisheim",
          "latitude": "47.37664000",
          "longitude": "8.14263000"
        },
        {
          "name": "Schinznach Bad",
          "latitude": "47.44992000",
          "longitude": "8.16833000"
        },
        {
          "name": "Schinznach Dorf",
          "latitude": "47.44650000",
          "longitude": "8.14089000"
        },
        {
          "name": "Schöftland",
          "latitude": "47.30590000",
          "longitude": "8.05119000"
        },
        {
          "name": "Schwaderloch",
          "latitude": "47.58541000",
          "longitude": "8.14455000"
        },
        {
          "name": "Seengen",
          "latitude": "47.32503000",
          "longitude": "8.20724000"
        },
        {
          "name": "Seon",
          "latitude": "47.34848000",
          "longitude": "8.16072000"
        },
        {
          "name": "Sins",
          "latitude": "47.19296000",
          "longitude": "8.39384000"
        },
        {
          "name": "Spreitenbach",
          "latitude": "47.42285000",
          "longitude": "8.36792000"
        },
        {
          "name": "Staffelbach",
          "latitude": "47.28395000",
          "longitude": "8.04208000"
        },
        {
          "name": "Staufen",
          "latitude": "47.38197000",
          "longitude": "8.16681000"
        },
        {
          "name": "Stein",
          "latitude": "47.54403000",
          "longitude": "7.95256000"
        },
        {
          "name": "Strengelbach",
          "latitude": "47.27917000",
          "longitude": "7.92895000"
        },
        {
          "name": "Suhr",
          "latitude": "47.37172000",
          "longitude": "8.07967000"
        },
        {
          "name": "Sulz",
          "latitude": "47.53602000",
          "longitude": "8.09628000"
        },
        {
          "name": "Tegerfelden",
          "latitude": "47.55809000",
          "longitude": "8.28914000"
        },
        {
          "name": "Teufenthal",
          "latitude": "47.32896000",
          "longitude": "8.11777000"
        },
        {
          "name": "Turgi",
          "latitude": "47.49201000",
          "longitude": "8.25412000"
        },
        {
          "name": "Uerkheim",
          "latitude": "47.30353000",
          "longitude": "8.02320000"
        },
        {
          "name": "Unterkulm",
          "latitude": "47.30998000",
          "longitude": "8.11371000"
        },
        {
          "name": "Unterlunkhofen",
          "latitude": "47.32120000",
          "longitude": "8.38102000"
        },
        {
          "name": "Untersiggenthal",
          "latitude": "47.50213000",
          "longitude": "8.25554000"
        },
        {
          "name": "Veltheim",
          "latitude": "47.43796000",
          "longitude": "8.14722000"
        },
        {
          "name": "Villigen",
          "latitude": "47.52682000",
          "longitude": "8.21486000"
        },
        {
          "name": "Villmergen",
          "latitude": "47.35009000",
          "longitude": "8.24762000"
        },
        {
          "name": "Villnachern",
          "latitude": "47.47098000",
          "longitude": "8.15975000"
        },
        {
          "name": "Vordemwald",
          "latitude": "47.27585000",
          "longitude": "7.90114000"
        },
        {
          "name": "Waltenschwil",
          "latitude": "47.33339000",
          "longitude": "8.29791000"
        },
        {
          "name": "Wegenstetten",
          "latitude": "47.49797000",
          "longitude": "7.93141000"
        },
        {
          "name": "Wettingen",
          "latitude": "47.47049000",
          "longitude": "8.31636000"
        },
        {
          "name": "Windisch",
          "latitude": "47.47899000",
          "longitude": "8.21842000"
        },
        {
          "name": "Wittnau",
          "latitude": "47.48139000",
          "longitude": "7.97577000"
        },
        {
          "name": "Wohlen",
          "latitude": "47.35066000",
          "longitude": "8.27517000"
        },
        {
          "name": "Wölflinswil",
          "latitude": "47.46070000",
          "longitude": "7.99835000"
        },
        {
          "name": "Würenlingen",
          "latitude": "47.53356000",
          "longitude": "8.25666000"
        },
        {
          "name": "Würenlos",
          "latitude": "47.44205000",
          "longitude": "8.36261000"
        },
        {
          "name": "Zofingen",
          "latitude": "47.28779000",
          "longitude": "7.94586000"
        }
      ]
    },
    {
      "name": "Appenzell Ausserrhoden",
      "state_code": "AR",
      "latitude": "47.36648100",
      "longitude": "9.30009160",
      "cities": [
        {
          "name": "Bezirk Hinterland",
          "latitude": "47.36470000",
          "longitude": "9.27350000"
        },
        {
          "name": "Bezirk Mittelland",
          "latitude": "47.37700000",
          "longitude": "9.43469000"
        },
        {
          "name": "Bezirk Vorderland",
          "latitude": "47.44167000",
          "longitude": "9.53869000"
        },
        {
          "name": "Bühler",
          "latitude": "47.37348000",
          "longitude": "9.42507000"
        },
        {
          "name": "Gais",
          "latitude": "47.36150000",
          "longitude": "9.45356000"
        },
        {
          "name": "Heiden",
          "latitude": "47.44255000",
          "longitude": "9.53293000"
        },
        {
          "name": "Herisau",
          "latitude": "47.38615000",
          "longitude": "9.27916000"
        },
        {
          "name": "Rehetobel",
          "latitude": "47.42611000",
          "longitude": "9.48300000"
        },
        {
          "name": "Schwellbrunn",
          "latitude": "47.35255000",
          "longitude": "9.24894000"
        },
        {
          "name": "Speicher",
          "latitude": "47.41090000",
          "longitude": "9.44335000"
        },
        {
          "name": "Teufen",
          "latitude": "47.39080000",
          "longitude": "9.38644000"
        },
        {
          "name": "Trogen",
          "latitude": "47.40782000",
          "longitude": "9.46498000"
        },
        {
          "name": "Urnäsch",
          "latitude": "47.31669000",
          "longitude": "9.27950000"
        },
        {
          "name": "Waldstatt",
          "latitude": "47.35627000",
          "longitude": "9.28345000"
        },
        {
          "name": "Walzenhausen",
          "latitude": "47.44867000",
          "longitude": "9.60495000"
        }
      ]
    },
    {
      "name": "Appenzell Innerrhoden",
      "state_code": "AI",
      "latitude": "47.31619250",
      "longitude": "9.43165730",
      "cities": [
        {
          "name": "Appenzell",
          "latitude": "47.33103000",
          "longitude": "9.40996000"
        },
        {
          "name": "Gonten",
          "latitude": "47.32725000",
          "longitude": "9.34705000"
        },
        {
          "name": "Haslen",
          "latitude": "47.36931000",
          "longitude": "9.36752000"
        },
        {
          "name": "Oberegg",
          "latitude": "47.42531000",
          "longitude": "9.55134000"
        }
      ]
    },
    {
      "name": "Basel-Landschaft",
      "state_code": "BL",
      "latitude": "47.44181220",
      "longitude": "7.76440020",
      "cities": [
        {
          "name": "Aesch",
          "latitude": "47.47104000",
          "longitude": "7.59730000"
        },
        {
          "name": "Allschwil",
          "latitude": "47.55074000",
          "longitude": "7.53599000"
        },
        {
          "name": "Arisdorf",
          "latitude": "47.51323000",
          "longitude": "7.76515000"
        },
        {
          "name": "Arlesheim",
          "latitude": "47.49412000",
          "longitude": "7.61979000"
        },
        {
          "name": "Bezirk Arlesheim",
          "latitude": "47.51668000",
          "longitude": "7.58733000"
        },
        {
          "name": "Bezirk Laufen",
          "latitude": "47.42324000",
          "longitude": "7.48750000"
        },
        {
          "name": "Bezirk Liestal",
          "latitude": "47.48124000",
          "longitude": "7.72714000"
        },
        {
          "name": "Bezirk Sissach",
          "latitude": "47.44237000",
          "longitude": "7.84871000"
        },
        {
          "name": "Bezirk Waldenburg",
          "latitude": "47.39367000",
          "longitude": "7.74137000"
        },
        {
          "name": "Binningen",
          "latitude": "47.54021000",
          "longitude": "7.56932000"
        },
        {
          "name": "Birsfelden",
          "latitude": "47.55290000",
          "longitude": "7.62322000"
        },
        {
          "name": "Bottmingen",
          "latitude": "47.52343000",
          "longitude": "7.57211000"
        },
        {
          "name": "Brislach",
          "latitude": "47.41763000",
          "longitude": "7.54340000"
        },
        {
          "name": "Bubendorf",
          "latitude": "47.44586000",
          "longitude": "7.73759000"
        },
        {
          "name": "Buus",
          "latitude": "47.50635000",
          "longitude": "7.86414000"
        },
        {
          "name": "Diegten",
          "latitude": "47.41380000",
          "longitude": "7.81085000"
        },
        {
          "name": "Ettingen",
          "latitude": "47.48225000",
          "longitude": "7.54654000"
        },
        {
          "name": "Frenkendorf",
          "latitude": "47.50686000",
          "longitude": "7.71648000"
        },
        {
          "name": "Füllinsdorf",
          "latitude": "47.50688000",
          "longitude": "7.73129000"
        },
        {
          "name": "Gelterkinden",
          "latitude": "47.46497000",
          "longitude": "7.85174000"
        },
        {
          "name": "Grellingen",
          "latitude": "47.44231000",
          "longitude": "7.58906000"
        },
        {
          "name": "Hölstein",
          "latitude": "47.42290000",
          "longitude": "7.77041000"
        },
        {
          "name": "Itingen",
          "latitude": "47.46651000",
          "longitude": "7.78502000"
        },
        {
          "name": "Langenbruck",
          "latitude": "47.34917000",
          "longitude": "7.76802000"
        },
        {
          "name": "Läufelfingen",
          "latitude": "47.39457000",
          "longitude": "7.85578000"
        },
        {
          "name": "Laufen",
          "latitude": "47.42193000",
          "longitude": "7.49946000"
        },
        {
          "name": "Lausen",
          "latitude": "47.47139000",
          "longitude": "7.76030000"
        },
        {
          "name": "Liesberg",
          "latitude": "47.40398000",
          "longitude": "7.42787000"
        },
        {
          "name": "Liestal",
          "latitude": "47.48455000",
          "longitude": "7.73446000"
        },
        {
          "name": "Münchenstein",
          "latitude": "47.51848000",
          "longitude": "7.60966000"
        },
        {
          "name": "Muttenz",
          "latitude": "47.52271000",
          "longitude": "7.64511000"
        },
        {
          "name": "Oberdorf",
          "latitude": "47.39353000",
          "longitude": "7.75169000"
        },
        {
          "name": "Oberwil",
          "latitude": "47.51407000",
          "longitude": "7.55786000"
        },
        {
          "name": "Ormalingen",
          "latitude": "47.46936000",
          "longitude": "7.87248000"
        },
        {
          "name": "Pfeffingen",
          "latitude": "47.45984000",
          "longitude": "7.58975000"
        },
        {
          "name": "Pratteln",
          "latitude": "47.52071000",
          "longitude": "7.69356000"
        },
        {
          "name": "Reigoldswil",
          "latitude": "47.39824000",
          "longitude": "7.68718000"
        },
        {
          "name": "Röschenz",
          "latitude": "47.42366000",
          "longitude": "7.48024000"
        },
        {
          "name": "Schönenbuch",
          "latitude": "47.53853000",
          "longitude": "7.50572000"
        },
        {
          "name": "Seltisberg",
          "latitude": "47.46249000",
          "longitude": "7.72039000"
        },
        {
          "name": "Sissach",
          "latitude": "47.46408000",
          "longitude": "7.80888000"
        },
        {
          "name": "Therwil",
          "latitude": "47.49941000",
          "longitude": "7.55669000"
        },
        {
          "name": "Wahlen",
          "latitude": "47.40226000",
          "longitude": "7.51511000"
        },
        {
          "name": "Waldenburg",
          "latitude": "47.38333000",
          "longitude": "7.75000000"
        },
        {
          "name": "Zunzgen",
          "latitude": "47.44925000",
          "longitude": "7.80789000"
        },
        {
          "name": "Zwingen",
          "latitude": "47.43825000",
          "longitude": "7.53027000"
        }
      ]
    },
    {
      "name": "canton of Bern",
      "state_code": "BE",
      "latitude": "46.79886210",
      "longitude": "7.70807010",
      "cities": [
        {
          "name": "Aarberg",
          "latitude": "47.04439000",
          "longitude": "7.27578000"
        },
        {
          "name": "Aarwangen",
          "latitude": "47.23845000",
          "longitude": "7.76854000"
        },
        {
          "name": "Adelboden",
          "latitude": "46.49142000",
          "longitude": "7.56031000"
        },
        {
          "name": "Aeschi b. Spiez",
          "latitude": "46.65848000",
          "longitude": "7.69650000"
        },
        {
          "name": "Arch",
          "latitude": "47.16533000",
          "longitude": "7.43139000"
        },
        {
          "name": "Attiswil",
          "latitude": "47.24673000",
          "longitude": "7.61353000"
        },
        {
          "name": "Bäriswil",
          "latitude": "47.01947000",
          "longitude": "7.52709000"
        },
        {
          "name": "Bätterkinden",
          "latitude": "47.13164000",
          "longitude": "7.53817000"
        },
        {
          "name": "Beatenberg",
          "latitude": "46.69896000",
          "longitude": "7.79428000"
        },
        {
          "name": "Bellmund",
          "latitude": "47.10852000",
          "longitude": "7.24608000"
        },
        {
          "name": "Belp",
          "latitude": "46.89129000",
          "longitude": "7.49825000"
        },
        {
          "name": "Bern",
          "latitude": "46.94809000",
          "longitude": "7.44744000"
        },
        {
          "name": "Bern-Mittelland District",
          "latitude": "46.92526000",
          "longitude": "7.49024000"
        },
        {
          "name": "Bévilard",
          "latitude": "47.23711000",
          "longitude": "7.28325000"
        },
        {
          "name": "Biel/Bienne",
          "latitude": "47.13713000",
          "longitude": "7.24608000"
        },
        {
          "name": "Biel/Bienne District",
          "latitude": "47.12725000",
          "longitude": "7.26174000"
        },
        {
          "name": "Biglen",
          "latitude": "46.92629000",
          "longitude": "7.62508000"
        },
        {
          "name": "Blumenstein",
          "latitude": "46.74210000",
          "longitude": "7.52136000"
        },
        {
          "name": "Bolligen",
          "latitude": "46.97510000",
          "longitude": "7.49697000"
        },
        {
          "name": "Boltigen",
          "latitude": "46.62847000",
          "longitude": "7.39054000"
        },
        {
          "name": "Bönigen",
          "latitude": "46.68736000",
          "longitude": "7.89350000"
        },
        {
          "name": "Bowil",
          "latitude": "46.89304000",
          "longitude": "7.69757000"
        },
        {
          "name": "Brienz",
          "latitude": "46.75450000",
          "longitude": "8.03847000"
        },
        {
          "name": "Brügg",
          "latitude": "47.12370000",
          "longitude": "7.27887000"
        },
        {
          "name": "Buchholterberg",
          "latitude": "46.81351000",
          "longitude": "7.67463000"
        },
        {
          "name": "Burgdorf",
          "latitude": "47.05901000",
          "longitude": "7.62786000"
        },
        {
          "name": "Burgistein",
          "latitude": "46.78464000",
          "longitude": "7.49988000"
        },
        {
          "name": "Corgémont",
          "latitude": "47.19457000",
          "longitude": "7.14517000"
        },
        {
          "name": "Court",
          "latitude": "47.23956000",
          "longitude": "7.33655000"
        },
        {
          "name": "Courtelary",
          "latitude": "47.17822000",
          "longitude": "7.07236000"
        },
        {
          "name": "Därligen",
          "latitude": "46.66175000",
          "longitude": "7.80808000"
        },
        {
          "name": "Diemtigen",
          "latitude": "46.64928000",
          "longitude": "7.56477000"
        },
        {
          "name": "Dürrenroth",
          "latitude": "47.08953000",
          "longitude": "7.79170000"
        },
        {
          "name": "Eggiwil",
          "latitude": "46.87575000",
          "longitude": "7.79567000"
        },
        {
          "name": "Emmental District",
          "latitude": "47.04425000",
          "longitude": "7.66176000"
        },
        {
          "name": "Eriswil",
          "latitude": "47.07816000",
          "longitude": "7.85149000"
        },
        {
          "name": "Erlach",
          "latitude": "47.04220000",
          "longitude": "7.09728000"
        },
        {
          "name": "Erlenbach im Simmental",
          "latitude": "46.66021000",
          "longitude": "7.55445000"
        },
        {
          "name": "Ersigen",
          "latitude": "47.09368000",
          "longitude": "7.59507000"
        },
        {
          "name": "Evilard",
          "latitude": "47.15046000",
          "longitude": "7.23895000"
        },
        {
          "name": "Ferenbalm",
          "latitude": "46.94880000",
          "longitude": "7.21124000"
        },
        {
          "name": "Fraubrunnen",
          "latitude": "47.08620000",
          "longitude": "7.52727000"
        },
        {
          "name": "Frauenkappelen",
          "latitude": "46.95425000",
          "longitude": "7.33835000"
        },
        {
          "name": "Frutigen",
          "latitude": "46.58723000",
          "longitude": "7.64945000"
        },
        {
          "name": "Frutigen-Niedersimmental District",
          "latitude": "46.60236000",
          "longitude": "7.62292000"
        },
        {
          "name": "Grindelwald",
          "latitude": "46.62396000",
          "longitude": "8.03601000"
        },
        {
          "name": "Grossaffoltern",
          "latitude": "47.06534000",
          "longitude": "7.35689000"
        },
        {
          "name": "Gstaad",
          "latitude": "46.47215000",
          "longitude": "7.28685000"
        },
        {
          "name": "Guggisberg",
          "latitude": "46.76756000",
          "longitude": "7.32946000"
        },
        {
          "name": "Heimberg",
          "latitude": "46.79482000",
          "longitude": "7.60433000"
        },
        {
          "name": "Heimiswil",
          "latitude": "47.06755000",
          "longitude": "7.66665000"
        },
        {
          "name": "Hermiswil",
          "latitude": "46.83125000",
          "longitude": "7.47775000"
        },
        {
          "name": "Herzogenbuchsee",
          "latitude": "47.18795000",
          "longitude": "7.70620000"
        },
        {
          "name": "Hilterfingen",
          "latitude": "46.73521000",
          "longitude": "7.66185000"
        },
        {
          "name": "Hindelbank",
          "latitude": "47.04270000",
          "longitude": "7.54143000"
        },
        {
          "name": "Huttwil",
          "latitude": "47.11502000",
          "longitude": "7.86209000"
        },
        {
          "name": "Ins",
          "latitude": "47.00584000",
          "longitude": "7.10609000"
        },
        {
          "name": "Interlaken",
          "latitude": "46.68387000",
          "longitude": "7.86638000"
        },
        {
          "name": "Interlaken-Oberhasli District",
          "latitude": "46.68931000",
          "longitude": "7.98869000"
        },
        {
          "name": "Jegenstorf",
          "latitude": "47.04802000",
          "longitude": "7.50787000"
        },
        {
          "name": "Jura bernois",
          "latitude": "47.21892000",
          "longitude": "7.21981000"
        },
        {
          "name": "Kallnach",
          "latitude": "47.02032000",
          "longitude": "7.23545000"
        },
        {
          "name": "Kandersteg",
          "latitude": "46.49467000",
          "longitude": "7.67326000"
        },
        {
          "name": "Kappelen",
          "latitude": "47.06015000",
          "longitude": "7.26860000"
        },
        {
          "name": "Kehrsatz",
          "latitude": "46.91035000",
          "longitude": "7.47096000"
        },
        {
          "name": "Kirchberg",
          "latitude": "47.08538000",
          "longitude": "7.58288000"
        },
        {
          "name": "Kirchlindach",
          "latitude": "46.99965000",
          "longitude": "7.41735000"
        },
        {
          "name": "Köniz",
          "latitude": "46.92436000",
          "longitude": "7.41457000"
        },
        {
          "name": "Konolfingen",
          "latitude": "46.87909000",
          "longitude": "7.62013000"
        },
        {
          "name": "Koppigen",
          "latitude": "47.13125000",
          "longitude": "7.60525000"
        },
        {
          "name": "Krauchthal",
          "latitude": "47.00964000",
          "longitude": "7.56640000"
        },
        {
          "name": "La Neuveville",
          "latitude": "47.06592000",
          "longitude": "7.09717000"
        },
        {
          "name": "Langenthal",
          "latitude": "47.21526000",
          "longitude": "7.79607000"
        },
        {
          "name": "Langnau",
          "latitude": "46.93936000",
          "longitude": "7.78738000"
        },
        {
          "name": "Laupen",
          "latitude": "46.90214000",
          "longitude": "7.23973000"
        },
        {
          "name": "Lauperswil",
          "latitude": "46.96564000",
          "longitude": "7.74214000"
        },
        {
          "name": "Lauterbrunnen",
          "latitude": "46.59307000",
          "longitude": "7.90938000"
        },
        {
          "name": "Lengnau",
          "latitude": "47.18155000",
          "longitude": "7.36814000"
        },
        {
          "name": "Lenk",
          "latitude": "46.45826000",
          "longitude": "7.44298000"
        },
        {
          "name": "Leuzigen",
          "latitude": "47.17458000",
          "longitude": "7.45775000"
        },
        {
          "name": "Linden",
          "latitude": "46.84690000",
          "longitude": "7.67831000"
        },
        {
          "name": "Lotzwil",
          "latitude": "47.19135000",
          "longitude": "7.79102000"
        },
        {
          "name": "Lützelflüh",
          "latitude": "47.00757000",
          "longitude": "7.69165000"
        },
        {
          "name": "Lyss",
          "latitude": "47.07410000",
          "longitude": "7.30655000"
        },
        {
          "name": "Lyssach",
          "latitude": "47.06445000",
          "longitude": "7.58228000"
        },
        {
          "name": "Madiswil",
          "latitude": "47.16463000",
          "longitude": "7.79858000"
        },
        {
          "name": "Malleray",
          "latitude": "47.23839000",
          "longitude": "7.27286000"
        },
        {
          "name": "Matten",
          "latitude": "46.67833000",
          "longitude": "7.86889000"
        },
        {
          "name": "Meinisberg",
          "latitude": "47.15965000",
          "longitude": "7.34801000"
        },
        {
          "name": "Meiringen",
          "latitude": "46.72709000",
          "longitude": "8.18720000"
        },
        {
          "name": "Melchnau",
          "latitude": "47.18213000",
          "longitude": "7.85128000"
        },
        {
          "name": "Moutier",
          "latitude": "47.27818000",
          "longitude": "7.36951000"
        },
        {
          "name": "Mühleberg",
          "latitude": "46.95466000",
          "longitude": "7.26102000"
        },
        {
          "name": "Mühlethurnen",
          "latitude": "46.81345000",
          "longitude": "7.50881000"
        },
        {
          "name": "Münchenbuchsee",
          "latitude": "47.02175000",
          "longitude": "7.45036000"
        },
        {
          "name": "Münchenwiler",
          "latitude": "46.91334000",
          "longitude": "7.12556000"
        },
        {
          "name": "Münsingen",
          "latitude": "46.87298000",
          "longitude": "7.56100000"
        },
        {
          "name": "Müntschemier",
          "latitude": "46.99548000",
          "longitude": "7.14626000"
        },
        {
          "name": "Muri",
          "latitude": "46.93122000",
          "longitude": "7.48658000"
        },
        {
          "name": "Nidau",
          "latitude": "47.12545000",
          "longitude": "7.24033000"
        },
        {
          "name": "Niederbipp",
          "latitude": "47.27175000",
          "longitude": "7.69583000"
        },
        {
          "name": "Oberaargau",
          "latitude": "47.19202000",
          "longitude": "7.74553000"
        },
        {
          "name": "Oberbipp",
          "latitude": "47.26070000",
          "longitude": "7.66359000"
        },
        {
          "name": "Oberburg",
          "latitude": "47.03665000",
          "longitude": "7.62745000"
        },
        {
          "name": "Oberdiessbach",
          "latitude": "46.84117000",
          "longitude": "7.61730000"
        },
        {
          "name": "Obersimmental-Saanen District",
          "latitude": "46.47932000",
          "longitude": "7.35803000"
        },
        {
          "name": "Orpund",
          "latitude": "47.13891000",
          "longitude": "7.30775000"
        },
        {
          "name": "Orvin",
          "latitude": "47.16068000",
          "longitude": "7.21368000"
        },
        {
          "name": "Péry",
          "latitude": "47.19398000",
          "longitude": "7.24913000"
        },
        {
          "name": "Pieterlen",
          "latitude": "47.17501000",
          "longitude": "7.33791000"
        },
        {
          "name": "Radelfingen",
          "latitude": "47.02146000",
          "longitude": "7.27178000"
        },
        {
          "name": "Reconvilier",
          "latitude": "47.23431000",
          "longitude": "7.22239000"
        },
        {
          "name": "Riggisberg",
          "latitude": "46.81028000",
          "longitude": "7.48014000"
        },
        {
          "name": "Ringgenberg",
          "latitude": "46.70114000",
          "longitude": "7.89445000"
        },
        {
          "name": "Roggwil",
          "latitude": "47.24119000",
          "longitude": "7.82141000"
        },
        {
          "name": "Rohrbach",
          "latitude": "47.13521000",
          "longitude": "7.81334000"
        },
        {
          "name": "Rubigen",
          "latitude": "46.89868000",
          "longitude": "7.54460000"
        },
        {
          "name": "Rüderswil",
          "latitude": "46.98374000",
          "longitude": "7.72167000"
        },
        {
          "name": "Rüeggisberg",
          "latitude": "46.82216000",
          "longitude": "7.43890000"
        },
        {
          "name": "Rüschegg",
          "latitude": "46.77977000",
          "longitude": "7.39167000"
        },
        {
          "name": "Saanen",
          "latitude": "46.48945000",
          "longitude": "7.26003000"
        },
        {
          "name": "Saint-Imier",
          "latitude": "47.15284000",
          "longitude": "6.99692000"
        },
        {
          "name": "Sankt Stephan",
          "latitude": "46.50827000",
          "longitude": "7.39559000"
        },
        {
          "name": "Schüpfen",
          "latitude": "47.03661000",
          "longitude": "7.37723000"
        },
        {
          "name": "Seeberg",
          "latitude": "47.15585000",
          "longitude": "7.66567000"
        },
        {
          "name": "Seedorf",
          "latitude": "47.03445000",
          "longitude": "7.31249000"
        },
        {
          "name": "Seeland District",
          "latitude": "47.06635000",
          "longitude": "7.26333000"
        },
        {
          "name": "Seftigen",
          "latitude": "46.78765000",
          "longitude": "7.53937000"
        },
        {
          "name": "Signau",
          "latitude": "46.91944000",
          "longitude": "7.72418000"
        },
        {
          "name": "Sigriswil",
          "latitude": "46.71656000",
          "longitude": "7.71335000"
        },
        {
          "name": "Spiez",
          "latitude": "46.68473000",
          "longitude": "7.69111000"
        },
        {
          "name": "Steffisburg",
          "latitude": "46.77807000",
          "longitude": "7.63249000"
        },
        {
          "name": "Stettlen",
          "latitude": "46.95835000",
          "longitude": "7.52508000"
        },
        {
          "name": "Sumiswald",
          "latitude": "47.02747000",
          "longitude": "7.74526000"
        },
        {
          "name": "Täuffelen",
          "latitude": "47.06630000",
          "longitude": "7.19883000"
        },
        {
          "name": "Tavannes",
          "latitude": "47.22079000",
          "longitude": "7.19759000"
        },
        {
          "name": "Thierachern",
          "latitude": "46.75319000",
          "longitude": "7.57442000"
        },
        {
          "name": "Thun",
          "latitude": "46.75118000",
          "longitude": "7.62166000"
        },
        {
          "name": "Thun District",
          "latitude": "46.76290000",
          "longitude": "7.62503000"
        },
        {
          "name": "Toffen",
          "latitude": "46.86031000",
          "longitude": "7.49216000"
        },
        {
          "name": "Trachselwald",
          "latitude": "47.01699000",
          "longitude": "7.73639000"
        },
        {
          "name": "Tramelan",
          "latitude": "47.22298000",
          "longitude": "7.10287000"
        },
        {
          "name": "Trub",
          "latitude": "46.94168000",
          "longitude": "7.87996000"
        },
        {
          "name": "Trubschachen",
          "latitude": "46.92228000",
          "longitude": "7.84520000"
        },
        {
          "name": "Uetendorf",
          "latitude": "46.77392000",
          "longitude": "7.57251000"
        },
        {
          "name": "Unterseen",
          "latitude": "46.68530000",
          "longitude": "7.84722000"
        },
        {
          "name": "Urtenen",
          "latitude": "47.02667000",
          "longitude": "7.50081000"
        },
        {
          "name": "Uttigen",
          "latitude": "46.79435000",
          "longitude": "7.57789000"
        },
        {
          "name": "Utzenstorf",
          "latitude": "47.13248000",
          "longitude": "7.55355000"
        },
        {
          "name": "Vechigen",
          "latitude": "46.94616000",
          "longitude": "7.56065000"
        },
        {
          "name": "Walkringen",
          "latitude": "46.94856000",
          "longitude": "7.62040000"
        },
        {
          "name": "Wangen an der Aare",
          "latitude": "47.23208000",
          "longitude": "7.65253000"
        },
        {
          "name": "Wattenwil",
          "latitude": "46.76973000",
          "longitude": "7.50835000"
        },
        {
          "name": "Wichtrach",
          "latitude": "46.85010000",
          "longitude": "7.57748000"
        },
        {
          "name": "Wiedlisbach",
          "latitude": "47.25194000",
          "longitude": "7.64610000"
        },
        {
          "name": "Wilderswil",
          "latitude": "46.66369000",
          "longitude": "7.86175000"
        },
        {
          "name": "Wimmis",
          "latitude": "46.67587000",
          "longitude": "7.63972000"
        },
        {
          "name": "Wohlen",
          "latitude": "46.97118000",
          "longitude": "7.35685000"
        },
        {
          "name": "Worb",
          "latitude": "46.92984000",
          "longitude": "7.56306000"
        },
        {
          "name": "Worben",
          "latitude": "47.10279000",
          "longitude": "7.29518000"
        },
        {
          "name": "Wynau",
          "latitude": "47.25570000",
          "longitude": "7.81626000"
        },
        {
          "name": "Wynigen",
          "latitude": "47.10586000",
          "longitude": "7.66681000"
        },
        {
          "name": "Wyssachen",
          "latitude": "47.07851000",
          "longitude": "7.82922000"
        },
        {
          "name": "Zäziwil",
          "latitude": "46.90196000",
          "longitude": "7.66185000"
        },
        {
          "name": "Zollikofen",
          "latitude": "46.99905000",
          "longitude": "7.45809000"
        },
        {
          "name": "Zweisimmen",
          "latitude": "46.55539000",
          "longitude": "7.37302000"
        }
      ]
    },
    {
      "name": "Canton of Fribourg",
      "state_code": "FR",
      "latitude": "46.68167480",
      "longitude": "7.11726350",
      "cities": [
        {
          "name": "Alterswil",
          "latitude": "46.79587000",
          "longitude": "7.25877000"
        },
        {
          "name": "Attalens",
          "latitude": "46.50555000",
          "longitude": "6.85039000"
        },
        {
          "name": "Avry-sur-Matran",
          "latitude": "46.78753000",
          "longitude": "7.06735000"
        },
        {
          "name": "Bas-Vully",
          "latitude": "46.96194000",
          "longitude": "7.11251000"
        },
        {
          "name": "Belfaux",
          "latitude": "46.82171000",
          "longitude": "7.10674000"
        },
        {
          "name": "Bösingen",
          "latitude": "46.89229000",
          "longitude": "7.22770000"
        },
        {
          "name": "Broc",
          "latitude": "46.60513000",
          "longitude": "7.09891000"
        },
        {
          "name": "Broye District",
          "latitude": "46.82212000",
          "longitude": "6.90249000"
        },
        {
          "name": "Bulle",
          "latitude": "46.61797000",
          "longitude": "7.05690000"
        },
        {
          "name": "Charmey",
          "latitude": "46.61957000",
          "longitude": "7.16486000"
        },
        {
          "name": "Châtel-Saint-Denis",
          "latitude": "46.52691000",
          "longitude": "6.90083000"
        },
        {
          "name": "Corminboeuf",
          "latitude": "46.81029000",
          "longitude": "7.10535000"
        },
        {
          "name": "Courgevaux",
          "latitude": "46.90648000",
          "longitude": "7.11215000"
        },
        {
          "name": "Cugy",
          "latitude": "46.81479000",
          "longitude": "6.88888000"
        },
        {
          "name": "Domdidier",
          "latitude": "46.86716000",
          "longitude": "7.01337000"
        },
        {
          "name": "Düdingen",
          "latitude": "46.84916000",
          "longitude": "7.19150000"
        },
        {
          "name": "Ecublens",
          "latitude": "46.60735000",
          "longitude": "6.80895000"
        },
        {
          "name": "Ependes",
          "latitude": "46.75368000",
          "longitude": "7.14609000"
        },
        {
          "name": "Estavayer-le-Lac",
          "latitude": "46.84876000",
          "longitude": "6.84650000"
        },
        {
          "name": "Flamatt",
          "latitude": "46.88994000",
          "longitude": "7.32204000"
        },
        {
          "name": "Fribourg",
          "latitude": "46.80237000",
          "longitude": "7.15128000"
        },
        {
          "name": "Giffers",
          "latitude": "46.76230000",
          "longitude": "7.20845000"
        },
        {
          "name": "Givisiez",
          "latitude": "46.81201000",
          "longitude": "7.12639000"
        },
        {
          "name": "Glâne District",
          "latitude": "46.66667000",
          "longitude": "6.91667000"
        },
        {
          "name": "Grolley",
          "latitude": "46.83360000",
          "longitude": "7.07116000"
        },
        {
          "name": "Gruyère District",
          "latitude": "46.60753000",
          "longitude": "7.10741000"
        },
        {
          "name": "Gruyères",
          "latitude": "46.58338000",
          "longitude": "7.08207000"
        },
        {
          "name": "Heitenried",
          "latitude": "46.82762000",
          "longitude": "7.29944000"
        },
        {
          "name": "Kerzers",
          "latitude": "46.97586000",
          "longitude": "7.19570000"
        },
        {
          "name": "La Roche",
          "latitude": "46.69620000",
          "longitude": "7.13721000"
        },
        {
          "name": "La Tour-de-Trême",
          "latitude": "46.61061000",
          "longitude": "7.06496000"
        },
        {
          "name": "Lake District",
          "latitude": "46.91016000",
          "longitude": "7.14088000"
        },
        {
          "name": "Marly",
          "latitude": "46.77611000",
          "longitude": "7.16459000"
        },
        {
          "name": "Marsens",
          "latitude": "46.65644000",
          "longitude": "7.05948000"
        },
        {
          "name": "Mézières",
          "latitude": "46.67958000",
          "longitude": "6.92630000"
        },
        {
          "name": "Murten/Morat",
          "latitude": "46.92827000",
          "longitude": "7.11715000"
        },
        {
          "name": "Oberschrot",
          "latitude": "46.74126000",
          "longitude": "7.28149000"
        },
        {
          "name": "Plaffeien",
          "latitude": "46.74198000",
          "longitude": "7.28666000"
        },
        {
          "name": "Praroman",
          "latitude": "46.75145000",
          "longitude": "7.17778000"
        },
        {
          "name": "Rechthalten",
          "latitude": "46.76766000",
          "longitude": "7.24028000"
        },
        {
          "name": "Riaz",
          "latitude": "46.64224000",
          "longitude": "7.06183000"
        },
        {
          "name": "Romont",
          "latitude": "46.69652000",
          "longitude": "6.91898000"
        },
        {
          "name": "Rue",
          "latitude": "46.61916000",
          "longitude": "6.82225000"
        },
        {
          "name": "Sâles",
          "latitude": "46.63473000",
          "longitude": "6.97336000"
        },
        {
          "name": "Sankt Antoni",
          "latitude": "46.82207000",
          "longitude": "7.26091000"
        },
        {
          "name": "Sarine District",
          "latitude": "46.78435000",
          "longitude": "7.09993000"
        },
        {
          "name": "Schmitten",
          "latitude": "46.85750000",
          "longitude": "7.25031000"
        },
        {
          "name": "Sense District",
          "latitude": "46.80132000",
          "longitude": "7.26028000"
        },
        {
          "name": "Tafers",
          "latitude": "46.81483000",
          "longitude": "7.21852000"
        },
        {
          "name": "Treyvaux",
          "latitude": "46.72796000",
          "longitude": "7.13769000"
        },
        {
          "name": "Ueberstorf",
          "latitude": "46.86587000",
          "longitude": "7.30998000"
        },
        {
          "name": "Veveyse District",
          "latitude": "46.55083000",
          "longitude": "6.91085000"
        },
        {
          "name": "Villars-sur-Glâne",
          "latitude": "46.79054000",
          "longitude": "7.11717000"
        },
        {
          "name": "Villaz-Saint-Pierre",
          "latitude": "46.72074000",
          "longitude": "6.95638000"
        },
        {
          "name": "Vuadens",
          "latitude": "46.61545000",
          "longitude": "7.01732000"
        }
      ]
    },
    {
      "name": "Canton of Geneva",
      "state_code": "GE",
      "latitude": "46.21800730",
      "longitude": "6.12169250",
      "cities": [
        {
          "name": "Aire-la-Ville",
          "latitude": "46.19057000",
          "longitude": "6.04287000"
        },
        {
          "name": "Anières",
          "latitude": "46.27673000",
          "longitude": "6.22204000"
        },
        {
          "name": "Bellevue",
          "latitude": "46.25739000",
          "longitude": "6.15475000"
        },
        {
          "name": "Bernex",
          "latitude": "46.17650000",
          "longitude": "6.07544000"
        },
        {
          "name": "Carouge",
          "latitude": "46.18096000",
          "longitude": "6.13921000"
        },
        {
          "name": "Chancy",
          "latitude": "46.15003000",
          "longitude": "5.97153000"
        },
        {
          "name": "Chêne-Bougeries",
          "latitude": "46.19843000",
          "longitude": "6.18642000"
        },
        {
          "name": "Chêne-Bourg",
          "latitude": "46.19534000",
          "longitude": "6.19406000"
        },
        {
          "name": "Confignon",
          "latitude": "46.17341000",
          "longitude": "6.08437000"
        },
        {
          "name": "Corsier",
          "latitude": "46.26297000",
          "longitude": "6.22461000"
        },
        {
          "name": "Dardagny",
          "latitude": "46.19564000",
          "longitude": "5.99497000"
        },
        {
          "name": "Genève",
          "latitude": "46.20222000",
          "longitude": "6.14569000"
        },
        {
          "name": "Jussy",
          "latitude": "46.23590000",
          "longitude": "6.26701000"
        },
        {
          "name": "Lancy",
          "latitude": "46.18981000",
          "longitude": "6.11441000"
        },
        {
          "name": "Le Grand-Saconnex",
          "latitude": "46.23188000",
          "longitude": "6.12091000"
        },
        {
          "name": "Les Avanchets",
          "latitude": "46.22168000",
          "longitude": "6.10814000"
        },
        {
          "name": "Meinier",
          "latitude": "46.24706000",
          "longitude": "6.23423000"
        },
        {
          "name": "Meyrin",
          "latitude": "46.23424000",
          "longitude": "6.08025000"
        },
        {
          "name": "Onex",
          "latitude": "46.18396000",
          "longitude": "6.10237000"
        },
        {
          "name": "Plan-les-Ouates",
          "latitude": "46.16789000",
          "longitude": "6.11664000"
        },
        {
          "name": "Puplinge",
          "latitude": "46.21043000",
          "longitude": "6.23114000"
        },
        {
          "name": "Satigny",
          "latitude": "46.21462000",
          "longitude": "6.03553000"
        },
        {
          "name": "Thônex",
          "latitude": "46.18815000",
          "longitude": "6.19904000"
        },
        {
          "name": "Troinex",
          "latitude": "46.16313000",
          "longitude": "6.14745000"
        },
        {
          "name": "Vandœuvres",
          "latitude": "46.22179000",
          "longitude": "6.20285000"
        },
        {
          "name": "Vernier",
          "latitude": "46.21702000",
          "longitude": "6.08497000"
        },
        {
          "name": "Versoix",
          "latitude": "46.28382000",
          "longitude": "6.16214000"
        },
        {
          "name": "Veyrier",
          "latitude": "46.16699000",
          "longitude": "6.18436000"
        }
      ]
    },
    {
      "name": "Canton of Jura",
      "state_code": "JU",
      "latitude": "47.34444740",
      "longitude": "7.14306080",
      "cities": [
        {
          "name": "Alle",
          "latitude": "47.42542000",
          "longitude": "7.13018000"
        },
        {
          "name": "Bassecourt",
          "latitude": "47.33808000",
          "longitude": "7.24373000"
        },
        {
          "name": "Boncourt",
          "latitude": "47.49493000",
          "longitude": "7.01297000"
        },
        {
          "name": "Courfaivre",
          "latitude": "47.33461000",
          "longitude": "7.28186000"
        },
        {
          "name": "Courgenay",
          "latitude": "47.40483000",
          "longitude": "7.12522000"
        },
        {
          "name": "Courrendlin",
          "latitude": "47.33853000",
          "longitude": "7.37243000"
        },
        {
          "name": "Courroux",
          "latitude": "47.36069000",
          "longitude": "7.37371000"
        },
        {
          "name": "Courtételle",
          "latitude": "47.34074000",
          "longitude": "7.31827000"
        },
        {
          "name": "Delémont",
          "latitude": "47.36493000",
          "longitude": "7.34453000"
        },
        {
          "name": "Delémont District",
          "latitude": "47.35434000",
          "longitude": "7.33053000"
        },
        {
          "name": "Fontenais",
          "latitude": "47.40292000",
          "longitude": "7.08108000"
        },
        {
          "name": "Franches-Montagnes District",
          "latitude": "47.24935000",
          "longitude": "7.04562000"
        },
        {
          "name": "Glovelier",
          "latitude": "47.33534000",
          "longitude": "7.20556000"
        },
        {
          "name": "Le Noirmont",
          "latitude": "47.22464000",
          "longitude": "6.95784000"
        },
        {
          "name": "Les Bois",
          "latitude": "47.17715000",
          "longitude": "6.90498000"
        },
        {
          "name": "Les Breuleux",
          "latitude": "47.21099000",
          "longitude": "7.00792000"
        },
        {
          "name": "Porrentruy",
          "latitude": "47.41728000",
          "longitude": "7.07573000"
        },
        {
          "name": "Porrentruy District",
          "latitude": "47.41475000",
          "longitude": "7.07638000"
        },
        {
          "name": "Saignelégier",
          "latitude": "47.25619000",
          "longitude": "6.99648000"
        },
        {
          "name": "Vicques",
          "latitude": "47.35000000",
          "longitude": "7.41342000"
        }
      ]
    },
    {
      "name": "Canton of Lucerne",
      "state_code": "LU",
      "latitude": "47.07956710",
      "longitude": "8.16624450",
      "cities": [
        {
          "name": "Adligenswil",
          "latitude": "47.06521000",
          "longitude": "8.36124000"
        },
        {
          "name": "Altishofen",
          "latitude": "47.19916000",
          "longitude": "7.96964000"
        },
        {
          "name": "Ballwil",
          "latitude": "47.15371000",
          "longitude": "8.32233000"
        },
        {
          "name": "Beromünster",
          "latitude": "47.20612000",
          "longitude": "8.19265000"
        },
        {
          "name": "Buchrain",
          "latitude": "47.09625000",
          "longitude": "8.34729000"
        },
        {
          "name": "Büron",
          "latitude": "47.21192000",
          "longitude": "8.09420000"
        },
        {
          "name": "Buttisholz",
          "latitude": "47.11442000",
          "longitude": "8.09425000"
        },
        {
          "name": "Dagmersellen",
          "latitude": "47.21405000",
          "longitude": "7.98519000"
        },
        {
          "name": "Ebikon",
          "latitude": "47.07937000",
          "longitude": "8.34041000"
        },
        {
          "name": "Eich",
          "latitude": "47.15116000",
          "longitude": "8.16695000"
        },
        {
          "name": "Emmen",
          "latitude": "47.07819000",
          "longitude": "8.27331000"
        },
        {
          "name": "Entlebuch",
          "latitude": "46.99559000",
          "longitude": "8.06354000"
        },
        {
          "name": "Entlebuch District",
          "latitude": "46.92590000",
          "longitude": "8.01427000"
        },
        {
          "name": "Escholzmatt",
          "latitude": "46.91350000",
          "longitude": "7.93426000"
        },
        {
          "name": "Ettiswil",
          "latitude": "47.15031000",
          "longitude": "8.01759000"
        },
        {
          "name": "Flühli",
          "latitude": "46.88391000",
          "longitude": "8.01558000"
        },
        {
          "name": "Geuensee",
          "latitude": "47.19970000",
          "longitude": "8.10689000"
        },
        {
          "name": "Grosswangen",
          "latitude": "47.13310000",
          "longitude": "8.05041000"
        },
        {
          "name": "Gunzwil",
          "latitude": "47.21072000",
          "longitude": "8.17932000"
        },
        {
          "name": "Hasle",
          "latitude": "46.97787000",
          "longitude": "8.05326000"
        },
        {
          "name": "Hildisrieden",
          "latitude": "47.15068000",
          "longitude": "8.22582000"
        },
        {
          "name": "Hitzkirch",
          "latitude": "47.22403000",
          "longitude": "8.26425000"
        },
        {
          "name": "Hochdorf",
          "latitude": "47.16841000",
          "longitude": "8.29179000"
        },
        {
          "name": "Hochdorf District",
          "latitude": "47.17062000",
          "longitude": "8.28702000"
        },
        {
          "name": "Hohenrain",
          "latitude": "47.18083000",
          "longitude": "8.31802000"
        },
        {
          "name": "Horw",
          "latitude": "47.01692000",
          "longitude": "8.30956000"
        },
        {
          "name": "Inwil",
          "latitude": "47.12530000",
          "longitude": "8.34885000"
        },
        {
          "name": "Knutwil",
          "latitude": "47.19953000",
          "longitude": "8.07315000"
        },
        {
          "name": "Kriens",
          "latitude": "47.03110000",
          "longitude": "8.28547000"
        },
        {
          "name": "Littau",
          "latitude": "47.05000000",
          "longitude": "8.26274000"
        },
        {
          "name": "Lucerne-Land District",
          "latitude": "47.04046000",
          "longitude": "8.29271000"
        },
        {
          "name": "Lucerne-Stadt District",
          "latitude": "47.05334000",
          "longitude": "8.31063000"
        },
        {
          "name": "Luthern",
          "latitude": "47.05753000",
          "longitude": "7.91692000"
        },
        {
          "name": "Luzern",
          "latitude": "47.05048000",
          "longitude": "8.30635000"
        },
        {
          "name": "Malters",
          "latitude": "47.03628000",
          "longitude": "8.18193000"
        },
        {
          "name": "Mauensee",
          "latitude": "47.16703000",
          "longitude": "8.06793000"
        },
        {
          "name": "Meggen",
          "latitude": "47.04691000",
          "longitude": "8.37467000"
        },
        {
          "name": "Meierskappel",
          "latitude": "47.12470000",
          "longitude": "8.44274000"
        },
        {
          "name": "Menznau",
          "latitude": "47.08364000",
          "longitude": "8.03971000"
        },
        {
          "name": "Nebikon",
          "latitude": "47.19185000",
          "longitude": "7.97769000"
        },
        {
          "name": "Neudorf",
          "latitude": "47.17699000",
          "longitude": "8.20911000"
        },
        {
          "name": "Neuenkirch",
          "latitude": "47.09989000",
          "longitude": "8.20416000"
        },
        {
          "name": "Nottwil",
          "latitude": "47.13469000",
          "longitude": "8.13774000"
        },
        {
          "name": "Oberkirch",
          "latitude": "47.15642000",
          "longitude": "8.11567000"
        },
        {
          "name": "Pfaffnau",
          "latitude": "47.22772000",
          "longitude": "7.89719000"
        },
        {
          "name": "Reiden",
          "latitude": "47.24719000",
          "longitude": "7.97135000"
        },
        {
          "name": "Römerswil",
          "latitude": "47.16881000",
          "longitude": "8.24528000"
        },
        {
          "name": "Root",
          "latitude": "47.11458000",
          "longitude": "8.39021000"
        },
        {
          "name": "Ruswil",
          "latitude": "47.08425000",
          "longitude": "8.12645000"
        },
        {
          "name": "Schenkon",
          "latitude": "47.17765000",
          "longitude": "8.13204000"
        },
        {
          "name": "Schötz",
          "latitude": "47.16896000",
          "longitude": "7.98870000"
        },
        {
          "name": "Schüpfheim",
          "latitude": "46.95161000",
          "longitude": "8.01723000"
        },
        {
          "name": "Schwarzenberg",
          "latitude": "47.01705000",
          "longitude": "8.17261000"
        },
        {
          "name": "Sempach",
          "latitude": "47.13577000",
          "longitude": "8.19149000"
        },
        {
          "name": "Sursee",
          "latitude": "47.17088000",
          "longitude": "8.11113000"
        },
        {
          "name": "Sursee District",
          "latitude": "47.15591000",
          "longitude": "8.13704000"
        },
        {
          "name": "Triengen",
          "latitude": "47.23573000",
          "longitude": "8.07652000"
        },
        {
          "name": "Udligenswil",
          "latitude": "47.09005000",
          "longitude": "8.40335000"
        },
        {
          "name": "Vitznau",
          "latitude": "47.01014000",
          "longitude": "8.48420000"
        },
        {
          "name": "Wauwil",
          "latitude": "47.18457000",
          "longitude": "8.02100000"
        },
        {
          "name": "Weggis",
          "latitude": "47.03208000",
          "longitude": "8.43219000"
        },
        {
          "name": "Werthenstein",
          "latitude": "47.05578000",
          "longitude": "8.10182000"
        },
        {
          "name": "Wikon",
          "latitude": "47.26339000",
          "longitude": "7.96801000"
        },
        {
          "name": "Willisau",
          "latitude": "47.12183000",
          "longitude": "7.99418000"
        },
        {
          "name": "Willisau District",
          "latitude": "47.14097000",
          "longitude": "7.95933000"
        },
        {
          "name": "Wolhusen",
          "latitude": "47.05983000",
          "longitude": "8.07389000"
        },
        {
          "name": "Zell",
          "latitude": "47.13673000",
          "longitude": "7.92495000"
        }
      ]
    },
    {
      "name": "Canton of Neuchâtel",
      "state_code": "NE",
      "latitude": "46.98998740",
      "longitude": "6.92927320",
      "cities": [
        {
          "name": "Auvernier",
          "latitude": "46.97545000",
          "longitude": "6.87903000"
        },
        {
          "name": "Bevaix",
          "latitude": "46.92958000",
          "longitude": "6.81470000"
        },
        {
          "name": "Boudry",
          "latitude": "46.94991000",
          "longitude": "6.83757000"
        },
        {
          "name": "Boudry District",
          "latitude": "46.94594000",
          "longitude": "6.82842000"
        },
        {
          "name": "Cernier",
          "latitude": "47.05878000",
          "longitude": "6.90040000"
        },
        {
          "name": "Chézard-Saint-Martin",
          "latitude": "47.06629000",
          "longitude": "6.93332000"
        },
        {
          "name": "Cornaux",
          "latitude": "47.03960000",
          "longitude": "7.01872000"
        },
        {
          "name": "Cortaillod",
          "latitude": "46.94306000",
          "longitude": "6.84440000"
        },
        {
          "name": "Couvet",
          "latitude": "46.92525000",
          "longitude": "6.63270000"
        },
        {
          "name": "Dombresson",
          "latitude": "47.07192000",
          "longitude": "6.95920000"
        },
        {
          "name": "Fleurier",
          "latitude": "46.90224000",
          "longitude": "6.58253000"
        },
        {
          "name": "Fontainemelon",
          "latitude": "47.05495000",
          "longitude": "6.88680000"
        },
        {
          "name": "Gorgier",
          "latitude": "46.90143000",
          "longitude": "6.77985000"
        },
        {
          "name": "Grand-Savagnier",
          "latitude": "47.05101000",
          "longitude": "6.95489000"
        },
        {
          "name": "La Chaux-de-Fonds",
          "latitude": "47.09993000",
          "longitude": "6.82586000"
        },
        {
          "name": "La Chaux-de-Fonds District",
          "latitude": "47.12159000",
          "longitude": "6.84064000"
        },
        {
          "name": "Le Landeron",
          "latitude": "47.05702000",
          "longitude": "7.07052000"
        },
        {
          "name": "Le Locle",
          "latitude": "47.05619000",
          "longitude": "6.74913000"
        },
        {
          "name": "Le Locle District",
          "latitude": "47.01927000",
          "longitude": "6.69635000"
        },
        {
          "name": "Les Brenets",
          "latitude": "47.06774000",
          "longitude": "6.70478000"
        },
        {
          "name": "Les Geneveys-sur-Coffrane",
          "latitude": "47.01528000",
          "longitude": "6.85130000"
        },
        {
          "name": "Les Ponts-de-Martel",
          "latitude": "46.99735000",
          "longitude": "6.73059000"
        },
        {
          "name": "Marin-Epagnier",
          "latitude": "47.01017000",
          "longitude": "6.99941000"
        },
        {
          "name": "Neuchâtel",
          "latitude": "46.99179000",
          "longitude": "6.93100000"
        },
        {
          "name": "Neuchâtel District",
          "latitude": "47.01799000",
          "longitude": "6.99337000"
        },
        {
          "name": "Peseux",
          "latitude": "46.98704000",
          "longitude": "6.88903000"
        },
        {
          "name": "Saint-Aubin-Sauges",
          "latitude": "46.89419000",
          "longitude": "6.77251000"
        },
        {
          "name": "Saint-Blaise",
          "latitude": "47.01511000",
          "longitude": "6.98832000"
        },
        {
          "name": "Travers",
          "latitude": "46.94018000",
          "longitude": "6.67595000"
        },
        {
          "name": "Val-de-Ruz District",
          "latitude": "47.04008000",
          "longitude": "6.90829000"
        },
        {
          "name": "Val-de-Travers District",
          "latitude": "46.90357000",
          "longitude": "6.56310000"
        }
      ]
    },
    {
      "name": "Canton of Schaffhausen",
      "state_code": "SH",
      "latitude": "47.70093640",
      "longitude": "8.56800400",
      "cities": [
        {
          "name": "Beringen",
          "latitude": "47.69763000",
          "longitude": "8.57431000"
        },
        {
          "name": "Bezirk Oberklettgau",
          "latitude": "47.69893000",
          "longitude": "8.51774000"
        },
        {
          "name": "Bezirk Reiat",
          "latitude": "47.74752000",
          "longitude": "8.70821000"
        },
        {
          "name": "Bezirk Schaffhausen",
          "latitude": "47.69440000",
          "longitude": "8.63525000"
        },
        {
          "name": "Bezirk Schleitheim",
          "latitude": "47.75000000",
          "longitude": "8.51111000"
        },
        {
          "name": "Bezirk Stein",
          "latitude": "47.66429000",
          "longitude": "8.84683000"
        },
        {
          "name": "Bezirk Unterklettgau",
          "latitude": "47.68000000",
          "longitude": "8.46333000"
        },
        {
          "name": "Hallau",
          "latitude": "47.69648000",
          "longitude": "8.45827000"
        },
        {
          "name": "Löhningen",
          "latitude": "47.70121000",
          "longitude": "8.55236000"
        },
        {
          "name": "Neuhausen",
          "latitude": "47.68579000",
          "longitude": "8.61474000"
        },
        {
          "name": "Neunkirch",
          "latitude": "47.69012000",
          "longitude": "8.49981000"
        },
        {
          "name": "Ramsen",
          "latitude": "47.70797000",
          "longitude": "8.80949000"
        },
        {
          "name": "Schaffhausen",
          "latitude": "47.69732000",
          "longitude": "8.63493000"
        },
        {
          "name": "Schleitheim",
          "latitude": "47.74818000",
          "longitude": "8.48213000"
        },
        {
          "name": "Stein am Rhein",
          "latitude": "47.65933000",
          "longitude": "8.85964000"
        },
        {
          "name": "Stetten",
          "latitude": "47.74025000",
          "longitude": "8.66298000"
        },
        {
          "name": "Thayngen",
          "latitude": "47.74717000",
          "longitude": "8.70724000"
        },
        {
          "name": "Wilchingen",
          "latitude": "47.66745000",
          "longitude": "8.46774000"
        }
      ]
    },
    {
      "name": "Canton of Solothurn",
      "state_code": "SO",
      "latitude": "47.33207170",
      "longitude": "7.63883850",
      "cities": [
        {
          "name": "Balsthal",
          "latitude": "47.31613000",
          "longitude": "7.69318000"
        },
        {
          "name": "Bettlach",
          "latitude": "47.20062000",
          "longitude": "7.42405000"
        },
        {
          "name": "Bezirk Bucheggberg",
          "latitude": "47.13205000",
          "longitude": "7.47885000"
        },
        {
          "name": "Bezirk Dorneck",
          "latitude": "47.48032000",
          "longitude": "7.61816000"
        },
        {
          "name": "Bezirk Gäu",
          "latitude": "47.29606000",
          "longitude": "7.77503000"
        },
        {
          "name": "Bezirk Gösgen",
          "latitude": "47.37758000",
          "longitude": "7.92030000"
        },
        {
          "name": "Bezirk Lebern",
          "latitude": "47.21798000",
          "longitude": "7.48053000"
        },
        {
          "name": "Bezirk Olten",
          "latitude": "47.34426000",
          "longitude": "7.90755000"
        },
        {
          "name": "Bezirk Solothurn",
          "latitude": "47.20818000",
          "longitude": "7.53084000"
        },
        {
          "name": "Bezirk Thal",
          "latitude": "47.31095000",
          "longitude": "7.63592000"
        },
        {
          "name": "Bezirk Thierstein",
          "latitude": "47.38333000",
          "longitude": "7.55000000"
        },
        {
          "name": "Bezirk Wasseramt",
          "latitude": "47.18911000",
          "longitude": "7.59157000"
        },
        {
          "name": "Biberist",
          "latitude": "47.18009000",
          "longitude": "7.56246000"
        },
        {
          "name": "Breitenbach",
          "latitude": "47.40668000",
          "longitude": "7.54554000"
        },
        {
          "name": "Büsserach",
          "latitude": "47.39415000",
          "longitude": "7.54117000"
        },
        {
          "name": "Deitingen",
          "latitude": "47.21515000",
          "longitude": "7.61880000"
        },
        {
          "name": "Derendingen",
          "latitude": "47.19850000",
          "longitude": "7.58844000"
        },
        {
          "name": "Dornach",
          "latitude": "47.48038000",
          "longitude": "7.61644000"
        },
        {
          "name": "Egerkingen",
          "latitude": "47.31957000",
          "longitude": "7.78424000"
        },
        {
          "name": "Erlinsbach",
          "latitude": "47.39753000",
          "longitude": "8.00797000"
        },
        {
          "name": "Fulenbach",
          "latitude": "47.27103000",
          "longitude": "7.83136000"
        },
        {
          "name": "Gerlafingen",
          "latitude": "47.17087000",
          "longitude": "7.57249000"
        },
        {
          "name": "Grenchen",
          "latitude": "47.19210000",
          "longitude": "7.39586000"
        },
        {
          "name": "Gunzgen",
          "latitude": "47.31375000",
          "longitude": "7.83102000"
        },
        {
          "name": "Hägendorf",
          "latitude": "47.33497000",
          "longitude": "7.84133000"
        },
        {
          "name": "Himmelried",
          "latitude": "47.42136000",
          "longitude": "7.59985000"
        },
        {
          "name": "Hochwald",
          "latitude": "47.45389000",
          "longitude": "7.64459000"
        },
        {
          "name": "Kleinlützel",
          "latitude": "47.42518000",
          "longitude": "7.41607000"
        },
        {
          "name": "Kriegstetten",
          "latitude": "47.17449000",
          "longitude": "7.59799000"
        },
        {
          "name": "Langendorf",
          "latitude": "47.21974000",
          "longitude": "7.51469000"
        },
        {
          "name": "Laupersdorf",
          "latitude": "47.31260000",
          "longitude": "7.65465000"
        },
        {
          "name": "Lostorf",
          "latitude": "47.38372000",
          "longitude": "7.94655000"
        },
        {
          "name": "Luterbach",
          "latitude": "47.21426000",
          "longitude": "7.58463000"
        },
        {
          "name": "Matzendorf",
          "latitude": "47.30374000",
          "longitude": "7.62820000"
        },
        {
          "name": "Messen",
          "latitude": "47.09155000",
          "longitude": "7.44528000"
        },
        {
          "name": "Niedergösgen",
          "latitude": "47.37157000",
          "longitude": "7.98837000"
        },
        {
          "name": "Nunningen",
          "latitude": "47.39410000",
          "longitude": "7.61951000"
        },
        {
          "name": "Oberbuchsiten",
          "latitude": "47.31334000",
          "longitude": "7.76836000"
        },
        {
          "name": "Obergösgen",
          "latitude": "47.36538000",
          "longitude": "7.95173000"
        },
        {
          "name": "Oensingen",
          "latitude": "47.28764000",
          "longitude": "7.71612000"
        },
        {
          "name": "Olten",
          "latitude": "47.34999000",
          "longitude": "7.90329000"
        },
        {
          "name": "Riedholz",
          "latitude": "47.23158000",
          "longitude": "7.56829000"
        },
        {
          "name": "Rodersdorf",
          "latitude": "47.48082000",
          "longitude": "7.45767000"
        },
        {
          "name": "Rohr",
          "latitude": "47.41029000",
          "longitude": "7.95333000"
        },
        {
          "name": "Schönenwerd",
          "latitude": "47.36910000",
          "longitude": "8.00167000"
        },
        {
          "name": "Selzach",
          "latitude": "47.20531000",
          "longitude": "7.45521000"
        },
        {
          "name": "Solothurn",
          "latitude": "47.20791000",
          "longitude": "7.53714000"
        },
        {
          "name": "Subingen",
          "latitude": "47.19852000",
          "longitude": "7.61949000"
        },
        {
          "name": "Trimbach",
          "latitude": "47.36561000",
          "longitude": "7.88680000"
        },
        {
          "name": "Wangen",
          "latitude": "47.34365000",
          "longitude": "7.86982000"
        },
        {
          "name": "Welschenrohr",
          "latitude": "47.28052000",
          "longitude": "7.52664000"
        },
        {
          "name": "Wolfwil",
          "latitude": "47.26871000",
          "longitude": "7.79652000"
        },
        {
          "name": "Zuchwil",
          "latitude": "47.20173000",
          "longitude": "7.56649000"
        }
      ]
    },
    {
      "name": "Canton of St. Gallen",
      "state_code": "SG",
      "latitude": "47.14562540",
      "longitude": "9.35043320",
      "cities": [
        {
          "name": "Altstätten",
          "latitude": "47.37766000",
          "longitude": "9.54746000"
        },
        {
          "name": "Amden",
          "latitude": "47.14888000",
          "longitude": "9.14233000"
        },
        {
          "name": "Andwil",
          "latitude": "47.43855000",
          "longitude": "9.27436000"
        },
        {
          "name": "Au",
          "latitude": "47.43093000",
          "longitude": "9.63448000"
        },
        {
          "name": "Bad Ragaz",
          "latitude": "47.00601000",
          "longitude": "9.50266000"
        },
        {
          "name": "Balgach",
          "latitude": "47.40556000",
          "longitude": "9.60702000"
        },
        {
          "name": "Benken",
          "latitude": "47.19942000",
          "longitude": "9.00735000"
        },
        {
          "name": "Bronschhofen",
          "latitude": "47.47835000",
          "longitude": "9.03454000"
        },
        {
          "name": "Buchs",
          "latitude": "47.16743000",
          "longitude": "9.47794000"
        },
        {
          "name": "Bütschwil",
          "latitude": "47.36022000",
          "longitude": "9.07213000"
        },
        {
          "name": "Degersheim",
          "latitude": "47.37429000",
          "longitude": "9.20019000"
        },
        {
          "name": "Diepoldsau",
          "latitude": "47.38600000",
          "longitude": "9.65558000"
        },
        {
          "name": "Ebnat-Kappel",
          "latitude": "47.26195000",
          "longitude": "9.12473000"
        },
        {
          "name": "Eggersriet",
          "latitude": "47.44202000",
          "longitude": "9.46901000"
        },
        {
          "name": "Eichberg",
          "latitude": "47.34374000",
          "longitude": "9.53140000"
        },
        {
          "name": "Eschenbach",
          "latitude": "47.23981000",
          "longitude": "8.92156000"
        },
        {
          "name": "Flawil",
          "latitude": "47.41301000",
          "longitude": "9.18324000"
        },
        {
          "name": "Flums",
          "latitude": "47.09058000",
          "longitude": "9.34301000"
        },
        {
          "name": "Gams",
          "latitude": "47.20429000",
          "longitude": "9.44172000"
        },
        {
          "name": "Ganterschwil",
          "latitude": "47.38103000",
          "longitude": "9.09239000"
        },
        {
          "name": "Goldach",
          "latitude": "47.47401000",
          "longitude": "9.46711000"
        },
        {
          "name": "Goldingen",
          "latitude": "47.26477000",
          "longitude": "8.96167000"
        },
        {
          "name": "Gommiswald",
          "latitude": "47.23128000",
          "longitude": "9.02355000"
        },
        {
          "name": "Gossau",
          "latitude": "47.41551000",
          "longitude": "9.25482000"
        },
        {
          "name": "Grabs",
          "latitude": "47.18248000",
          "longitude": "9.44395000"
        },
        {
          "name": "Haag (Rheintal)",
          "latitude": "47.20989000",
          "longitude": "9.48931000"
        },
        {
          "name": "Häggenschwil",
          "latitude": "47.49462000",
          "longitude": "9.34487000"
        },
        {
          "name": "Horn",
          "latitude": "47.49425000",
          "longitude": "9.46246000"
        },
        {
          "name": "Jona",
          "latitude": "47.22983000",
          "longitude": "8.83884000"
        },
        {
          "name": "Jonschwil",
          "latitude": "47.42402000",
          "longitude": "9.08689000"
        },
        {
          "name": "Kaltbrunn",
          "latitude": "47.21367000",
          "longitude": "9.02590000"
        },
        {
          "name": "Kirchberg",
          "latitude": "47.41159000",
          "longitude": "9.04020000"
        },
        {
          "name": "Krummenau",
          "latitude": "47.24755000",
          "longitude": "9.17064000"
        },
        {
          "name": "Lichtensteig",
          "latitude": "47.32381000",
          "longitude": "9.08758000"
        },
        {
          "name": "Lütisburg",
          "latitude": "47.39451000",
          "longitude": "9.08312000"
        },
        {
          "name": "Mogelsberg",
          "latitude": "47.36222000",
          "longitude": "9.13541000"
        },
        {
          "name": "Mörschwil",
          "latitude": "47.47097000",
          "longitude": "9.42278000"
        },
        {
          "name": "Mosnang",
          "latitude": "47.36252000",
          "longitude": "9.04296000"
        },
        {
          "name": "Muolen",
          "latitude": "47.52102000",
          "longitude": "9.32484000"
        },
        {
          "name": "Niederbüren",
          "latitude": "47.46547000",
          "longitude": "9.20568000"
        },
        {
          "name": "Niederhelfenschwil",
          "latitude": "47.47487000",
          "longitude": "9.18543000"
        },
        {
          "name": "Oberhelfenschwil",
          "latitude": "47.35673000",
          "longitude": "9.11076000"
        },
        {
          "name": "Oberriet",
          "latitude": "47.32088000",
          "longitude": "9.56808000"
        },
        {
          "name": "Oberuzwil",
          "latitude": "47.43076000",
          "longitude": "9.12724000"
        },
        {
          "name": "Quarten",
          "latitude": "47.10700000",
          "longitude": "9.24199000"
        },
        {
          "name": "Rapperswil",
          "latitude": "47.22557000",
          "longitude": "8.82228000"
        },
        {
          "name": "Rebstein",
          "latitude": "47.39812000",
          "longitude": "9.58503000"
        },
        {
          "name": "Rheineck",
          "latitude": "47.46630000",
          "longitude": "9.59028000"
        },
        {
          "name": "Rorschach",
          "latitude": "47.47800000",
          "longitude": "9.49030000"
        },
        {
          "name": "Rüthi",
          "latitude": "47.29480000",
          "longitude": "9.53857000"
        },
        {
          "name": "Sankt Gallen",
          "latitude": "47.42391000",
          "longitude": "9.37477000"
        },
        {
          "name": "Sankt Gallenkappel",
          "latitude": "47.24368000",
          "longitude": "8.96438000"
        },
        {
          "name": "Sankt Margrethen",
          "latitude": "47.45253000",
          "longitude": "9.63741000"
        },
        {
          "name": "Sankt Peterzell",
          "latitude": "47.31782000",
          "longitude": "9.17599000"
        },
        {
          "name": "Sargans",
          "latitude": "47.04896000",
          "longitude": "9.44103000"
        },
        {
          "name": "Schänis",
          "latitude": "47.15995000",
          "longitude": "9.04549000"
        },
        {
          "name": "Schmerikon",
          "latitude": "47.22538000",
          "longitude": "8.94836000"
        },
        {
          "name": "Sennwald",
          "latitude": "47.26063000",
          "longitude": "9.50268000"
        },
        {
          "name": "Sevelen",
          "latitude": "47.12213000",
          "longitude": "9.48601000"
        },
        {
          "name": "Thal",
          "latitude": "47.46677000",
          "longitude": "9.56643000"
        },
        {
          "name": "Uznach",
          "latitude": "47.22421000",
          "longitude": "8.98263000"
        },
        {
          "name": "Uzwil",
          "latitude": "47.43653000",
          "longitude": "9.13422000"
        },
        {
          "name": "Wahlkreis Rheintal",
          "latitude": "47.37769000",
          "longitude": "9.57903000"
        },
        {
          "name": "Wahlkreis Rorschach",
          "latitude": "47.46647000",
          "longitude": "9.44246000"
        },
        {
          "name": "Wahlkreis Sarganserland",
          "latitude": "47.05000000",
          "longitude": "9.43333000"
        },
        {
          "name": "Wahlkreis See-Gaster",
          "latitude": "47.22459000",
          "longitude": "9.01680000"
        },
        {
          "name": "Wahlkreis St. Gallen",
          "latitude": "47.46342000",
          "longitude": "9.39052000"
        },
        {
          "name": "Wahlkreis Toggenburg",
          "latitude": "47.29453000",
          "longitude": "9.17283000"
        },
        {
          "name": "Wahlkreis Werdenberg",
          "latitude": "47.17743000",
          "longitude": "9.46299000"
        },
        {
          "name": "Wahlkreis Wil",
          "latitude": "47.42591000",
          "longitude": "9.12451000"
        },
        {
          "name": "Waldkirch",
          "latitude": "47.46859000",
          "longitude": "9.28665000"
        },
        {
          "name": "Walenstadt",
          "latitude": "47.12411000",
          "longitude": "9.31194000"
        },
        {
          "name": "Wattwil",
          "latitude": "47.29955000",
          "longitude": "9.08657000"
        },
        {
          "name": "Weesen",
          "latitude": "47.13447000",
          "longitude": "9.09644000"
        },
        {
          "name": "Wil",
          "latitude": "47.46152000",
          "longitude": "9.04552000"
        },
        {
          "name": "Wildhaus",
          "latitude": "47.20583000",
          "longitude": "9.35402000"
        },
        {
          "name": "Wittenbach",
          "latitude": "47.46108000",
          "longitude": "9.38601000"
        },
        {
          "name": "Zuzwil",
          "latitude": "47.47452000",
          "longitude": "9.11196000"
        }
      ]
    },
    {
      "name": "Canton of Valais",
      "state_code": "VS",
      "latitude": "46.19046140",
      "longitude": "7.54492260",
      "cities": [
        {
          "name": "Ardon",
          "latitude": "46.20951000",
          "longitude": "7.26012000"
        },
        {
          "name": "Ayent",
          "latitude": "46.28249000",
          "longitude": "7.41028000"
        },
        {
          "name": "Bagnes",
          "latitude": "46.08333000",
          "longitude": "7.21667000"
        },
        {
          "name": "Baltschieder",
          "latitude": "46.30888000",
          "longitude": "7.86570000"
        },
        {
          "name": "Basse-Nendaz",
          "latitude": "46.18993000",
          "longitude": "7.31209000"
        },
        {
          "name": "Brig",
          "latitude": "46.31667000",
          "longitude": "7.98333000"
        },
        {
          "name": "Brig District",
          "latitude": "46.28255000",
          "longitude": "8.01185000"
        },
        {
          "name": "Chalais",
          "latitude": "46.26758000",
          "longitude": "7.51145000"
        },
        {
          "name": "Chamoson",
          "latitude": "46.20275000",
          "longitude": "7.22319000"
        },
        {
          "name": "Champéry",
          "latitude": "46.17543000",
          "longitude": "6.86903000"
        },
        {
          "name": "Charrat",
          "latitude": "46.12490000",
          "longitude": "7.13138000"
        },
        {
          "name": "Chermignon-d’en Haut",
          "latitude": "46.28844000",
          "longitude": "7.47487000"
        },
        {
          "name": "Chippis",
          "latitude": "46.28020000",
          "longitude": "7.53962000"
        },
        {
          "name": "Collombey",
          "latitude": "46.27385000",
          "longitude": "6.94789000"
        },
        {
          "name": "Conthey",
          "latitude": "46.22370000",
          "longitude": "7.30283000"
        },
        {
          "name": "Conthey District",
          "latitude": "46.20485000",
          "longitude": "7.27857000"
        },
        {
          "name": "Entremont District",
          "latitude": "46.02099000",
          "longitude": "7.21260000"
        },
        {
          "name": "Evionnaz",
          "latitude": "46.18096000",
          "longitude": "7.02232000"
        },
        {
          "name": "Evolène",
          "latitude": "46.11422000",
          "longitude": "7.49407000"
        },
        {
          "name": "Fiesch",
          "latitude": "46.39981000",
          "longitude": "8.13533000"
        },
        {
          "name": "Fully",
          "latitude": "46.13851000",
          "longitude": "7.11468000"
        },
        {
          "name": "Gampel",
          "latitude": "46.31599000",
          "longitude": "7.74210000"
        },
        {
          "name": "Goms District",
          "latitude": "46.46161000",
          "longitude": "8.22190000"
        },
        {
          "name": "Grächen",
          "latitude": "46.19529000",
          "longitude": "7.83745000"
        },
        {
          "name": "Grimisuat",
          "latitude": "46.25938000",
          "longitude": "7.38408000"
        },
        {
          "name": "Grône",
          "latitude": "46.25288000",
          "longitude": "7.45947000"
        },
        {
          "name": "Hérémence",
          "latitude": "46.18032000",
          "longitude": "7.40477000"
        },
        {
          "name": "Hérens District",
          "latitude": "46.19407000",
          "longitude": "7.42391000"
        },
        {
          "name": "Lens",
          "latitude": "46.28298000",
          "longitude": "7.44976000"
        },
        {
          "name": "Leuk",
          "latitude": "46.31736000",
          "longitude": "7.63412000"
        },
        {
          "name": "Leuk District",
          "latitude": "46.31439000",
          "longitude": "7.67291000"
        },
        {
          "name": "Leukerbad",
          "latitude": "46.37943000",
          "longitude": "7.62687000"
        },
        {
          "name": "Leytron",
          "latitude": "46.18660000",
          "longitude": "7.20780000"
        },
        {
          "name": "Martigny District",
          "latitude": "46.12386000",
          "longitude": "7.10354000"
        },
        {
          "name": "Martigny-Combe",
          "latitude": "46.07817000",
          "longitude": "7.05099000"
        },
        {
          "name": "Martigny-Ville",
          "latitude": "46.10276000",
          "longitude": "7.07245000"
        },
        {
          "name": "Montana",
          "latitude": "46.31338000",
          "longitude": "7.48839000"
        },
        {
          "name": "Monthey",
          "latitude": "46.25451000",
          "longitude": "6.95406000"
        },
        {
          "name": "Monthey District",
          "latitude": "46.27043000",
          "longitude": "6.90274000"
        },
        {
          "name": "Naters",
          "latitude": "46.32536000",
          "longitude": "7.98912000"
        },
        {
          "name": "Orsières",
          "latitude": "46.02903000",
          "longitude": "7.14437000"
        },
        {
          "name": "Randogne",
          "latitude": "46.30952000",
          "longitude": "7.50058000"
        },
        {
          "name": "Raron",
          "latitude": "46.31196000",
          "longitude": "7.80029000"
        },
        {
          "name": "Raron District",
          "latitude": "46.30000000",
          "longitude": "7.80000000"
        },
        {
          "name": "Riddes",
          "latitude": "46.17276000",
          "longitude": "7.22360000"
        },
        {
          "name": "Saas-Fee",
          "latitude": "46.10805000",
          "longitude": "7.92741000"
        },
        {
          "name": "Saas-Grund",
          "latitude": "46.12281000",
          "longitude": "7.93651000"
        },
        {
          "name": "Saillon",
          "latitude": "46.17035000",
          "longitude": "7.18771000"
        },
        {
          "name": "Saint-Léonard",
          "latitude": "46.25152000",
          "longitude": "7.41714000"
        },
        {
          "name": "Saint-Maurice",
          "latitude": "46.21826000",
          "longitude": "7.00320000"
        },
        {
          "name": "Saint-Maurice District",
          "latitude": "46.15384000",
          "longitude": "6.99823000"
        },
        {
          "name": "Salgesch",
          "latitude": "46.31155000",
          "longitude": "7.57120000"
        },
        {
          "name": "Salvan",
          "latitude": "46.11890000",
          "longitude": "7.02078000"
        },
        {
          "name": "Sankt Niklaus",
          "latitude": "46.17717000",
          "longitude": "7.80349000"
        },
        {
          "name": "Savièse",
          "latitude": "46.25115000",
          "longitude": "7.34558000"
        },
        {
          "name": "Saxon",
          "latitude": "46.14937000",
          "longitude": "7.17514000"
        },
        {
          "name": "Sierre",
          "latitude": "46.29192000",
          "longitude": "7.53559000"
        },
        {
          "name": "Sierre District",
          "latitude": "46.27052000",
          "longitude": "7.51570000"
        },
        {
          "name": "Sion District",
          "latitude": "46.23343000",
          "longitude": "7.34939000"
        },
        {
          "name": "Sitten",
          "latitude": "46.22739000",
          "longitude": "7.35559000"
        },
        {
          "name": "Stalden",
          "latitude": "46.23341000",
          "longitude": "7.87273000"
        },
        {
          "name": "Tanay",
          "latitude": "46.34503000",
          "longitude": "6.83041000"
        },
        {
          "name": "Troistorrents",
          "latitude": "46.22890000",
          "longitude": "6.91589000"
        },
        {
          "name": "Turtmann",
          "latitude": "46.30028000",
          "longitude": "7.70200000"
        },
        {
          "name": "Varen",
          "latitude": "46.31860000",
          "longitude": "7.60743000"
        },
        {
          "name": "Verbier",
          "latitude": "46.10020000",
          "longitude": "7.22651000"
        },
        {
          "name": "Vernayaz",
          "latitude": "46.13667000",
          "longitude": "7.03906000"
        },
        {
          "name": "Vétroz",
          "latitude": "46.22171000",
          "longitude": "7.27858000"
        },
        {
          "name": "Vex",
          "latitude": "46.21239000",
          "longitude": "7.39826000"
        },
        {
          "name": "Vionnaz",
          "latitude": "46.31101000",
          "longitude": "6.90062000"
        },
        {
          "name": "Visp",
          "latitude": "46.29370000",
          "longitude": "7.88149000"
        },
        {
          "name": "Visp District",
          "latitude": "46.17612000",
          "longitude": "7.85609000"
        },
        {
          "name": "Visperterminen",
          "latitude": "46.25899000",
          "longitude": "7.90192000"
        },
        {
          "name": "Vouvry",
          "latitude": "46.33746000",
          "longitude": "6.88950000"
        },
        {
          "name": "Zermatt",
          "latitude": "46.01998000",
          "longitude": "7.74863000"
        }
      ]
    },
    {
      "name": "Canton of Vaud",
      "state_code": "VD",
      "latitude": "46.56131350",
      "longitude": "6.53676500",
      "cities": [
        {
          "name": "Aigle",
          "latitude": "46.31810000",
          "longitude": "6.96457000"
        },
        {
          "name": "Aigle District",
          "latitude": "46.30577000",
          "longitude": "7.02974000"
        },