{
  "code": "IL",
  "states": [
    {
      "name": "Central District",
      "state_code": "M",
      "latitude": "47.60875830",
      "longitude": "-122.29642350",
      "cities": [
        {
          "name": "Bet Dagan",
          "latitude": "32.00191000",
          "longitude": "34.82977000"
        },
        {
          "name": "Bet Yiẕẖaq",
          "latitude": "32.32751000",
          "longitude": "34.88878000"
        },
        {
          "name": "Bnei Ayish",
          "latitude": "31.78333000",
          "longitude": "34.75000000"
        },
        {
          "name": "Elyakhin",
          "latitude": "32.40793000",
          "longitude": "34.92433000"
        },
        {
          "name": "Eṭ Ṭaiyiba",
          "latitude": "32.26616000",
          "longitude": "35.00893000"
        },
        {
          "name": "Even Yehuda",
          "latitude": "32.26959000",
          "longitude": "34.88759000"
        },
        {
          "name": "Gan Yavne",
          "latitude": "31.78737000",
          "longitude": "34.70659000"
        },
        {
          "name": "Ganei Tikva",
          "latitude": "32.05971000",
          "longitude": "34.87320000"
        },
        {
          "name": "Gedera",
          "latitude": "31.81456000",
          "longitude": "34.77998000"
        },
        {
          "name": "Hod HaSharon",
          "latitude": "32.15934000",
          "longitude": "34.89320000"
        },
        {
          "name": "Jaljūlya",
          "latitude": "32.15470000",
          "longitude": "34.95372000"
        },
        {
          "name": "Kafr Qāsim",
          "latitude": "32.11406000",
          "longitude": "34.97624000"
        },
        {
          "name": "Kefar H̱abad",
          "latitude": "31.98793000",
          "longitude": "34.85160000"
        },
        {
          "name": "Kefar Yona",
          "latitude": "32.31669000",
          "longitude": "34.93507000"
        },
        {
          "name": "Kfar Saba",
          "latitude": "32.17500000",
          "longitude": "34.90694000"
        },
        {
          "name": "Lapid",
          "latitude": "31.91764000",
          "longitude": "35.03222000"
        },
        {
          "name": "Lod",
          "latitude": "31.94670000",
          "longitude": "34.89030000"
        },
        {
          "name": "Mazkeret Batya",
          "latitude": "31.85357000",
          "longitude": "34.84646000"
        },
        {
          "name": "Modi‘in Makkabbim Re‘ut",
          "latitude": "31.89385000",
          "longitude": "35.01504000"
        },
        {
          "name": "Neẖalim",
          "latitude": "32.06012000",
          "longitude": "34.91069000"
        },
        {
          "name": "Ness Ziona",
          "latitude": "31.92933000",
          "longitude": "34.79868000"
        },
        {
          "name": "Netanya",
          "latitude": "32.33291000",
          "longitude": "34.85992000"
        },
        {
          "name": "Nirit",
          "latitude": "32.14677000",
          "longitude": "34.98622000"
        },
        {
          "name": "Nof Ayalon",
          "latitude": "31.87111000",
          "longitude": "34.99081000"
        },
        {
          "name": "Nordiyya",
          "latitude": "32.31470000",
          "longitude": "34.89617000"
        },
        {
          "name": "Pardesiyya",
          "latitude": "32.30577000",
          "longitude": "34.90911000"
        },
        {
          "name": "Petaẖ Tiqwa",
          "latitude": "32.08707000",
          "longitude": "34.88747000"
        },
        {
          "name": "Qalansuwa",
          "latitude": "32.28493000",
          "longitude": "34.98106000"
        },
        {
          "name": "Ra'anana",
          "latitude": "32.18360000",
          "longitude": "34.87386000"
        },
        {
          "name": "Ramla",
          "latitude": "31.92923000",
          "longitude": "34.86563000"
        },
        {
          "name": "Reẖovot",
          "latitude": "31.89421000",
          "longitude": "34.81199000"
        },
        {
          "name": "Rishon LeẔiyyon",
          "latitude": "31.97102000",
          "longitude": "34.78939000"
        },
        {
          "name": "Rosh Ha‘Ayin",
          "latitude": "32.09556000",
          "longitude": "34.95664000"
        },
        {
          "name": "Savyon",
          "latitude": "32.04966000",
          "longitude": "34.87770000"
        },
        {
          "name": "Shoham",
          "latitude": "31.99866000",
          "longitude": "34.94559000"
        },
        {
          "name": "Tel Mond",
          "latitude": "32.24995000",
          "longitude": "34.91737000"
        },
        {
          "name": "Tirah",
          "latitude": "32.23410000",
          "longitude": "34.95023000"
        },
        {
          "name": "Yavné",
          "latitude": "31.87808000",
          "longitude": "34.73983000"
        },
        {
          "name": "Yehud",
          "latitude": "32.03317000",
          "longitude": "34.89091000"
        },
        {
          "name": "Ẕur Moshe",
          "latitude": "32.29819000",
          "longitude": "34.91313000"
        }
      ]
    },
    {
      "name": "Haifa District",
      "state_code": "HA",
      "latitude": "32.48141110",
      "longitude": "34.99475100",
      "cities": [
        {
          "name": "Atlit",
          "latitude": "32.68889000",
          "longitude": "34.94236000"
        },
        {
          "name": "Caesarea",
          "latitude": "32.51888000",
          "longitude": "34.90459000"
        },
        {
          "name": "Daliyat al Karmel",
          "latitude": "32.69383000",
          "longitude": "35.04686000"
        },
        {
          "name": "El Fureidīs",
          "latitude": "32.59812000",
          "longitude": "34.95153000"
        },
        {
          "name": "Hadera",
          "latitude": "32.44192000",
          "longitude": "34.90390000"
        },
        {
          "name": "Haifa",
          "latitude": "32.81841000",
          "longitude": "34.98850000"
        },
        {
          "name": "Ibṭīn",
          "latitude": "32.76150000",
          "longitude": "35.11402000"
        },
        {
          "name": "Nesher",
          "latitude": "32.76622000",
          "longitude": "35.04425000"
        },
        {
          "name": "Qiryat Ata",
          "latitude": "32.81149000",
          "longitude": "35.11323000"
        },
        {
          "name": "Qiryat Bialik",
          "latitude": "32.82750000",
          "longitude": "35.08583000"
        },
        {
          "name": "Qiryat Moẕqin",
          "latitude": "32.83706000",
          "longitude": "35.07760000"
        },
        {
          "name": "Qiryat Yam",
          "latitude": "32.84966000",
          "longitude": "35.06973000"
        },
        {
          "name": "Rekhasim",
          "latitude": "32.74907000",
          "longitude": "35.09901000"
        },
        {
          "name": "Tirat Karmel",
          "latitude": "32.76021000",
          "longitude": "34.97183000"
        },
        {
          "name": "Umm el Faḥm",
          "latitude": "32.51725000",
          "longitude": "35.15349000"
        }
      ]
    },
    {
      "name": "Jerusalem District",
      "state_code": "JM",
      "latitude": "31.76482430",
      "longitude": "34.99475100",
      "cities": [
        {
          "name": "Abū Ghaush",
          "latitude": "31.80592000",
          "longitude": "35.10930000"
        },
        {
          "name": "Bet Shemesh",
          "latitude": "31.73072000",
          "longitude": "34.99293000"
        },
        {
          "name": "Har Adar",
          "latitude": "31.82754000",
          "longitude": "35.13093000"
        },
        {
          "name": "Jerusalem",
          "latitude": "31.76904000",
          "longitude": "35.21633000"
        },
        {
          "name": "Mevasseret Ẕiyyon",
          "latitude": "31.80186000",
          "longitude": "35.15072000"
        },
        {
          "name": "Modiin Ilit",
          "latitude": "31.93221000",
          "longitude": "35.04416000"
        },
        {
          "name": "West Jerusalem",
          "latitude": "31.78199000",
          "longitude": "35.21961000"
        },
        {
          "name": "Ẕur Hadassa",
          "latitude": "31.71912000",
          "longitude": "35.09708000"
        }
      ]
    },
    {
      "name": "Northern District",
      "state_code": "Z",
      "latitude": "36.15118640",
      "longitude": "-95.99517630",
      "cities": [
        {
          "name": "‘Eilabun",
          "latitude": "32.83693000",
          "longitude": "35.40029000"
        },
        {
          "name": "‘Uzeir",
          "latitude": "32.79212000",
          "longitude": "35.32984000"
        },
        {
          "name": "Acre",
          "latitude": "32.92814000",
          "longitude": "35.07647000"
        },
        {
          "name": "Afula",
          "latitude": "32.60907000",
          "longitude": "35.28920000"
        },
        {
          "name": "Basmat Ṭab‘ūn",
          "latitude": "32.73898000",
          "longitude": "35.15716000"
        },
        {
          "name": "Beit Jann",
          "latitude": "32.96464000",
          "longitude": "35.38152000"
        },
        {
          "name": "Bet She’an",
          "latitude": "32.49728000",
          "longitude": "35.49632000"
        },
        {
          "name": "Bīr el Maksūr",
          "latitude": "32.77732000",
          "longitude": "35.22069000"
        },
        {
          "name": "Bu‘eina",
          "latitude": "32.80636000",
          "longitude": "35.36486000"
        },
        {
          "name": "Buqei‘a",
          "latitude": "32.97747000",
          "longitude": "35.33345000"
        },
        {
          "name": "Dabbūrīya",
          "latitude": "32.69256000",
          "longitude": "35.37123000"
        },
        {
          "name": "Deir Ḥannā",
          "latitude": "32.86196000",
          "longitude": "35.36365000"
        },
        {
          "name": "El Mazra‘a",
          "latitude": "32.98338000",
          "longitude": "35.09837000"
        },
        {
          "name": "Er Reina",
          "latitude": "32.72339000",
          "longitude": "35.31622000"
        },
        {
          "name": "Esh Sheikh Dannūn",
          "latitude": "32.99410000",
          "longitude": "35.14805000"
        },
        {
          "name": "Ḥurfeish",
          "latitude": "33.01711000",
          "longitude": "35.34835000"
        },
        {
          "name": "Iksāl",
          "latitude": "32.68164000",
          "longitude": "35.32365000"
        },
        {
          "name": "Jīsh",
          "latitude": "33.02216000",
          "longitude": "35.44694000"
        },
        {
          "name": "Judeida Makr",
          "latitude": "32.92820000",
          "longitude": "35.15705000"
        },
        {
          "name": "Kābūl",
          "latitude": "32.86856000",
          "longitude": "35.21171000"
        },
        {
          "name": "Kafr Kammā",
          "latitude": "32.72129000",
          "longitude": "35.44122000"
        },
        {
          "name": "Kafr Kannā",
          "latitude": "32.74660000",
          "longitude": "35.34242000"
        },
        {
          "name": "Kafr Mandā",
          "latitude": "32.81034000",
          "longitude": "35.26009000"
        },
        {
          "name": "Kafr Miṣr",
          "latitude": "32.64521000",
          "longitude": "35.42147000"
        },
        {
          "name": "Karmi’el",
          "latitude": "32.91708000",
          "longitude": "35.30501000"
        },
        {
          "name": "Kaukab Abū el Hījā",
          "latitude": "32.83155000",
          "longitude": "35.24848000"
        },
        {
          "name": "Kefar Rosh HaNiqra",
          "latitude": "33.08607000",
          "longitude": "35.11348000"
        },
        {
          "name": "Kefar Tavor",
          "latitude": "32.68655000",
          "longitude": "35.42118000"
        },
        {
          "name": "Kefar Weradim",
          "latitude": "32.99385000",
          "longitude": "35.27793000"
        },
        {
          "name": "Kfar Yasif",
          "latitude": "32.95451000",
          "longitude": "35.16230000"
        },
        {
          "name": "maalot Tarshīhā",
          "latitude": "33.01667000",
          "longitude": "35.26667000"
        },
        {
          "name": "Maghār",
          "latitude": "32.88984000",
          "longitude": "35.40703000"
        },
        {
          "name": "Metulla",
          "latitude": "33.27918000",
          "longitude": "35.57950000"
        },
        {
          "name": "Mi‘ilyā",
          "latitude": "33.02781000",
          "longitude": "35.25658000"
        },
        {
          "name": "Migdal Ha‘Emeq",
          "latitude": "32.67597000",
          "longitude": "35.23986000"
        },
        {
          "name": "Nahariyya",
          "latitude": "33.00892000",
          "longitude": "35.09814000"
        },
        {
          "name": "Naḥf",
          "latitude": "32.93444000",
          "longitude": "35.31679000"
        },
        {
          "name": "Nazareth",
          "latitude": "32.70056000",
          "longitude": "35.29722000"
        },
        {
          "name": "Nefat ‘Akko",
          "latitude": "32.95000000",
          "longitude": "35.23333000"
        },
        {
          "name": "Nein",
          "latitude": "32.63063000",
          "longitude": "35.34885000"
        },
        {
          "name": "Pasuta",
          "latitude": "33.04895000",
          "longitude": "35.30893000"
        },
        {
          "name": "Qiryat Shemona",
          "latitude": "33.20733000",
          "longitude": "35.57212000"
        },
        {
          "name": "Ramat Yishay",
          "latitude": "32.70444000",
          "longitude": "35.17070000"
        },
        {
          "name": "Rosh Pinna",
          "latitude": "32.96894000",
          "longitude": "35.54258000"
        },
        {
          "name": "Rumat Heib",
          "latitude": "32.77802000",
          "longitude": "35.30571000"
        },
        {
          "name": "Safed",
          "latitude": "32.96465000",
          "longitude": "35.49600000"
        },
        {
          "name": "Sājūr",
          "latitude": "32.94266000",
          "longitude": "35.34136000"
        },
        {
          "name": "Sakhnīn",
          "latitude": "32.86422000",
          "longitude": "35.29707000"
        },
        {
          "name": "Sallama",
          "latitude": "32.89443000",
          "longitude": "35.36931000"
        },
        {
          "name": "Shelomi",
          "latitude": "33.07216000",
          "longitude": "35.14452000"
        },
        {
          "name": "Shibli",
          "latitude": "32.69464000",
          "longitude": "35.39252000"
        },
        {
          "name": "Sūlam",
          "latitude": "32.60606000",
          "longitude": "35.33408000"
        },
        {
          "name": "Tamra",
          "latitude": "32.85301000",
          "longitude": "35.19870000"
        },
        {
          "name": "Tiberias",
          "latitude": "32.79221000",
          "longitude": "35.53124000"
        },
        {
          "name": "Timrat",
          "latitude": "32.70302000",
          "longitude": "35.22359000"
        },
        {
          "name": "Yavne’el",
          "latitude": "32.70619000",
          "longitude": "35.50435000"
        }
      ]
    },
    {
      "name": "Southern District",
      "state_code": "D",
      "latitude": "40.71375860",
      "longitude": "-74.00090590",
      "cities": [
        {
          "name": "‘En Boqeq",
          "latitude": "31.19941000",
          "longitude": "35.36253000"
        },
        {
          "name": "Arad",
          "latitude": "31.25882000",
          "longitude": "35.21282000"
        },
        {
          "name": "Ashdod",
          "latitude": "31.79213000",
          "longitude": "34.64966000"
        },
        {
          "name": "Ashkelon",
          "latitude": "31.66926000",
          "longitude": "34.57149000"
        },
        {
          "name": "Beersheba",
          "latitude": "31.25181000",
          "longitude": "34.79130000"
        },
        {
          "name": "Dimona",
          "latitude": "31.07079000",
          "longitude": "35.03269000"
        },
        {
          "name": "Eilat",
          "latitude": "29.55805000",
          "longitude": "34.94821000"
        },
        {
          "name": "Lehavim",
          "latitude": "31.37284000",
          "longitude": "34.81619000"
        },
        {
          "name": "Midreshet Ben-Gurion",
          "latitude": "30.85154000",
          "longitude": "34.78340000"
        },
        {
          "name": "Mitzpe Ramon",
          "latitude": "30.60944000",
          "longitude": "34.80111000"
        },
        {
          "name": "Netivot",
          "latitude": "31.42305000",
          "longitude": "34.58911000"
        },
        {
          "name": "Ofaqim",
          "latitude": "31.31410000",
          "longitude": "34.62025000"
        },
        {
          "name": "Qiryat Gat",
          "latitude": "31.60998000",
          "longitude": "34.76422000"
        },
        {
          "name": "Rahat",
          "latitude": "31.39547000",
          "longitude": "34.75699000"
        },
        {
          "name": "Sederot",
          "latitude": "31.52500000",
          "longitude": "34.59693000"
        },
        {
          "name": "Yeroẖam",
          "latitude": "30.98822000",
          "longitude": "34.93176000"
        }
      ]
    },
    {
      "name": "Tel Aviv District",
      "state_code": "TA",
      "latitude": "32.09290750",
      "longitude": "34.80721650",
      "cities": [
        {
          "name": "Azor",
          "latitude": "32.02430000",
          "longitude": "34.80632000"
        },
        {
          "name": "Bat Yam",
          "latitude": "32.02379000",
          "longitude": "34.75185000"
        },
        {
          "name": "Bnei Brak",
          "latitude": "32.08074000",
          "longitude": "34.83380000"
        },
        {
          "name": "Giv'at Shmuel",
          "latitude": "32.07817000",
          "longitude": "34.84858000"
        },
        {
          "name": "Givatayim",
          "latitude": "32.07225000",
          "longitude": "34.81253000"
        },
        {
          "name": "Herzliya",
          "latitude": "32.16627000",
          "longitude": "34.82536000"
        },
        {
          "name": "Herzliya Pituah",
          "latitude": "32.17409000",
          "longitude": "34.80280000"
        },
        {
          "name": "H̱olon",
          "latitude": "32.01034000",
          "longitude": "34.77918000"
        },
        {
          "name": "Jaffa",
          "latitude": "32.05043000",
          "longitude": "34.75224000"
        },
        {
          "name": "Kefar Shemaryahu",
          "latitude": "32.18529000",
          "longitude": "34.82082000"
        },
        {
          "name": "Or Yehuda",
          "latitude": "32.02923000",
          "longitude": "34.85788000"
        },
        {
          "name": "Ramat Gan",
          "latitude": "32.08227000",
          "longitude": "34.81065000"
        },
        {
          "name": "Ramat HaSharon",
          "latitude": "32.14613000",
          "longitude": "34.83940000"
        },
        {
          "name": "Tel Aviv",
          "latitude": "32.08088000",
          "longitude": "34.78057000"
        },
        {
          "name": "Yehud-Monosson",
          "latitude": "32.02840000",
          "longitude": "34.87960000"
        }
      ]
    }
  ]
}