{
  "code": "JM",
  "states": [
    {
      "name": "Clarendon Parish",
      "state_code": "13",
      "latitude": "17.95571830",
      "longitude": "-77.24051530",
      "cities": [
        {
          "name": "Aenon Town",
          "latitude": "18.21027000",
          "longitude": "-77.39851000"
        },
        {
          "name": "Alley",
          "latitude": "17.79036000",
          "longitude": "-77.27085000"
        },
        {
          "name": "Alston",
          "latitude": "18.17639000",
          "longitude": "-77.43468000"
        },
        {
          "name": "Ashley",
          "latitude": "18.01440000",
          "longitude": "-77.34019000"
        },
        {
          "name": "Banks",
          "latitude": "17.83222000",
          "longitude": "-77.30731000"
        },
        {
          "name": "Beckford Kraal",
          "latitude": "18.08545000",
          "longitude": "-77.32399000"
        },
        {
          "name": "Brandon Hill",
          "latitude": "18.15110000",
          "longitude": "-77.23663000"
        },
        {
          "name": "Brixton Hill",
          "latitude": "18.02039000",
          "longitude": "-77.31744000"
        },
        {
          "name": "Bucknor",
          "latitude": "18.00619000",
          "longitude": "-77.23749000"
        },
        {
          "name": "Bucks Common",
          "latitude": "17.98228000",
          "longitude": "-77.23846000"
        },
        {
          "name": "Bushy Park",
          "latitude": "17.98243000",
          "longitude": "-77.25135000"
        },
        {
          "name": "Chapelton",
          "latitude": "18.08333000",
          "longitude": "-77.26667000"
        },
        {
          "name": "Chateau",
          "latitude": "17.98972000",
          "longitude": "-77.18737000"
        },
        {
          "name": "Cockpit",
          "latitude": "17.88872000",
          "longitude": "-77.15835000"
        },
        {
          "name": "Coffee Piece",
          "latitude": "18.13835000",
          "longitude": "-77.40648000"
        },
        {
          "name": "Colonels Ridge",
          "latitude": "18.13525000",
          "longitude": "-77.25550000"
        },
        {
          "name": "Coxswain",
          "latitude": "18.10272000",
          "longitude": "-77.23444000"
        },
        {
          "name": "Crofts Hill",
          "latitude": "18.13268000",
          "longitude": "-77.20507000"
        },
        {
          "name": "Crooked River",
          "latitude": "18.14289000",
          "longitude": "-77.30000000"
        },
        {
          "name": "Cumberland",
          "latitude": "18.10522000",
          "longitude": "-77.41617000"
        },
        {
          "name": "Curatoe Hill",
          "latitude": "17.93982000",
          "longitude": "-77.24836000"
        },
        {
          "name": "Dawkins",
          "latitude": "18.05540000",
          "longitude": "-77.33303000"
        },
        {
          "name": "Effortville",
          "latitude": "17.99270000",
          "longitude": "-77.21860000"
        },
        {
          "name": "Four Paths",
          "latitude": "17.97089000",
          "longitude": "-77.29599000"
        },
        {
          "name": "Frankfield",
          "latitude": "18.14971000",
          "longitude": "-77.36498000"
        },
        {
          "name": "Freetown",
          "latitude": "17.92192000",
          "longitude": "-77.14781000"
        },
        {
          "name": "Gimme-me-bit",
          "latitude": "17.88946000",
          "longitude": "-77.28469000"
        },
        {
          "name": "Glenmuir",
          "latitude": "17.96801000",
          "longitude": "-77.25394000"
        },
        {
          "name": "Grantham",
          "latitude": "18.15839000",
          "longitude": "-77.39643000"
        },
        {
          "name": "Gravel Hill",
          "latitude": "17.90968000",
          "longitude": "-77.33354000"
        },
        {
          "name": "Hayes",
          "latitude": "17.87569000",
          "longitude": "-77.23711000"
        },
        {
          "name": "Hazard",
          "latitude": "17.95382000",
          "longitude": "-77.23147000"
        },
        {
          "name": "Inverness",
          "latitude": "17.91195000",
          "longitude": "-77.19032000"
        },
        {
          "name": "James Hill",
          "latitude": "18.18750000",
          "longitude": "-77.33700000"
        },
        {
          "name": "Johns Hall",
          "latitude": "18.18876000",
          "longitude": "-77.38063000"
        },
        {
          "name": "Kellits",
          "latitude": "18.16184000",
          "longitude": "-77.27049000"
        },
        {
          "name": "Limit",
          "latitude": "18.15287000",
          "longitude": "-77.47121000"
        },
        {
          "name": "Lionel Town",
          "latitude": "17.81007000",
          "longitude": "-77.24061000"
        },
        {
          "name": "Longville Park",
          "latitude": "17.91188000",
          "longitude": "-77.15983000"
        },
        {
          "name": "Longwood",
          "latitude": "17.80754000",
          "longitude": "-77.28728000"
        },
        {
          "name": "May Pen",
          "latitude": "17.96454000",
          "longitude": "-77.24515000"
        },
        {
          "name": "May Pen Proper",
          "latitude": "17.97034000",
          "longitude": "-77.23911000"
        },
        {
          "name": "Milk River",
          "latitude": "17.87560000",
          "longitude": "-77.35139000"
        },
        {
          "name": "Mineral Heights",
          "latitude": "17.94183000",
          "longitude": "-77.23276000"
        },
        {
          "name": "Mitchell Town",
          "latitude": "17.81281000",
          "longitude": "-77.20531000"
        },
        {
          "name": "Moores",
          "latitude": "18.02926000",
          "longitude": "-77.18540000"
        },
        {
          "name": "Morgans Forest",
          "latitude": "18.19088000",
          "longitude": "-77.41021000"
        },
        {
          "name": "Morgans Pass",
          "latitude": "18.12123000",
          "longitude": "-77.27493000"
        },
        {
          "name": "Mount Airy",
          "latitude": "18.01843000",
          "longitude": "-77.36357000"
        },
        {
          "name": "New Denbigh",
          "latitude": "17.98563000",
          "longitude": "-77.27104000"
        },
        {
          "name": "New Longsville",
          "latitude": "18.03072000",
          "longitude": "-77.23048000"
        },
        {
          "name": "Old Denbigh",
          "latitude": "17.96116000",
          "longitude": "-77.26701000"
        },
        {
          "name": "Orange Hill",
          "latitude": "18.11788000",
          "longitude": "-77.35942000"
        },
        {
          "name": "Osbourne Store",
          "latitude": "17.95892000",
          "longitude": "-77.32827000"
        },
        {
          "name": "Paisley",
          "latitude": "17.96293000",
          "longitude": "-77.22368000"
        },
        {
          "name": "Palmers Cross",
          "latitude": "17.95000000",
          "longitude": "-77.20338000"
        },
        {
          "name": "Part of Banana Ground",
          "latitude": "18.08022000",
          "longitude": "-77.40971000"
        },
        {
          "name": "Part of Douglas Castle",
          "latitude": "18.18703000",
          "longitude": "-77.27538000"
        },
        {
          "name": "Part of Kellits",
          "latitude": "18.17159000",
          "longitude": "-77.25120000"
        },
        {
          "name": "Peckham",
          "latitude": "18.17147000",
          "longitude": "-77.39766000"
        },
        {
          "name": "Pennants",
          "latitude": "18.11025000",
          "longitude": "-77.31306000"
        },
        {
          "name": "Pleasant Valley",
          "latitude": "18.01101000",
          "longitude": "-77.29027000"
        },
        {
          "name": "Portland Cottage",
          "latitude": "17.74620000",
          "longitude": "-77.18772000"
        },
        {
          "name": "Porus",
          "latitude": "18.05202000",
          "longitude": "-77.40007000"
        },
        {
          "name": "Race Course",
          "latitude": "17.84019000",
          "longitude": "-77.28223000"
        },
        {
          "name": "Richmond Park",
          "latitude": "18.05172000",
          "longitude": "-77.37642000"
        },
        {
          "name": "Ritchies",
          "latitude": "18.13904000",
          "longitude": "-77.42893000"
        },
        {
          "name": "Rock",
          "latitude": "17.99122000",
          "longitude": "-77.33702000"
        },
        {
          "name": "Rock River",
          "latitude": "18.06548000",
          "longitude": "-77.19707000"
        },
        {
          "name": "Rocky Point",
          "latitude": "17.77695000",
          "longitude": "-77.24816000"
        },
        {
          "name": "Salt River",
          "latitude": "17.84143000",
          "longitude": "-77.17413000"
        },
        {
          "name": "Sandy Bay",
          "latitude": "17.95105000",
          "longitude": "-77.16225000"
        },
        {
          "name": "Sanguinetti",
          "latitude": "18.15585000",
          "longitude": "-77.42938000"
        },
        {
          "name": "Sedgepond",
          "latitude": "17.84753000",
          "longitude": "-77.32638000"
        },
        {
          "name": "Silent Hill",
          "latitude": "18.19152000",
          "longitude": "-77.45918000"
        },
        {
          "name": "Smithville",
          "latitude": "18.11977000",
          "longitude": "-77.38561000"
        },
        {
          "name": "Spaldings",
          "latitude": "18.16875000",
          "longitude": "-77.45798000"
        },
        {
          "name": "Summerfield",
          "latitude": "18.09433000",
          "longitude": "-77.28429000"
        },
        {
          "name": "Thompson Town",
          "latitude": "18.08968000",
          "longitude": "-77.37186000"
        },
        {
          "name": "Tollgate",
          "latitude": "17.97195000",
          "longitude": "-77.36566000"
        },
        {
          "name": "Treadlight",
          "latitude": "17.99264000",
          "longitude": "-77.25531000"
        },
        {
          "name": "Trout Hall",
          "latitude": "18.13779000",
          "longitude": "-77.33299000"
        },
        {
          "name": "Turners",
          "latitude": "18.06647000",
          "longitude": "-77.23523000"
        },
        {
          "name": "Water Lane",
          "latitude": "17.82452000",
          "longitude": "-77.25946000"
        },
        {
          "name": "Woodhall",
          "latitude": "18.04757000",
          "longitude": "-77.27575000"
        },
        {
          "name": "York Town",
          "latitude": "17.92515000",
          "longitude": "-77.30002000"
        }
      ]
    },
    {
      "name": "Hanover Parish",
      "state_code": "09",
      "latitude": "18.40977070",
      "longitude": "-78.13363800",
      "cities": [
        {
          "name": "Askenish",
          "latitude": "18.38492000",
          "longitude": "-78.14910000"
        },
        {
          "name": "Cacoon",
          "latitude": "18.41642000",
          "longitude": "-78.20730000"
        },
        {
          "name": "Cacoon Castle",
          "latitude": "18.40247000",
          "longitude": "-78.01336000"
        },
        {
          "name": "Cascade",
          "latitude": "18.39747000",
          "longitude": "-78.10337000"
        },
        {
          "name": "Cash Hill",
          "latitude": "18.36920000",
          "longitude": "-78.10938000"
        },
        {
          "name": "Cauldwell",
          "latitude": "18.38583000",
          "longitude": "-78.24110000"
        },
        {
          "name": "Chambers Pen",
          "latitude": "18.40520000",
          "longitude": "-78.15975000"
        },
        {
          "name": "Chester Castle",
          "latitude": "18.33822000",
          "longitude": "-77.94722000"
        },
        {
          "name": "Copse",
          "latitude": "18.39466000",
          "longitude": "-77.97678000"
        },
        {
          "name": "Cousins Cove",
          "latitude": "18.42425000",
          "longitude": "-78.23752000"
        },
        {
          "name": "Dias",
          "latitude": "18.39379000",
          "longitude": "-78.18562000"
        },
        {
          "name": "Great Valley",
          "latitude": "18.41169000",
          "longitude": "-78.05023000"
        },
        {
          "name": "Green Island",
          "latitude": "18.38399000",
          "longitude": "-78.27015000"
        },
        {
          "name": "Haddington",
          "latitude": "18.42043000",
          "longitude": "-78.00383000"
        },
        {
          "name": "Hopewell",
          "latitude": "18.44321000",
          "longitude": "-78.02636000"
        },
        {
          "name": "Jericho",
          "latitude": "18.43744000",
          "longitude": "-78.13028000"
        },
        {
          "name": "Kendal",
          "latitude": "18.36287000",
          "longitude": "-78.22720000"
        },
        {
          "name": "Kingsvale",
          "latitude": "18.38087000",
          "longitude": "-78.20523000"
        },
        {
          "name": "Lances Bay",
          "latitude": "18.43819000",
          "longitude": "-78.21442000"
        },
        {
          "name": "Logwood",
          "latitude": "18.34878000",
          "longitude": "-78.29620000"
        },
        {
          "name": "Lucea",
          "latitude": "18.45095000",
          "longitude": "-78.17356000"
        },
        {
          "name": "Lucea East",
          "latitude": "18.42198000",
          "longitude": "-78.16675000"
        },
        {
          "name": "Lucea West",
          "latitude": "18.44238000",
          "longitude": "-78.18663000"
        },
        {
          "name": "March Town",
          "latitude": "18.32951000",
          "longitude": "-78.27656000"
        },
        {
          "name": "Maryland",
          "latitude": "18.38679000",
          "longitude": "-78.12825000"
        },
        {
          "name": "Mount Peto",
          "latitude": "18.35747000",
          "longitude": "-78.02289000"
        },
        {
          "name": "Orange Bay",
          "latitude": "18.34266000",
          "longitude": "-78.32005000"
        },
        {
          "name": "Pell River",
          "latitude": "18.37886000",
          "longitude": "-78.21904000"
        },
        {
          "name": "Pondside",
          "latitude": "18.40222000",
          "longitude": "-78.07344000"
        },
        {
          "name": "Ramble",
          "latitude": "18.34674000",
          "longitude": "-77.98802000"
        },
        {
          "name": "Rock Spring",
          "latitude": "18.34797000",
          "longitude": "-78.24392000"
        },
        {
          "name": "Sandy Bay",
          "latitude": "18.43750000",
          "longitude": "-78.08383000"
        },
        {
          "name": "Santoy",
          "latitude": "18.35875000",
          "longitude": "-78.28386000"
        },
        {
          "name": "Success",
          "latitude": "18.37729000",
          "longitude": "-78.05105000"
        },
        {
          "name": "Woodlands",
          "latitude": "18.44555000",
          "longitude": "-77.99963000"
        },
        {
          "name": "Woodsville",
          "latitude": "18.36950000",
          "longitude": "-78.07217000"
        }
      ]
    },
    {
      "name": "Kingston Parish",
      "state_code": "01",
      "latitude": "17.96832710",
      "longitude": "-76.78270200",
      "cities": [
        {
          "name": "Allman Town",
          "latitude": "17.98297000",
          "longitude": "-76.78685000"
        },
        {
          "name": "Bournemouth Gardens",
          "latitude": "17.97009000",
          "longitude": "-76.76266000"
        },
        {
          "name": "Campbell Town",
          "latitude": "17.97914000",
          "longitude": "-76.78134000"
        },
        {
          "name": "Central Down Town",
          "latitude": "17.96958000",
          "longitude": "-76.79264000"
        },
        {
          "name": "D'Aguilar Town/ Rennock Lodge",
          "latitude": "17.97001000",
          "longitude": "-76.73701000"
        },
        {
          "name": "Denham Town",
          "latitude": "17.97812000",
          "longitude": "-76.79984000"
        },
        {
          "name": "East Down Town",
          "latitude": "17.97197000",
          "longitude": "-76.78471000"
        },
        {
          "name": "Fletchers Land",
          "latitude": "17.97968000",
          "longitude": "-76.79100000"
        },
        {
          "name": "Franklyn Town",
          "latitude": "17.97787000",
          "longitude": "-76.77339000"
        },
        {
          "name": "Hannah Town/ Craig Town",
          "latitude": "17.97998000",
          "longitude": "-76.79430000"
        },
        {
          "name": "Johnson Town",
          "latitude": "17.97771000",
          "longitude": "-76.75593000"
        },
        {
          "name": "Kingston",
          "latitude": "17.99702000",
          "longitude": "-76.79358000"
        },
        {
          "name": "Kingston Gardens",
          "latitude": "17.97836000",
          "longitude": "-76.78681000"
        },
        {
          "name": "Manley Meadows",
          "latitude": "17.96907000",
          "longitude": "-76.77116000"
        },
        {
          "name": "Newport East",
          "latitude": "17.97421000",
          "longitude": "-76.80663000"
        },
        {
          "name": "Newton Square",
          "latitude": "17.97352000",
          "longitude": "-76.77207000"
        },
        {
          "name": "Norman Gardens",
          "latitude": "17.97803000",
          "longitude": "-76.75940000"
        },
        {
          "name": "Passmore Town",
          "latitude": "17.97301000",
          "longitude": "-76.77650000"
        },
        {
          "name": "Port Royal",
          "latitude": "17.93738000",
          "longitude": "-76.84062000"
        },
        {
          "name": "Rae Town",
          "latitude": "17.96773000",
          "longitude": "-76.77965000"
        },
        {
          "name": "Rollington Town",
          "latitude": "17.97687000",
          "longitude": "-76.76523000"
        },
        {
          "name": "Southside",
          "latitude": "17.96569000",
          "longitude": "-76.78624000"
        },
        {
          "name": "Springfield",
          "latitude": "17.97117000",
          "longitude": "-76.75607000"
        },
        {
          "name": "Tivoli Gardens",
          "latitude": "17.97326000",
          "longitude": "-76.80090000"
        },
        {
          "name": "West Down Town",
          "latitude": "17.97294000",
          "longitude": "-76.79704000"
        }
      ]
    },
    {
      "name": "Manchester Parish",
      "state_code": "12",
      "latitude": "18.06696540",
      "longitude": "-77.51607880",
      "cities": [
        {
          "name": "Alligator Pond",
          "latitude": "17.88369000",
          "longitude": "-77.56068000"
        },
        {
          "name": "Asia/Pratville",
          "latitude": "17.91584000",
          "longitude": "-77.41563000"
        },
        {
          "name": "Auchtembeddie",
          "latitude": "18.22543000",
          "longitude": "-77.60361000"
        },
        {
          "name": "Bellefield",
          "latitude": "18.09266000",
          "longitude": "-77.44004000"
        },
        {
          "name": "Bethany",
          "latitude": "18.15373000",
          "longitude": "-77.55032000"
        },
        {
          "name": "Blue Mountain",
          "latitude": "18.07095000",
          "longitude": "-77.42840000"
        },
        {
          "name": "Bombay",
          "latitude": "18.11780000",
          "longitude": "-77.44940000"
        },
        {
          "name": "Butt-Up",
          "latitude": "17.97313000",
          "longitude": "-77.57777000"
        },
        {
          "name": "Cedar Grove",
          "latitude": "18.01225000",
          "longitude": "-77.49630000"
        },
        {
          "name": "Chantilly",
          "latitude": "18.10447000",
          "longitude": "-77.46625000"
        },
        {
          "name": "Christiana",
          "latitude": "18.18015000",
          "longitude": "-77.49045000"
        },
        {
          "name": "Chudleigh",
          "latitude": "18.15148000",
          "longitude": "-77.50707000"
        },
        {
          "name": "Cobbla",
          "latitude": "18.14060000",
          "longitude": "-77.46998000"
        },
        {
          "name": "Coleyville",
          "latitude": "18.19993000",
          "longitude": "-77.51924000"
        },
        {
          "name": "Comfort",
          "latitude": "18.05390000",
          "longitude": "-77.42477000"
        },
        {
          "name": "Comfort Hall",
          "latitude": "18.18789000",
          "longitude": "-77.61041000"
        },
        {
          "name": "Content",
          "latitude": "18.07444000",
          "longitude": "-77.45116000"
        },
        {
          "name": "Craig Head",
          "latitude": "18.23658000",
          "longitude": "-77.56295000"
        },
        {
          "name": "Cross Keys",
          "latitude": "17.90727000",
          "longitude": "-77.50111000"
        },
        {
          "name": "Devon",
          "latitude": "18.16595000",
          "longitude": "-77.52507000"
        },
        {
          "name": "Downs",
          "latitude": "17.95004000",
          "longitude": "-77.57313000"
        },
        {
          "name": "Ellen Street",
          "latitude": "17.96796000",
          "longitude": "-77.43931000"
        },
        {
          "name": "Evergreen",
          "latitude": "18.15096000",
          "longitude": "-77.59965000"
        },
        {
          "name": "Fairfield",
          "latitude": "18.03117000",
          "longitude": "-77.57535000"
        },
        {
          "name": "French Park",
          "latitude": "17.95572000",
          "longitude": "-77.54471000"
        },
        {
          "name": "George's Valley",
          "latitude": "18.03172000",
          "longitude": "-77.48081000"
        },
        {
          "name": "Good Intent",
          "latitude": "18.20806000",
          "longitude": "-77.57086000"
        },
        {
          "name": "Greenvale",
          "latitude": "18.03928000",
          "longitude": "-77.53239000"
        },
        {
          "name": "Grove Place",
          "latitude": "18.10467000",
          "longitude": "-77.52923000"
        },
        {
          "name": "Grove Town",
          "latitude": "17.88606000",
          "longitude": "-77.45882000"
        },
        {
          "name": "Harmons",
          "latitude": "17.98171000",
          "longitude": "-77.41208000"
        },
        {
          "name": "Harry Watch",
          "latitude": "18.17314000",
          "longitude": "-77.57611000"
        },
        {
          "name": "Hatfield",
          "latitude": "18.01557000",
          "longitude": "-77.54009000"
        },
        {
          "name": "Heartease",
          "latitude": "18.04878000",
          "longitude": "-77.48238000"
        },
        {
          "name": "Hibernia",
          "latitude": "18.17575000",
          "longitude": "-77.54830000"
        },
        {
          "name": "Huntley",
          "latitude": "18.06647000",
          "longitude": "-77.58171000"
        },
        {
          "name": "Kendal",
          "latitude": "18.08318000",
          "longitude": "-77.50320000"
        },
        {
          "name": "Knockpatrick",
          "latitude": "17.99027000",
          "longitude": "-77.49270000"
        },
        {
          "name": "Lancaster",
          "latitude": "17.93603000",
          "longitude": "-77.46134000"
        },
        {
          "name": "Litchfield",
          "latitude": "18.13502000",
          "longitude": "-77.52448000"
        },
        {
          "name": "Maidstone",
          "latitude": "18.10165000",
          "longitude": "-77.57284000"
        },
        {
          "name": "Mandeville",
          "latitude": "18.04168000",
          "longitude": "-77.50714000"
        },
        {
          "name": "Mandeville Proper",
          "latitude": "18.04453000",
          "longitude": "-77.50574000"
        },
        {
          "name": "Marlie Hill",
          "latitude": "17.86692000",
          "longitude": "-77.50835000"
        },
        {
          "name": "May Day",
          "latitude": "18.00951000",
          "longitude": "-77.47606000"
        },
        {
          "name": "Medina",
          "latitude": "18.12236000",
          "longitude": "-77.59643000"
        },
        {
          "name": "Mike Town",
          "latitude": "18.04253000",
          "longitude": "-77.55490000"
        },
        {
          "name": "Mile Gully",
          "latitude": "18.13395000",
          "longitude": "-77.56556000"
        },
        {
          "name": "New Forest",
          "latitude": "17.92010000",
          "longitude": "-77.55867000"
        },
        {
          "name": "New Green",
          "latitude": "18.07663000",
          "longitude": "-77.52569000"
        },
        {
          "name": "Newport",
          "latitude": "17.96293000",
          "longitude": "-77.50486000"
        },
        {
          "name": "Old England",
          "latitude": "17.98503000",
          "longitude": "-77.46017000"
        },
        {
          "name": "Part Of Banana Ground",
          "latitude": "18.07912000",
          "longitude": "-77.42134000"
        },
        {
          "name": "Part Of Gutters",
          "latitude": "18.00642000",
          "longitude": "-77.57903000"
        },
        {
          "name": "Part of Spaldings",
          "latitude": "18.15819000",
          "longitude": "-77.46627000"
        },
        {
          "name": "Pike",
          "latitude": "18.23229000",
          "longitude": "-77.53790000"
        },
        {
          "name": "Plowden",
          "latitude": "17.89178000",
          "longitude": "-77.53846000"
        },
        {
          "name": "Porus",
          "latitude": "18.03535000",
          "longitude": "-77.41166000"
        },
        {
          "name": "Prospect",
          "latitude": "17.98244000",
          "longitude": "-77.56775000"
        },
        {
          "name": "Richmond",
          "latitude": "18.02560000",
          "longitude": "-77.46337000"
        },
        {
          "name": "Robins Hall",
          "latitude": "18.20405000",
          "longitude": "-77.55007000"
        },
        {
          "name": "Rose Hill",
          "latitude": "17.92471000",
          "longitude": "-77.52340000"
        },
        {
          "name": "Royal Flat",
          "latitude": "18.04965000",
          "longitude": "-77.46830000"
        },
        {
          "name": "Scotts Pass",
          "latitude": "17.99920000",
          "longitude": "-77.39820000"
        },
        {
          "name": "Snowdon",
          "latitude": "17.94198000",
          "longitude": "-77.49137000"
        },
        {
          "name": "Somerset",
          "latitude": "18.08036000",
          "longitude": "-77.54306000"
        },
        {
          "name": "Spring Ground",
          "latitude": "18.16233000",
          "longitude": "-77.47977000"
        },
        {
          "name": "Spur Tree",
          "latitude": "18.00650000",
          "longitude": "-77.55664000"
        },
        {
          "name": "St. Paul's",
          "latitude": "18.13144000",
          "longitude": "-77.61200000"
        },
        {
          "name": "Swaby's Hope",
          "latitude": "17.98608000",
          "longitude": "-77.53326000"
        },
        {
          "name": "Top Hill",
          "latitude": "18.11622000",
          "longitude": "-77.50344000"
        },
        {
          "name": "Victoria Town",
          "latitude": "17.90472000",
          "longitude": "-77.37795000"
        },
        {
          "name": "Walderston",
          "latitude": "18.11637000",
          "longitude": "-77.48614000"
        },
        {
          "name": "Watham",
          "latitude": "18.00675000",
          "longitude": "-77.51873000"
        },
        {
          "name": "Williamsfield",
          "latitude": "18.06664000",
          "longitude": "-77.46582000"
        }
      ]
    },
    {
      "name": "Portland Parish",
      "state_code": "04",
      "latitude": "18.08442740",
      "longitude": "-76.41002670",
      "cities": [
        {
          "name": "Balcarres",
          "latitude": "18.16735000",
          "longitude": "-76.72061000"
        },
        {
          "name": "Bangor Ridge",
          "latitude": "18.13637000",
          "longitude": "-76.68903000"
        },
        {
          "name": "Belvedere",
          "latitude": "18.20772000",
          "longitude": "-76.69671000"
        },
        {
          "name": "Black Hill",
          "latitude": "18.21786000",
          "longitude": "-76.59758000"
        },
        {
          "name": "Boundbrook",
          "latitude": "18.17573000",
          "longitude": "-76.47079000"
        },
        {
          "name": "Breastworks",
          "latitude": "18.16000000",
          "longitude": "-76.46612000"
        },
        {
          "name": "Buff Bay",
          "latitude": "18.23287000",
          "longitude": "-76.66118000"
        },
        {
          "name": "Bybrook",
          "latitude": "18.14641000",
          "longitude": "-76.65726000"
        },
        {
          "name": "Cascade",
          "latitude": "18.09377000",
          "longitude": "-76.71223000"
        },
        {
          "name": "Castle Comfort",
          "latitude": "18.14217000",
          "longitude": "-76.34634000"
        },
        {
          "name": "Central Port Antonio",
          "latitude": "18.18763000",
          "longitude": "-76.45343000"
        },
        {
          "name": "Charles Town",
          "latitude": "18.20526000",
          "longitude": "-76.66390000"
        },
        {
          "name": "Claverty Cottage",
          "latitude": "18.14876000",
          "longitude": "-76.63923000"
        },
        {
          "name": "Comfort Castle",
          "latitude": "18.04833000",
          "longitude": "-76.41614000"
        },
        {
          "name": "Drapers",
          "latitude": "18.17121000",
          "longitude": "-76.40612000"
        },
        {
          "name": "Durham",
          "latitude": "18.08566000",
          "longitude": "-76.51562000"
        },
        {
          "name": "Fairy Hill",
          "latitude": "18.16508000",
          "longitude": "-76.36595000"
        },
        {
          "name": "Fellowship",
          "latitude": "18.12783000",
          "longitude": "-76.47202000"
        },
        {
          "name": "Fruitfulvale",
          "latitude": "18.10891000",
          "longitude": "-76.58617000"
        },
        {
          "name": "Hectors River",
          "latitude": "18.00089000",
          "longitude": "-76.27055000"
        },
        {
          "name": "Hope Bay",
          "latitude": "18.18754000",
          "longitude": "-76.57579000"
        },
        {
          "name": "Kensington",
          "latitude": "18.06765000",
          "longitude": "-76.30053000"
        },
        {
          "name": "Long Bay",
          "latitude": "18.08581000",
          "longitude": "-76.32515000"
        },
        {
          "name": "Long Road",
          "latitude": "18.00864000",
          "longitude": "-76.29482000"
        },
        {
          "name": "Manchioneal",
          "latitude": "18.04444000",
          "longitude": "-76.27735000"
        },
        {
          "name": "Moore Town",
          "latitude": "18.07767000",
          "longitude": "-76.42577000"
        },
        {
          "name": "Mount Pleasant",
          "latitude": "18.16325000",
          "longitude": "-76.50472000"
        },
        {
          "name": "Nonsuch",
          "latitude": "18.13819000",
          "longitude": "-76.40467000"
        },
        {
          "name": "Norwich",
          "latitude": "18.18819000",
          "longitude": "-76.47705000"
        },
        {
          "name": "Orange Bay",
          "latitude": "18.20306000",
          "longitude": "-76.62250000"
        },
        {
          "name": "Port Antonio",
          "latitude": "18.17615000",
          "longitude": "-76.45090000"
        },
        {
          "name": "Prospect",
          "latitude": "18.17481000",
          "longitude": "-76.43550000"
        },
        {
          "name": "Rock Hall",
          "latitude": "18.16170000",
          "longitude": "-76.53050000"
        },
        {
          "name": "Sherwood Forest",
          "latitude": "18.15428000",
          "longitude": "-76.37821000"
        },
        {
          "name": "Shirley Castle",
          "latitude": "18.15657000",
          "longitude": "-76.61112000"
        },
        {
          "name": "Skibo",
          "latitude": "18.17318000",
          "longitude": "-76.62752000"
        },
        {
          "name": "Snow Hill",
          "latitude": "18.19474000",
          "longitude": "-76.49350000"
        },
        {
          "name": "Spring Hill",
          "latitude": "18.12591000",
          "longitude": "-76.72909000"
        },
        {
          "name": "St. Margaret's Bay",
          "latitude": "18.19084000",
          "longitude": "-76.52888000"
        },
        {
          "name": "Swift River",
          "latitude": "18.15770000",
          "longitude": "-76.57869000"
        },
        {
          "name": "Tranquility",
          "latitude": "18.18028000",
          "longitude": "-76.68150000"
        },
        {
          "name": "Windsor",
          "latitude": "18.10673000",
          "longitude": "-76.44631000"
        },
        {
          "name": "Windsor Castle",
          "latitude": "18.24888000",
          "longitude": "-76.69029000"
        },
        {
          "name": "Windsor Forest",
          "latitude": "18.12057000",
          "longitude": "-76.33876000"
        }
      ]
    },
    {
      "name": "Saint Andrew",
      "state_code": "02",
      "latitude": "37.22451030",
      "longitude": "-95.70211890",
      "cities": [
        {
          "name": "Arcadia",
          "latitude": "18.03737000",
          "longitude": "-76.78201000"
        },
        {
          "name": "Arlene Gardens",
          "latitude": "18.03713000",
          "longitude": "-76.81791000"
        },
        {
          "name": "Arnett Gardens",
          "latitude": "17.99150000",
          "longitude": "-76.79829000"
        },
        {
          "name": "August Town",
          "latitude": "17.99556000",
          "longitude": "-76.73673000"
        },
        {
          "name": "Barbican",
          "latitude": "18.03549000",
          "longitude": "-76.76987000"
        },
        {
          "name": "Beverley Hills",
          "latitude": "18.00833000",
          "longitude": "-76.76208000"
        },
        {
          "name": "Bito",
          "latitude": "17.97363000",
          "longitude": "-76.66625000"
        },
        {
          "name": "Bloxborough",
          "latitude": "17.99581000",
          "longitude": "-76.64767000"
        },
        {
          "name": "Boucher Park",
          "latitude": "18.00344000",
          "longitude": "-76.81257000"
        },
        {
          "name": "Brandon Hill",
          "latitude": "18.14822000",
          "longitude": "-76.80513000"
        },
        {
          "name": "Bull Bay/ Seven Mile",
          "latitude": "17.95247000",
          "longitude": "-76.68404000"
        },
        {
          "name": "Cane River",
          "latitude": "17.98098000",
          "longitude": "-76.68624000"
        },
        {
          "name": "Cassia Park",
          "latitude": "18.02047000",
          "longitude": "-76.80665000"
        },
        {
          "name": "Cavaliers",
          "latitude": "18.09677000",
          "longitude": "-76.84321000"
        },
        {
          "name": "Cherry Gardens",
          "latitude": "18.04963000",
          "longitude": "-76.77867000"
        },
        {
          "name": "Cockburn Gardens",
          "latitude": "18.00357000",
          "longitude": "-76.82435000"
        },
        {
          "name": "Constant Spring",
          "latitude": "18.05078000",
          "longitude": "-76.79372000"
        },
        {
          "name": "Constant Spring Gardens",
          "latitude": "18.02942000",
          "longitude": "-76.79956000"
        },
        {
          "name": "Constitution Hill",
          "latitude": "18.01488000",
          "longitude": "-76.70515000"
        },
        {
          "name": "Content Gap",
          "latitude": "18.04082000",
          "longitude": "-76.69070000"
        },
        {
          "name": "Cooreville Gardens",
          "latitude": "18.02244000",
          "longitude": "-76.84852000"
        },
        {
          "name": "Cross Roads",
          "latitude": "17.99454000",
          "longitude": "-76.78810000"
        },
        {
          "name": "Dallas",
          "latitude": "17.98463000",
          "longitude": "-76.71256000"
        },
        {
          "name": "Delacree Park/ Union Gardens",
          "latitude": "17.99210000",
          "longitude": "-76.82240000"
        },
        {
          "name": "Delacree Pen",
          "latitude": "17.99579000",
          "longitude": "-76.81709000"
        },
        {
          "name": "Drewsland",
          "latitude": "18.02381000",
          "longitude": "-76.82626000"
        },
        {
          "name": "Drumblair",
          "latitude": "18.02354000",
          "longitude": "-76.78759000"
        },
        {
          "name": "Duhaney Park",
          "latitude": "18.03086000",
          "longitude": "-76.84617000"
        },
        {
          "name": "Eastwood Park Gardens",
          "latitude": "18.01891000",
          "longitude": "-76.80072000"
        },
        {
          "name": "Elleston Flats/ Mona Commons",
          "latitude": "18.00945000",
          "longitude": "-76.74034000"
        },
        {
          "name": "Ferry",
          "latitude": "18.02771000",
          "longitude": "-76.86720000"
        },
        {
          "name": "Forest Hills Gardens",
          "latitude": "18.03848000",
          "longitude": "-76.82868000"
        },
        {
          "name": "Forest Hills/ Plantation Height",
          "latitude": "18.04300000",
          "longitude": "-76.85140000"
        },
        {
          "name": "Golden Spring",
          "latitude": "18.09446000",
          "longitude": "-76.79727000"
        },
        {
          "name": "Gordon Town",
          "latitude": "18.03762000",
          "longitude": "-76.72353000"
        },
        {
          "name": "Grants Pen",
          "latitude": "18.03258000",
          "longitude": "-76.78887000"
        },
        {
          "name": "Greenwich Town/ Newport West",
          "latitude": "17.98438000",
          "longitude": "-76.82559000"
        },
        {
          "name": "Half Way Tree",
          "latitude": "18.01248000",
          "longitude": "-76.79928000"
        },
        {
          "name": "Half-Way-Tree",
          "latitude": "18.01259000",
          "longitude": "-76.79582000"
        },
        {
          "name": "Harbour View",
          "latitude": "17.95146000",
          "longitude": "-76.71662000"
        },
        {
          "name": "Havendale",
          "latitude": "18.05429000",
          "longitude": "-76.80870000"
        },
        {
          "name": "Hermitage",
          "latitude": "17.98351000",
          "longitude": "-76.74102000"
        },
        {
          "name": "Hope Pastures/ UTECH",
          "latitude": "18.02306000",
          "longitude": "-76.74987000"
        },
        {
          "name": "Hope Tavern",
          "latitude": "18.01233000",
          "longitude": "-76.73202000"
        },
        {
          "name": "Hughenden",
          "latitude": "18.03037000",
          "longitude": "-76.81728000"
        },
        {
          "name": "Irish Town",
          "latitude": "18.06234000",
          "longitude": "-76.70262000"
        },
        {
          "name": "Jacks Hill",
          "latitude": "18.03872000",
          "longitude": "-76.74892000"
        },
        {
          "name": "Jones Town",
          "latitude": "17.98422000",
          "longitude": "-76.79691000"
        },
        {
          "name": "Kencot",
          "latitude": "18.00041000",
          "longitude": "-76.79835000"
        },
        {
          "name": "Kintyre",
          "latitude": "18.02133000",
          "longitude": "-76.72688000"
        },
        {
          "name": "Lawrence Tavern",
          "latitude": "18.13742000",
          "longitude": "-76.84736000"
        },
        {
          "name": "Liguanea",
          "latitude": "18.02097000",
          "longitude": "-76.76827000"
        },
        {
          "name": "Majestic Gardens",
          "latitude": "18.00023000",
          "longitude": "-76.83295000"
        },
        {
          "name": "Mannings Hill",
          "latitude": "18.07052000",
          "longitude": "-76.81288000"
        },
        {
          "name": "Mannings Hill (Rural)",
          "latitude": "18.08169000",
          "longitude": "-76.82328000"
        },
        {
          "name": "Marverley",
          "latitude": "18.02676000",
          "longitude": "-76.82652000"
        },
        {
          "name": "Maryland",
          "latitude": "18.05166000",
          "longitude": "-76.74320000"
        },
        {
          "name": "Mavis Bank",
          "latitude": "18.03333000",
          "longitude": "-76.66667000"
        },
        {
          "name": "Maxfield Park",
          "latitude": "17.99937000",
          "longitude": "-76.80800000"
        },
        {
          "name": "Meadowbrook",
          "latitude": "18.04708000",
          "longitude": "-76.81553000"
        },
        {
          "name": "Meadowbrook Estate",
          "latitude": "18.03738000",
          "longitude": "-76.82964000"
        },
        {
          "name": "Molynes Four Roads",
          "latitude": "18.01035000",
          "longitude": "-76.81112000"
        },
        {
          "name": "Molynes Gardens",
          "latitude": "18.01980000",
          "longitude": "-76.81621000"
        },
        {
          "name": "Mona Heights",
          "latitude": "18.01331000",
          "longitude": "-76.75086000"
        },
        {
          "name": "Mount James",
          "latitude": "18.12069000",
          "longitude": "-76.77394000"
        },
        {
          "name": "Mountain View Gardens",
          "latitude": "17.99186000",
          "longitude": "-76.76070000"
        },
        {
          "name": "Nannyville",
          "latitude": "17.99677000",
          "longitude": "-76.76949000"
        },
        {
          "name": "New Haven",
          "latitude": "18.02953000",
          "longitude": "-76.85425000"
        },
        {
          "name": "New Kingston",
          "latitude": "18.00747000",
          "longitude": "-76.78319000"
        },
        {
          "name": "Norbrook",
          "latitude": "18.05483000",
          "longitude": "-76.78498000"
        },
        {
          "name": "Oaklands",
          "latitude": "18.03558000",
          "longitude": "-76.79563000"
        },
        {
          "name": "Papine",
          "latitude": "18.01536000",
          "longitude": "-76.73868000"
        },
        {
          "name": "Parks Road",
          "latitude": "18.09802000",
          "longitude": "-76.85941000"
        },
        {
          "name": "Patrick City",
          "latitude": "18.03185000",
          "longitude": "-76.83774000"
        },
        {
          "name": "Pembroke Hall",
          "latitude": "18.03113000",
          "longitude": "-76.83003000"
        },
        {
          "name": "Penwood",
          "latitude": "18.01952000",
          "longitude": "-76.83094000"
        },
        {
          "name": "Queensborough/ Tunbridge",
          "latitude": "18.04289000",
          "longitude": "-76.82119000"
        },
        {
          "name": "Red Hills (Rural)",
          "latitude": "18.06777000",
          "longitude": "-76.86093000"
        },
        {
          "name": "Red Hills Gardens",
          "latitude": "18.03000000",
          "longitude": "-76.80994000"
        },
        {
          "name": "Red Hills/ Sterling Castle",
          "latitude": "18.05946000",
          "longitude": "-76.84028000"
        },
        {
          "name": "Richmond Park",
          "latitude": "18.00560000",
          "longitude": "-76.80464000"
        },
        {
          "name": "Riverton City",
          "latitude": "18.01443000",
          "longitude": "-76.84897000"
        },
        {
          "name": "Roehampton",
          "latitude": "18.04320000",
          "longitude": "-76.80841000"
        },
        {
          "name": "Rose Town",
          "latitude": "17.98697000",
          "longitude": "-76.80726000"
        },
        {
          "name": "Seaview Gardens",
          "latitude": "18.00619000",
          "longitude": "-76.84106000"
        },
        {
          "name": "Seaward Pen",
          "latitude": "18.01900000",
          "longitude": "-76.82368000"
        },
        {
          "name": "Seymour Lands",
          "latitude": "18.01291000",
          "longitude": "-76.77706000"
        },
        {
          "name": "St. Peter's",
          "latitude": "18.07881000",
          "longitude": "-76.67202000"
        },
        {
          "name": "Stadium Gardens",
          "latitude": "17.99501000",
          "longitude": "-76.77644000"
        },
        {
          "name": "Stony Hill",
          "latitude": "18.07916000",
          "longitude": "-76.78473000"
        },
        {
          "name": "Swallowfield",
          "latitude": "18.00486000",
          "longitude": "-76.77439000"
        },
        {
          "name": "Temple Hall",
          "latitude": "18.10471000",
          "longitude": "-76.81818000"
        },
        {
          "name": "Three Oaks/ Glendale",
          "latitude": "18.03128000",
          "longitude": "-76.82447000"
        },
        {
          "name": "Tower Hill",
          "latitude": "18.01183000",
          "longitude": "-76.82807000"
        },
        {
          "name": "Trafalgar Park",
          "latitude": "18.01280000",
          "longitude": "-76.78465000"
        },
        {
          "name": "Trench Town",
          "latitude": "17.98743000",
          "longitude": "-76.80118000"
        },
        {
          "name": "University",
          "latitude": "18.00094000",
          "longitude": "-76.74769000"
        },
        {
          "name": "Vineyard Town",
          "latitude": "17.98690000",
          "longitude": "-76.77059000"
        },
        {
          "name": "Waltham Gardens",
          "latitude": "18.01085000",
          "longitude": "-76.82049000"
        },
        {
          "name": "Washington Gardens",
          "latitude": "18.02174000",
          "longitude": "-76.84020000"
        },
        {
          "name": "Waterhouse",
          "latitude": "18.01231000",
          "longitude": "-76.83505000"
        },
        {
          "name": "Whitehall",
          "latitude": "18.03838000",
          "longitude": "-76.80583000"
        },
        {
          "name": "Whitfield Town",
          "latitude": "17.99212000",
          "longitude": "-76.80910000"
        },
        {
          "name": "Wilton Gardens/ Rema",
          "latitude": "17.98287000",
          "longitude": "-76.80422000"
        },
        {
          "name": "Woodford",
          "latitude": "18.07362000",
          "longitude": "-76.74632000"
        },
        {
          "name": "Woodford Park",
          "latitude": "17.98712000",
          "longitude": "-76.78117000"
        },
        {
          "name": "Zaidie Gardens",
          "latitude": "18.02566000",
          "longitude": "-76.80978000"
        }
      ]
    },
    {
      "name": "Saint Ann Parish",
      "state_code": "06",
      "latitude": "37.28714520",
      "longitude": "-77.41035330",
      "cities": [
        {
          "name": "Aboukir",
          "latitude": "18.25090000",
          "longitude": "-77.34327000"
        },
        {
          "name": "Alderton",
          "latitude": "18.28706000",
          "longitude": "-77.20832000"
        },
        {
          "name": "Alexandria",
          "latitude": "18.30411000",
          "longitude": "-77.35311000"
        },
        {
          "name": "Alva",
          "latitude": "18.29679000",
          "longitude": "-77.31717000"
        },
        {
          "name": "Bamboo",
          "latitude": "18.39216000",
          "longitude": "-77.26429000"
        },
        {
          "name": "Beecher Town",
          "latitude": "18.38465000",
          "longitude": "-77.11617000"
        },
        {
          "name": "Bensonton",
          "latitude": "18.22315000",
          "longitude": "-77.20861000"
        },
        {
          "name": "Blackstonedge",
          "latitude": "18.27357000",
          "longitude": "-77.04254000"
        },
        {
          "name": "Bohemia",
          "latitude": "18.21239000",
          "longitude": "-77.46954000"
        },
        {
          "name": "Borobridge",
          "latitude": "18.19779000",
          "longitude": "-77.42755000"
        },
        {
          "name": "Browns Town",
          "latitude": "18.38464000",
          "longitude": "-77.35286000"
        },
        {
          "name": "Calderwood",
          "latitude": "18.25641000",
          "longitude": "-77.27144000"
        },
        {
          "name": "Cascade",
          "latitude": "18.23209000",
          "longitude": "-77.46255000"
        },
        {
          "name": "Cave Valley",
          "latitude": "18.23268000",
          "longitude": "-77.36337000"
        },
        {
          "name": "Chalky Hill",
          "latitude": "18.37964000",
          "longitude": "-77.17520000"
        },
        {
          "name": "Chester",
          "latitude": "18.44786000",
          "longitude": "-77.26503000"
        },
        {
          "name": "Claremont",
          "latitude": "18.32556000",
          "longitude": "-77.20643000"
        },
        {
          "name": "Cole Gate",
          "latitude": "18.37967000",
          "longitude": "-77.08518000"
        },
        {
          "name": "Content Garden",
          "latitude": "18.40977000",
          "longitude": "-77.07540000"
        },
        {
          "name": "Cuffie Ridge",
          "latitude": "18.22793000",
          "longitude": "-77.42054000"
        },
        {
          "name": "Discovery Bay",
          "latitude": "18.43725000",
          "longitude": "-77.41815000"
        },
        {
          "name": "Epworth",
          "latitude": "18.36083000",
          "longitude": "-77.13342000"
        },
        {
          "name": "Exchange",
          "latitude": "18.37265000",
          "longitude": "-77.06572000"
        },
        {
          "name": "Faith's Pen",
          "latitude": "18.22963000",
          "longitude": "-77.08804000"
        },
        {
          "name": "Gibraltar",
          "latitude": "18.35079000",
          "longitude": "-77.42142000"
        },
        {
          "name": "Golden Grove",
          "latitude": "18.32956000",
          "longitude": "-77.12256000"
        },
        {
          "name": "Great Pond",
          "latitude": "18.40227000",
          "longitude": "-77.08511000"
        },
        {
          "name": "Higgin Land",
          "latitude": "18.34119000",
          "longitude": "-77.27072000"
        },
        {
          "name": "Hinds Town",
          "latitude": "18.35425000",
          "longitude": "-77.09812000"
        },
        {
          "name": "Inverness",
          "latitude": "18.27531000",
          "longitude": "-77.36862000"
        },
        {
          "name": "Lime Hall",
          "latitude": "18.39742000",
          "longitude": "-77.21051000"
        },
        {
          "name": "Lime Tree Gardens",
          "latitude": "18.34545000",
          "longitude": "-77.38645000"
        },
        {
          "name": "Linton Park",
          "latitude": "18.26081000",
          "longitude": "-77.42221000"
        },
        {
          "name": "Macknie",
          "latitude": "18.21191000",
          "longitude": "-77.28016000"
        },
        {
          "name": "Madras",
          "latitude": "18.29112000",
          "longitude": "-77.44875000"
        },
        {
          "name": "Mansfield",
          "latitude": "18.40265000",
          "longitude": "-77.09488000"
        },
        {
          "name": "Moneague",
          "latitude": "18.28307000",
          "longitude": "-77.13855000"
        },
        {
          "name": "Mount Moriah",
          "latitude": "18.20617000",
          "longitude": "-77.44094000"
        },
        {
          "name": "Mount Zion",
          "latitude": "18.43377000",
          "longitude": "-77.28028000"
        },
        {
          "name": "Ocho Rios",
          "latitude": "18.40760000",
          "longitude": "-77.10312000"
        },
        {
          "name": "Parry Town",
          "latitude": "18.38359000",
          "longitude": "-77.10345000"
        },
        {
          "name": "Philadelphia",
          "latitude": "18.40005000",
          "longitude": "-77.32735000"
        },
        {
          "name": "Pimento Walk",
          "latitude": "18.39578000",
          "longitude": "-77.11383000"
        },
        {
          "name": "Priory",
          "latitude": "18.43660000",
          "longitude": "-77.24551000"
        },
        {
          "name": "River Head",
          "latitude": "18.26030000",
          "longitude": "-77.07782000"
        },
        {
          "name": "Runaway Bay",
          "latitude": "18.45962000",
          "longitude": "-77.33570000"
        },
        {
          "name": "Saint Anns Bay",
          "latitude": "18.43581000",
          "longitude": "-77.20098000"
        },
        {
          "name": "St. Ann's Bay",
          "latitude": "18.42989000",
          "longitude": "-77.20775000"
        },
        {
          "name": "St. D'Acre",
          "latitude": "18.33300000",
          "longitude": "-77.36297000"
        },
        {
          "name": "Steer Town",
          "latitude": "18.42852000",
          "longitude": "-77.17101000"
        },
        {
          "name": "Sturge Town",
          "latitude": "18.41631000",
          "longitude": "-77.31988000"
        },
        {
          "name": "Walkers Wood",
          "latitude": "18.31939000",
          "longitude": "-77.07082000"
        },
        {
          "name": "Watt Town",
          "latitude": "18.29427000",
          "longitude": "-77.41466000"
        },
        {
          "name": "York Castle",
          "latitude": "18.27515000",
          "longitude": "-77.22923000"
        }
      ]
    },
    {
      "name": "Saint Catherine Parish",
      "state_code": "14",
      "latitude": "18.03641340",
      "longitude": "-77.05644640",
      "cities": [
        {
          "name": "Above Rocks",
          "latitude": "18.11432000",
          "longitude": "-76.87590000"
        },
        {
          "name": "Bartons",
          "latitude": "18.02895000",
          "longitude": "-77.13322000"
        },
        {
          "name": "Bellas Gate",
          "latitude": "18.04715000",
          "longitude": "-77.14906000"
        },
        {
          "name": "Bog Walk",
          "latitude": "18.10205000",
          "longitude": "-77.00541000"
        },
        {
          "name": "Bogwalk",
          "latitude": "18.10468000",
          "longitude": "-76.98792000"
        },
        {
          "name": "Braeton",
          "latitude": "17.94174000",
          "longitude": "-76.88635000"
        },
        {
          "name": "Bridgeport",
          "latitude": "17.96264000",
          "longitude": "-76.87809000"
        },
        {
          "name": "Browns Hill",
          "latitude": "18.05358000",
          "longitude": "-77.11855000"
        },
        {
          "name": "Caymanas",
          "latitude": "18.03824000",
          "longitude": "-76.89833000"
        },
        {
          "name": "Central Village",
          "latitude": "17.99992000",
          "longitude": "-76.92393000"
        },
        {
          "name": "Crescent",
          "latitude": "18.03621000",
          "longitude": "-76.97626000"
        },
        {
          "name": "Cromarty",
          "latitude": "17.95840000",
          "longitude": "-76.98457000"
        },
        {
          "name": "Cumberland",
          "latitude": "17.97650000",
          "longitude": "-76.88208000"
        },
        {
          "name": "Edgewater",
          "latitude": "17.96448000",
          "longitude": "-76.86547000"
        },
        {
          "name": "Ensom",
          "latitude": "18.01778000",
          "longitude": "-76.96221000"
        },
        {
          "name": "Ewarton",
          "latitude": "18.18333000",
          "longitude": "-77.08536000"
        },
        {
          "name": "Ginger Ridge",
          "latitude": "18.07688000",
          "longitude": "-77.16865000"
        },
        {
          "name": "Glengoffe",
          "latitude": "18.15214000",
          "longitude": "-76.89057000"
        },
        {
          "name": "Golden Acres",
          "latitude": "18.01950000",
          "longitude": "-76.98040000"
        },
        {
          "name": "Greater Portmore",
          "latitude": "17.95228000",
          "longitude": "-76.91133000"
        },
        {
          "name": "Greendale",
          "latitude": "18.01251000",
          "longitude": "-76.94831000"
        },
        {
          "name": "Gregory Park",
          "latitude": "17.99490000",
          "longitude": "-76.88302000"
        },
        {
          "name": "Hampton Green",
          "latitude": "18.00544000",
          "longitude": "-76.96818000"
        },
        {
          "name": "Harewood",
          "latitude": "18.17277000",
          "longitude": "-76.94395000"
        },
        {
          "name": "Harkers Hall",
          "latitude": "18.13149000",
          "longitude": "-76.91350000"
        },
        {
          "name": "Hellshire",
          "latitude": "17.89669000",
          "longitude": "-76.96187000"
        },
        {
          "name": "Independence City",
          "latitude": "17.97783000",
          "longitude": "-76.87498000"
        },
        {
          "name": "Keystone",
          "latitude": "18.01652000",
          "longitude": "-76.93525000"
        },
        {
          "name": "Kitson Town",
          "latitude": "18.03487000",
          "longitude": "-77.04028000"
        },
        {
          "name": "Linstead",
          "latitude": "18.13683000",
          "longitude": "-77.03171000"
        },
        {
          "name": "Lluidas Vale",
          "latitude": "18.14977000",
          "longitude": "-77.16853000"
        },
        {
          "name": "Naggo Head",
          "latitude": "17.96415000",
          "longitude": "-76.88820000"
        },
        {
          "name": "Old Harbour",
          "latitude": "17.94144000",
          "longitude": "-77.10898000"
        },
        {
          "name": "Old Harbour Bay",
          "latitude": "17.90918000",
          "longitude": "-77.09718000"
        },
        {
          "name": "Old Harbour Road",
          "latitude": "17.95797000",
          "longitude": "-77.02730000"
        },
        {
          "name": "Part of Guys Hill",
          "latitude": "18.24525000",
          "longitude": "-76.99081000"
        },
        {
          "name": "Part of Keystone",
          "latitude": "18.03965000",
          "longitude": "-76.95113000"
        },
        {
          "name": "Part of Rock Hall",
          "latitude": "18.09119000",
          "longitude": "-76.88804000"
        },
        {
          "name": "Passage Fort",
          "latitude": "17.97788000",
          "longitude": "-76.86793000"
        },
        {
          "name": "Pear Tree Grove",
          "latitude": "18.22515000",
          "longitude": "-76.95293000"
        },
        {
          "name": "Point Hill",
          "latitude": "18.09361000",
          "longitude": "-77.10480000"
        },
        {
          "name": "Portmore",
          "latitude": "17.95032000",
          "longitude": "-76.88215000"
        },
        {
          "name": "Redwood",
          "latitude": "18.21026000",
          "longitude": "-76.98536000"
        },
        {
          "name": "Riversdale",
          "latitude": "18.17802000",
          "longitude": "-76.96636000"
        },
        {
          "name": "Sligoville",
          "latitude": "18.08203000",
          "longitude": "-76.93991000"
        },
        {
          "name": "Spanish Town",
          "latitude": "17.99107000",
          "longitude": "-76.95742000"
        },
        {
          "name": "Spanish Town Central",
          "latitude": "17.98014000",
          "longitude": "-76.92294000"
        },
        {
          "name": "St. John's East",
          "latitude": "18.00090000",
          "longitude": "-76.97466000"
        },
        {
          "name": "St. John's West",
          "latitude": "18.00539000",
          "longitude": "-77.00755000"
        },
        {
          "name": "Troja",
          "latitude": "18.20485000",
          "longitude": "-76.93196000"
        },
        {
          "name": "Waterford",
          "latitude": "17.99340000",
          "longitude": "-76.86090000"
        },
        {
          "name": "Watermount",
          "latitude": "18.06686000",
          "longitude": "-77.09112000"
        },
        {
          "name": "West Cumberland",
          "latitude": "17.97890000",
          "longitude": "-76.88662000"
        },
        {
          "name": "Willowdene",
          "latitude": "17.99189000",
          "longitude": "-76.98199000"
        }
      ]
    },
    {
      "name": "Saint Elizabeth Parish",
      "state_code": "11",
      "latitude": "38.99253080",
      "longitude": "-94.58992000",
      "cities": [
        {
          "name": "Aberdeen",
          "latitude": "18.20508000",
          "longitude": "-77.67932000"
        },
        {
          "name": "Accompong",
          "latitude": "18.22985000",
          "longitude": "-77.74816000"
        },
        {
          "name": "Alligator Pond",
          "latitude": "17.86932000",
          "longitude": "-77.56769000"
        },
        {
          "name": "Balaclava",
          "latitude": "18.17228000",
          "longitude": "-77.64375000"
        },
        {
          "name": "Ballards  Valley",
          "latitude": "17.87949000",
          "longitude": "-77.63086000"
        },
        {
          "name": "Barbary Hall",
          "latitude": "17.96800000",
          "longitude": "-77.77961000"
        },
        {
          "name": "Bigwoods",
          "latitude": "17.93338000",
          "longitude": "-77.71897000"
        },
        {
          "name": "Black River",
          "latitude": "18.02636000",
          "longitude": "-77.84873000"
        },
        {
          "name": "Bogue",
          "latitude": "18.13619000",
          "longitude": "-77.66970000"
        },
        {
          "name": "Braes River",
          "latitude": "18.09351000",
          "longitude": "-77.66487000"
        },
        {
          "name": "Brighton",
          "latitude": "18.14836000",
          "longitude": "-77.85604000"
        },
        {
          "name": "Brompton",
          "latitude": "18.06795000",
          "longitude": "-77.88821000"
        },
        {
          "name": "Bull Savanna",
          "latitude": "17.88678000",
          "longitude": "-77.59022000"
        },
        {
          "name": "Bull Savannah",
          "latitude": "17.88056000",
          "longitude": "-77.59000000"
        },
        {
          "name": "Burnt Savannah",
          "latitude": "18.03177000",
          "longitude": "-77.74936000"
        },
        {
          "name": "Carisbrook",
          "latitude": "18.14742000",
          "longitude": "-77.77367000"
        },
        {
          "name": "Cotterwood",
          "latitude": "18.09492000",
          "longitude": "-77.91553000"
        },
        {
          "name": "Crawford",
          "latitude": "18.05060000",
          "longitude": "-77.91596000"
        },
        {
          "name": "Elderslie",
          "latitude": "18.22416000",
          "longitude": "-77.79381000"
        },
        {
          "name": "Fullerswood",
          "latitude": "18.01527000",
          "longitude": "-77.77572000"
        },
        {
          "name": "Giddy Hall",
          "latitude": "18.09702000",
          "longitude": "-77.86764000"
        },
        {
          "name": "Ginger Hill",
          "latitude": "18.19180000",
          "longitude": "-77.84867000"
        },
        {
          "name": "Goshen",
          "latitude": "18.04964000",
          "longitude": "-77.64136000"
        },
        {
          "name": "Holland",
          "latitude": "18.10358000",
          "longitude": "-77.80164000"
        },
        {
          "name": "Hopeton",
          "latitude": "17.95626000",
          "longitude": "-77.66239000"
        },
        {
          "name": "Junction",
          "latitude": "17.91467000",
          "longitude": "-77.59894000"
        },
        {
          "name": "Lacovia",
          "latitude": "18.08844000",
          "longitude": "-77.75350000"
        },
        {
          "name": "Leeds",
          "latitude": "18.01399000",
          "longitude": "-77.68374000"
        },
        {
          "name": "Lititz",
          "latitude": "17.94033000",
          "longitude": "-77.59511000"
        },
        {
          "name": "Maggotty",
          "latitude": "18.17343000",
          "longitude": "-77.76681000"
        },
        {
          "name": "Malvern",
          "latitude": "17.96667000",
          "longitude": "-77.70000000"
        },
        {
          "name": "Merrywood",
          "latitude": "18.21793000",
          "longitude": "-77.83773000"
        },
        {
          "name": "Middle Quarters",
          "latitude": "18.11455000",
          "longitude": "-77.83808000"
        },
        {
          "name": "Mountainside",
          "latitude": "17.98077000",
          "longitude": "-77.74786000"
        },
        {
          "name": "Mulgrave",
          "latitude": "18.21164000",
          "longitude": "-77.82018000"
        },
        {
          "name": "Myersville",
          "latitude": "17.99699000",
          "longitude": "-77.62425000"
        },
        {
          "name": "Nain",
          "latitude": "17.96526000",
          "longitude": "-77.60528000"
        },
        {
          "name": "New Market",
          "latitude": "18.15362000",
          "longitude": "-77.90962000"
        },
        {
          "name": "Newell",
          "latitude": "17.92103000",
          "longitude": "-77.74653000"
        },
        {
          "name": "Newton",
          "latitude": "18.11095000",
          "longitude": "-77.72352000"
        },
        {
          "name": "Parottee",
          "latitude": "17.96174000",
          "longitude": "-77.81774000"
        },
        {
          "name": "Pedro Plains",
          "latitude": "17.88569000",
          "longitude": "-77.71337000"
        },
        {
          "name": "Pepper",
          "latitude": "18.02105000",
          "longitude": "-77.61284000"
        },
        {
          "name": "Pisgah",
          "latitude": "18.19605000",
          "longitude": "-77.88671000"
        },
        {
          "name": "Pondside",
          "latitude": "17.98153000",
          "longitude": "-77.79450000"
        },
        {
          "name": "Potsdam",
          "latitude": "17.91872000",
          "longitude": "-77.66869000"
        },
        {
          "name": "Quick Step",
          "latitude": "18.23281000",
          "longitude": "-77.67831000"
        },
        {
          "name": "Red Bank",
          "latitude": "17.93776000",
          "longitude": "-77.62585000"
        },
        {
          "name": "Retirement",
          "latitude": "18.20740000",
          "longitude": "-77.76698000"
        },
        {
          "name": "Rose Hall",
          "latitude": "17.92654000",
          "longitude": "-77.64153000"
        },
        {
          "name": "Russels",
          "latitude": "17.98638000",
          "longitude": "-77.65065000"
        },
        {
          "name": "Santa Cruz",
          "latitude": "18.05336000",
          "longitude": "-77.69836000"
        },
        {
          "name": "Scholefield",
          "latitude": "18.02375000",
          "longitude": "-77.71884000"
        },
        {
          "name": "Siloah",
          "latitude": "18.16334000",
          "longitude": "-77.71061000"
        },
        {
          "name": "Slipe",
          "latitude": "18.05740000",
          "longitude": "-77.79687000"
        },
        {
          "name": "Southfield",
          "latitude": "17.88212000",
          "longitude": "-77.66988000"
        },
        {
          "name": "Springfield",
          "latitude": "18.17662000",
          "longitude": "-77.87392000"
        },
        {
          "name": "Thornton",
          "latitude": "18.19564000",
          "longitude": "-77.72246000"
        },
        {
          "name": "Top Hill",
          "latitude": "17.89317000",
          "longitude": "-77.63793000"
        },
        {
          "name": "Treasure Beach",
          "latitude": "17.89550000",
          "longitude": "-77.76051000"
        },
        {
          "name": "Warminister",
          "latitude": "17.96238000",
          "longitude": "-77.63956000"
        },
        {
          "name": "Watchwell",
          "latitude": "17.93876000",
          "longitude": "-77.77250000"
        },
        {
          "name": "White Hill",
          "latitude": "18.15646000",
          "longitude": "-77.81067000"
        }
      ]
    },
    {
      "name": "Saint James Parish",
      "state_code": "08",
      "latitude": "30.01792920",
      "longitude": "-90.79132270",
      "cities": [
        {
          "name": "Adelphi",
          "latitude": "18.45060000",
          "longitude": "-77.78590000"
        },
        {
          "name": "Albion",
          "latitude": "18.48471000",
          "longitude": "-77.91408000"
        },
        {
          "name": "Anchovy",
          "latitude": "18.41030000",
          "longitude": "-77.93166000"
        },
        {
          "name": "Arcadia",
          "latitude": "18.24993000",
          "longitude": "-77.79228000"
        },
        {
          "name": "Barrett Town",
          "latitude": "18.50871000",
          "longitude": "-77.79625000"
        },
        {
          "name": "Bickersteth",
          "latitude": "18.36335000",
          "longitude": "-77.93651000"
        },
        {
          "name": "Bogue",
          "latitude": "18.43722000",
          "longitude": "-77.92022000"
        },
        {
          "name": "Brandon Hill",
          "latitude": "18.47767000",
          "longitude": "-77.91117000"
        },
        {
          "name": "Cambridge",
          "latitude": "18.31308000",
          "longitude": "-77.89546000"
        },
        {
          "name": "Canterbury",
          "latitude": "18.47919000",
          "longitude": "-77.91655000"
        },
        {
          "name": "Catadupa",
          "latitude": "18.28052000",
          "longitude": "-77.86579000"
        },
        {
          "name": "Catherine Hall",
          "latitude": "18.46258000",
          "longitude": "-77.92286000"
        },
        {
          "name": "Catherine Mount",
          "latitude": "18.45672000",
          "longitude": "-77.89691000"
        },
        {
          "name": "Comfort Hall",
          "latitude": "18.41270000",
          "longitude": "-77.91814000"
        },
        {
          "name": "Coral Gardens",
          "latitude": "18.50791000",
          "longitude": "-77.88034000"
        },
        {
          "name": "Cornwall",
          "latitude": "18.48930000",
          "longitude": "-77.81016000"
        },
        {
          "name": "Down Town Montego Bay",
          "latitude": "18.47726000",
          "longitude": "-77.92031000"
        },
        {
          "name": "Dumfries",
          "latitude": "18.42973000",
          "longitude": "-77.75593000"
        },
        {
          "name": "Fairfield",
          "latitude": "18.45079000",
          "longitude": "-77.91235000"
        },
        {
          "name": "Farm Heights",
          "latitude": "18.46869000",
          "longitude": "-77.87760000"
        },
        {
          "name": "Flagstaff",
          "latitude": "18.35412000",
          "longitude": "-77.77132000"
        },
        {
          "name": "Flamstead",
          "latitude": "18.31409000",
          "longitude": "-77.81316000"
        },
        {
          "name": "Flankers",
          "latitude": "18.50265000",
          "longitude": "-77.90831000"
        },
        {
          "name": "Flower Hill",
          "latitude": "18.48426000",
          "longitude": "-77.83913000"
        },
        {
          "name": "Friendship",
          "latitude": "18.44590000",
          "longitude": "-77.86242000"
        },
        {
          "name": "Garlands",
          "latitude": "18.27811000",
          "longitude": "-77.78908000"
        },
        {
          "name": "Glendevon",
          "latitude": "18.48488000",
          "longitude": "-77.89710000"
        },
        {
          "name": "Goodwill",
          "latitude": "18.46950000",
          "longitude": "-77.75646000"
        },
        {
          "name": "Granville",
          "latitude": "18.44191000",
          "longitude": "-77.89402000"
        },
        {
          "name": "Green Pond",
          "latitude": "18.47361000",
          "longitude": "-77.87779000"
        },
        {
          "name": "Greenwood",
          "latitude": "18.49768000",
          "longitude": "-77.75243000"
        },
        {
          "name": "Hopeton",
          "latitude": "18.39858000",
          "longitude": "-77.86826000"
        },
        {
          "name": "Ironshore",
          "latitude": "18.51323000",
          "longitude": "-77.85108000"
        },
        {
          "name": "Irwin",
          "latitude": "18.44949000",
          "longitude": "-77.87722000"
        },
        {
          "name": "John's Hall",
          "latitude": "18.42849000",
          "longitude": "-77.85010000"
        },
        {
          "name": "Lilliput",
          "latitude": "18.50591000",
          "longitude": "-77.77686000"
        },
        {
          "name": "Lottery",
          "latitude": "18.41499000",
          "longitude": "-77.80696000"
        },
        {
          "name": "Maldon",
          "latitude": "18.33831000",
          "longitude": "-77.80998000"
        },
        {
          "name": "Maroon Town",
          "latitude": "18.34464000",
          "longitude": "-77.79544000"
        },
        {
          "name": "Mocho",
          "latitude": "18.29135000",
          "longitude": "-77.82580000"
        },
        {
          "name": "Montego Bay",
          "latitude": "18.47116000",
          "longitude": "-77.91883000"
        },
        {
          "name": "Montego Hill",
          "latitude": "18.48038000",
          "longitude": "-77.88150000"
        },
        {
          "name": "Montpelier",
          "latitude": "18.37612000",
          "longitude": "-77.91357000"
        },
        {
          "name": "Mount Carey",
          "latitude": "18.38888000",
          "longitude": "-77.94374000"
        },
        {
          "name": "Mount Horeb",
          "latitude": "18.33322000",
          "longitude": "-77.86675000"
        },
        {
          "name": "Mount Salem",
          "latitude": "18.46601000",
          "longitude": "-77.90793000"
        },
        {
          "name": "Niagara",
          "latitude": "18.26534000",
          "longitude": "-77.81879000"
        },
        {
          "name": "Norwood",
          "latitude": "18.49217000",
          "longitude": "-77.88634000"
        },
        {
          "name": "Orange",
          "latitude": "18.45395000",
          "longitude": "-77.82779000"
        },
        {
          "name": "Paradise",
          "latitude": "18.49401000",
          "longitude": "-77.90982000"
        },
        {
          "name": "Pitfour",
          "latitude": "18.43206000",
          "longitude": "-77.89007000"
        },
        {
          "name": "Porto Bello",
          "latitude": "18.46607000",
          "longitude": "-77.86989000"
        },
        {
          "name": "Reading",
          "latitude": "18.43723000",
          "longitude": "-77.94730000"
        },
        {
          "name": "Retirement",
          "latitude": "18.43742000",
          "longitude": "-77.88004000"
        },
        {
          "name": "Retrieve",
          "latitude": "18.28901000",
          "longitude": "-77.90081000"
        },
        {
          "name": "Roehampton",
          "latitude": "18.39897000",
          "longitude": "-77.89926000"
        },
        {
          "name": "Rose Hall",
          "latitude": "18.51228000",
          "longitude": "-77.81833000"
        },
        {
          "name": "Rose Heights",
          "latitude": "18.46945000",
          "longitude": "-77.89533000"
        },
        {
          "name": "Rose Mount Garden",
          "latitude": "18.46394000",
          "longitude": "-77.89397000"
        },
        {
          "name": "Rosemount",
          "latitude": "18.47484000",
          "longitude": "-77.89216000"
        },
        {
          "name": "Salt Spring",
          "latitude": "18.48687000",
          "longitude": "-77.86554000"
        },
        {
          "name": "Seven Rivers",
          "latitude": "18.34702000",
          "longitude": "-77.91378000"
        },
        {
          "name": "Somerton",
          "latitude": "18.40496000",
          "longitude": "-77.77071000"
        },
        {
          "name": "Spot Valley",
          "latitude": "18.47869000",
          "longitude": "-77.79106000"
        },
        {
          "name": "Stonehenge",
          "latitude": "18.24231000",
          "longitude": "-77.85042000"
        },
        {
          "name": "Summer Hill",
          "latitude": "18.37360000",
          "longitude": "-77.79350000"
        },
        {
          "name": "Sunderland",
          "latitude": "18.39794000",
          "longitude": "-77.82734000"
        },
        {
          "name": "Tangle River",
          "latitude": "18.34337000",
          "longitude": "-77.83621000"
        },
        {
          "name": "Tower Hill/Moy Hall",
          "latitude": "18.44044000",
          "longitude": "-77.96022000"
        },
        {
          "name": "Tucker",
          "latitude": "18.44900000",
          "longitude": "-77.89438000"
        },
        {
          "name": "Unity Hall",
          "latitude": "18.43304000",
          "longitude": "-77.97684000"
        },
        {
          "name": "Vaughnsfield",
          "latitude": "18.32135000",
          "longitude": "-77.78051000"
        },
        {
          "name": "Welcome Hall",
          "latitude": "18.36898000",
          "longitude": "-77.83673000"
        },
        {
          "name": "West Green",
          "latitude": "18.46244000",
          "longitude": "-77.91757000"
        }
      ]
    },
    {
      "name": "Saint Mary Parish",
      "state_code": "05",
      "latitude": "36.09252200",
      "longitude": "-95.97384400",
      "cities": [
        {
          "name": "Amiel Town",
          "latitude": "18.34027000",
          "longitude": "-76.97612000"
        },
        {
          "name": "Annotto Bay",
          "latitude": "18.27170000",
          "longitude": "-76.76523000"
        },
        {
          "name": "Baileys Vale",
          "latitude": "18.34527000",
          "longitude": "-76.92593000"
        },
        {
          "name": "Baxter Mountain",
          "latitude": "18.20405000",
          "longitude": "-76.77198000"
        },
        {
          "name": "Belfield",
          "latitude": "18.27347000",
          "longitude": "-76.83574000"
        },
        {
          "name": "Bonnygate",
          "latitude": "18.32869000",
          "longitude": "-76.94606000"
        },
        {
          "name": "Brainerd",
          "latitude": "18.16988000",
          "longitude": "-76.86890000"
        },
        {
          "name": "Broadgate",
          "latitude": "18.22847000",
          "longitude": "-76.80788000"
        },
        {
          "name": "Camberwell",
          "latitude": "18.23930000",
          "longitude": "-76.78088000"
        },
        {
          "name": "Carron Hall",
          "latitude": "18.27797000",
          "longitude": "-76.95246000"
        },
        {
          "name": "Castleton",
          "latitude": "18.17618000",
          "longitude": "-76.78340000"
        },
        {
          "name": "Charles Town",
          "latitude": "18.38918000",
          "longitude": "-77.03978000"
        },
        {
          "name": "Clonmel",
          "latitude": "18.24281000",
          "longitude": "-76.83137000"
        },
        {
          "name": "Devon Pen",
          "latitude": "18.21561000",
          "longitude": "-76.82440000"
        },
        {
          "name": "Dover",
          "latitude": "18.25534000",
          "longitude": "-76.70811000"
        },
        {
          "name": "Enfield",
          "latitude": "18.22036000",
          "longitude": "-76.73745000"
        },
        {
          "name": "Epson",
          "latitude": "18.25220000",
          "longitude": "-76.72641000"
        },
        {
          "name": "Flint River",
          "latitude": "18.23790000",
          "longitude": "-76.92173000"
        },
        {
          "name": "Free Hill",
          "latitude": "18.35439000",
          "longitude": "-76.94317000"
        },
        {
          "name": "Friendship Gap",
          "latitude": "18.19719000",
          "longitude": "-76.81960000"
        },
        {
          "name": "Galina",
          "latitude": "18.40265000",
          "longitude": "-76.90041000"
        },
        {
          "name": "Gayle",
          "latitude": "18.34278000",
          "longitude": "-77.00211000"
        },
        {
          "name": "Guys Hill",
          "latitude": "18.26243000",
          "longitude": "-76.99561000"
        },
        {
          "name": "Hampstead",
          "latitude": "18.32051000",
          "longitude": "-76.90477000"
        },
        {
          "name": "Highgate",
          "latitude": "18.27739000",
          "longitude": "-76.89554000"
        },
        {
          "name": "Islington",
          "latitude": "18.32160000",
          "longitude": "-76.84102000"
        },
        {
          "name": "Jacks River",
          "latitude": "18.37220000",
          "longitude": "-76.94101000"
        },
        {
          "name": "Jeffery Town",
          "latitude": "18.28956000",
          "longitude": "-77.00343000"
        },
        {
          "name": "Labyrinth",
          "latitude": "18.34419000",
          "longitude": "-77.03227000"
        },
        {
          "name": "Long Road",
          "latitude": "18.21337000",
          "longitude": "-76.75009000"
        },
        {
          "name": "Lucky Hill",
          "latitude": "18.30252000",
          "longitude": "-77.01678000"
        },
        {
          "name": "Mango Valley",
          "latitude": "18.37481000",
          "longitude": "-76.97694000"
        },
        {
          "name": "Martin",
          "latitude": "18.30118000",
          "longitude": "-76.87257000"
        },
        {
          "name": "Mason Hall",
          "latitude": "18.39662000",
          "longitude": "-76.92063000"
        },
        {
          "name": "Mile Gully",
          "latitude": "18.31801000",
          "longitude": "-76.96051000"
        },
        {
          "name": "Oracabessa",
          "latitude": "18.40319000",
          "longitude": "-76.94641000"
        },
        {
          "name": "Port Maria",
          "latitude": "18.36849000",
          "longitude": "-76.88946000"
        },
        {
          "name": "Prospect",
          "latitude": "18.41273000",
          "longitude": "-77.04119000"
        },
        {
          "name": "Retreat",
          "latitude": "18.37865000",
          "longitude": "-77.01590000"
        },
        {
          "name": "Richmond",
          "latitude": "18.21113000",
          "longitude": "-76.88301000"
        },
        {
          "name": "Robins Bay",
          "latitude": "18.31236000",
          "longitude": "-76.81783000"
        },
        {
          "name": "Sandside",
          "latitude": "18.33888000",
          "longitude": "-76.89551000"
        },
        {
          "name": "Scotts Hall",
          "latitude": "18.19083000",
          "longitude": "-76.83942000"
        },
        {
          "name": "Woodpark",
          "latitude": "18.29734000",
          "longitude": "-76.98114000"
        },
        {
          "name": "Woodside",
          "latitude": "18.25258000",
          "longitude": "-76.92679000"
        }
      ]
    },
    {
      "name": "Saint Thomas Parish",
      "state_code": "03",
      "latitude": "41.44253890",
      "longitude": "-81.74022180",
      "cities": [
        {
          "name": "Airy Castle",
          "latitude": "17.92506000",
          "longitude": "-76.34216000"
        },
        {
          "name": "Albion",
          "latitude": "17.90119000",
          "longitude": "-76.60761000"
        },
        {
          "name": "Amity Hall",
          "latitude": "17.96759000",
          "longitude": "-76.25698000"
        },
        {
          "name": "Arcadia",
          "latitude": "17.92230000",
          "longitude": "-76.30030000"
        },
        {
          "name": "Baptist",
          "latitude": "17.87666000",
          "longitude": "-76.57837000"
        },
        {
          "name": "Barking Lodge",
          "latitude": "17.89279000",
          "longitude": "-76.28922000"
        },
        {
          "name": "Bath",
          "latitude": "17.94820000",
          "longitude": "-76.34916000"
        },
        {
          "name": "Bethel",
          "latitude": "17.98527000",
          "longitude": "-76.58050000"
        },
        {
          "name": "Cedar Valley",
          "latitude": "18.02815000",
          "longitude": "-76.59556000"
        },
        {
          "name": "Church Corner",
          "latitude": "17.88718000",
          "longitude": "-76.41898000"
        },
        {
          "name": "Dalvey",
          "latitude": "17.90241000",
          "longitude": "-76.25001000"
        },
        {
          "name": "Danvers Pen",
          "latitude": "17.92880000",
          "longitude": "-76.47586000"
        },
        {
          "name": "Duckenfield",
          "latitude": "17.92205000",
          "longitude": "-76.22657000"
        },
        {
          "name": "Duhaney Pen",
          "latitude": "17.89402000",
          "longitude": "-76.43193000"
        },
        {
          "name": "Easington",
          "latitude": "17.92397000",
          "longitude": "-76.58824000"
        },
        {
          "name": "Eleven Miles",
          "latitude": "17.93745000",
          "longitude": "-76.64337000"
        },
        {
          "name": "Font Hill",
          "latitude": "17.94055000",
          "longitude": "-76.51169000"
        },
        {
          "name": "Golden Grove",
          "latitude": "17.93361000",
          "longitude": "-76.27254000"
        },
        {
          "name": "Hagley Gap",
          "latitude": "18.04845000",
          "longitude": "-76.62777000"
        },
        {
          "name": "Hampton Court",
          "latitude": "17.91782000",
          "longitude": "-76.26131000"
        },
        {
          "name": "Hayfield",
          "latitude": "17.98199000",
          "longitude": "-76.36841000"
        },
        {
          "name": "Hillside",
          "latitude": "17.99619000",
          "longitude": "-76.49082000"
        },
        {
          "name": "Johns Town",
          "latitude": "17.89659000",
          "longitude": "-76.36136000"
        },
        {
          "name": "Johnson Mountain",
          "latitude": "17.98091000",
          "longitude": "-76.31986000"
        },
        {
          "name": "Jones Pen",
          "latitude": "17.95068000",
          "longitude": "-76.54775000"
        },
        {
          "name": "Leith Hall",
          "latitude": "17.87973000",
          "longitude": "-76.34331000"
        },
        {
          "name": "Llandewey",
          "latitude": "17.94477000",
          "longitude": "-76.62245000"
        },
        {
          "name": "Lloyds",
          "latitude": "17.91504000",
          "longitude": "-76.54085000"
        },
        {
          "name": "Lyssons",
          "latitude": "17.88708000",
          "longitude": "-76.37961000"
        },
        {
          "name": "Middleton",
          "latitude": "17.93971000",
          "longitude": "-76.43558000"
        },
        {
          "name": "Morant Bay",
          "latitude": "17.88145000",
          "longitude": "-76.40927000"
        },
        {
          "name": "Mount Lebanus",
          "latitude": "17.97544000",
          "longitude": "-76.53891000"
        },
        {
          "name": "New Monkland",
          "latitude": "17.99158000",
          "longitude": "-76.57333000"
        },
        {
          "name": "Pamphret",
          "latitude": "17.87570000",
          "longitude": "-76.51736000"
        },
        {
          "name": "Pear Tree",
          "latitude": "17.91162000",
          "longitude": "-76.31676000"
        },
        {
          "name": "Poormans Corner",
          "latitude": "17.89152000",
          "longitude": "-76.58351000"
        },
        {
          "name": "Port Morant",
          "latitude": "17.89947000",
          "longitude": "-76.34286000"
        },
        {
          "name": "Prospect",
          "latitude": "17.87404000",
          "longitude": "-76.34956000"
        },
        {
          "name": "Ramble",
          "latitude": "17.96791000",
          "longitude": "-76.62630000"
        },
        {
          "name": "Retreat",
          "latitude": "17.87760000",
          "longitude": "-76.36795000"
        },
        {
          "name": "Richmond Vale",
          "latitude": "17.97435000",
          "longitude": "-76.59044000"
        },
        {
          "name": "River Head",
          "latitude": "17.99237000",
          "longitude": "-76.61082000"
        },
        {
          "name": "Rowlandsfield",
          "latitude": "17.97355000",
          "longitude": "-76.28781000"
        },
        {
          "name": "Seaforth",
          "latitude": "17.94421000",
          "longitude": "-76.45661000"
        },
        {
          "name": "Somerset",
          "latitude": "18.00976000",
          "longitude": "-76.54595000"
        },
        {
          "name": "Spring Bank",
          "latitude": "17.95995000",
          "longitude": "-76.32596000"
        },
        {
          "name": "Spring Garden",
          "latitude": "17.91749000",
          "longitude": "-76.42978000"
        },
        {
          "name": "Sunning Hill",
          "latitude": "17.95612000",
          "longitude": "-76.40931000"
        },
        {
          "name": "Trinity Ville",
          "latitude": "17.96076000",
          "longitude": "-76.51427000"
        },
        {
          "name": "Trinityville",
          "latitude": "17.95720000",
          "longitude": "-76.49420000"
        },
        {
          "name": "Wheelerfield",
          "latitude": "17.95874000",
          "longitude": "-76.29623000"
        },
        {
          "name": "White Hall",
          "latitude": "17.99805000",
          "longitude": "-76.43105000"
        },
        {
          "name": "White Horses",
          "latitude": "17.89620000",
          "longitude": "-76.47076000"
        },
        {
          "name": "Wilmington",
          "latitude": "17.92856000",
          "longitude": "-76.38962000"
        },
        {
          "name": "Winchester",
          "latitude": "17.94177000",
          "longitude": "-76.29823000"
        },
        {
          "name": "Yallahs",
          "latitude": "17.87480000",
          "longitude": "-76.56245000"
        },
        {
          "name": "York",
          "latitude": "17.92849000",
          "longitude": "-76.43983000"
        }
      ]
    },
    {
      "name": "Trelawny Parish",
      "state_code": "07",
      "latitude": "18.35261430",
      "longitude": "-77.60778650",
      "cities": [
        {
          "name": "Albert Town",
          "latitude": "18.29434000",
          "longitude": "-77.54239000"
        },
        {
          "name": "Alps",
          "latitude": "18.35498000",
          "longitude": "-77.50897000"
        },
        {
          "name": "Bounty Hall",
          "latitude": "18.45801000",
          "longitude": "-77.71663000"
        },
        {
          "name": "Brampton",
          "latitude": "18.44262000",
          "longitude": "-77.46424000"
        },
        {
          "name": "Bunkers Hill",
          "latitude": "18.36198000",
          "longitude": "-77.68612000"
        },
        {
          "name": "Clarks Town",
          "latitude": "18.42244000",
          "longitude": "-77.53328000"
        },
        {
          "name": "Daniel Town",
          "latitude": "18.46395000",
          "longitude": "-77.61592000"
        },
        {
          "name": "Deeside",
          "latitude": "18.35976000",
          "longitude": "-77.73721000"
        },
        {
          "name": "Duanvale",
          "latitude": "18.40267000",
          "longitude": "-77.59615000"
        },
        {
          "name": "Duncans",
          "latitude": "18.46800000",
          "longitude": "-77.53633000"
        },
        {
          "name": "Falmouth",
          "latitude": "18.49358000",
          "longitude": "-77.65587000"
        },
        {
          "name": "Freemans Hall",
          "latitude": "18.28384000",
          "longitude": "-77.50180000"
        },
        {
          "name": "Granville",
          "latitude": "18.45053000",
          "longitude": "-77.68847000"
        },
        {
          "name": "Hampden",
          "latitude": "18.44217000",
          "longitude": "-77.73203000"
        },
        {
          "name": "Jackson Town",
          "latitude": "18.41781000",
          "longitude": "-77.48458000"
        },
        {
          "name": "Joe Hut",
          "latitude": "18.26742000",
          "longitude": "-77.49616000"
        },
        {
          "name": "Kinloss",
          "latitude": "18.39641000",
          "longitude": "-77.56968000"
        },
        {
          "name": "Lorrimers",
          "latitude": "18.23026000",
          "longitude": "-77.49207000"
        },
        {
          "name": "Martha Brae",
          "latitude": "18.46960000",
          "longitude": "-77.65909000"
        },
        {
          "name": "Perth Town",
          "latitude": "18.43106000",
          "longitude": "-77.62583000"
        },
        {
          "name": "Refuge",
          "latitude": "18.45101000",
          "longitude": "-77.57751000"
        },
        {
          "name": "Rio Bueno",
          "latitude": "18.46406000",
          "longitude": "-77.48042000"
        },
        {
          "name": "Salt Marsh",
          "latitude": "18.48423000",
          "longitude": "-77.71184000"
        },
        {
          "name": "Samuels Prospect",
          "latitude": "18.45103000",
          "longitude": "-77.51440000"
        },
        {
          "name": "Sawyers",
          "latitude": "18.37880000",
          "longitude": "-77.49689000"
        },
        {
          "name": "Sherwood Content",
          "latitude": "18.38227000",
          "longitude": "-77.63643000"
        },
        {
          "name": "Spicy Hill",
          "latitude": "18.45763000",
          "longitude": "-77.54751000"
        },
        {
          "name": "Spring Garden",
          "latitude": "18.29368000",
          "longitude": "-77.56698000"
        },
        {
          "name": "St. Vincent",
          "latitude": "18.33424000",
          "longitude": "-77.54790000"
        },
        {
          "name": "Stettin",
          "latitude": "18.28224000",
          "longitude": "-77.54095000"
        },
        {
          "name": "Stewart Town",
          "latitude": "18.39887000",
          "longitude": "-77.45187000"
        },
        {
          "name": "Troy",
          "latitude": "18.24924000",
          "longitude": "-77.60978000"
        },
        {
          "name": "Ulster Spring",
          "latitude": "18.32113000",
          "longitude": "-77.49681000"
        },
        {
          "name": "Wait-A-Bit",
          "latitude": "18.25332000",
          "longitude": "-77.50837000"
        },
        {
          "name": "Wakefield",
          "latitude": "18.41460000",
          "longitude": "-77.70908000"
        },
        {
          "name": "Warsop",
          "latitude": "18.26178000",
          "longitude": "-77.56774000"
        },
        {
          "name": "Wilson's Run",
          "latitude": "18.28468000",
          "longitude": "-77.69323000"
        },
        {
          "name": "Wirefence",
          "latitude": "18.25310000",
          "longitude": "-77.53276000"
        }
      ]
    },
    {
      "name": "Westmoreland Parish",
      "state_code": "10",
      "latitude": "18.29443780",
      "longitude": "-78.15644320",
      "cities": [
        {
          "name": "12th Street",
          "latitude": "18.21097000",
          "longitude": "-78.13603000"
        },
        {
          "name": "Amity",
          "latitude": "18.27361000",
          "longitude": "-77.89805000"
        },