{
  "code": "MM",
  "states": [
    {
      "name": "Ayeyarwady Region",
      "state_code": "07",
      "latitude": "17.03421250",
      "longitude": "95.22666750",
      "cities": [
        {
          "name": "Bogale",
          "latitude": "16.29415000",
          "longitude": "95.39742000"
        },
        {
          "name": "Hinthada",
          "latitude": "17.64944000",
          "longitude": "95.45705000"
        },
        {
          "name": "Kyaiklat",
          "latitude": "16.44502000",
          "longitude": "95.72373000"
        },
        {
          "name": "Maubin",
          "latitude": "16.73148000",
          "longitude": "95.65441000"
        },
        {
          "name": "Mawlamyinegyunn",
          "latitude": "16.37720000",
          "longitude": "95.26488000"
        },
        {
          "name": "Myanaung",
          "latitude": "18.28651000",
          "longitude": "95.32014000"
        },
        {
          "name": "Nyaungdon",
          "latitude": "17.04459000",
          "longitude": "95.63957000"
        },
        {
          "name": "Pathein",
          "latitude": "16.77919000",
          "longitude": "94.73212000"
        },
        {
          "name": "Pyapon",
          "latitude": "16.28543000",
          "longitude": "95.67882000"
        },
        {
          "name": "Wakema",
          "latitude": "16.60333000",
          "longitude": "95.18278000"
        }
      ]
    },
    {
      "name": "Bago",
      "state_code": "02",
      "latitude": "17.32207110",
      "longitude": "96.46632860",
      "cities": [
        {
          "name": "Bago",
          "latitude": "17.33521000",
          "longitude": "96.48135000"
        },
        {
          "name": "Letpandan",
          "latitude": "17.78664000",
          "longitude": "95.75076000"
        },
        {
          "name": "Nyaunglebin",
          "latitude": "17.95363000",
          "longitude": "96.72247000"
        },
        {
          "name": "Paungde",
          "latitude": "18.49167000",
          "longitude": "95.50591000"
        },
        {
          "name": "Pyay",
          "latitude": "18.82464000",
          "longitude": "95.22216000"
        },
        {
          "name": "Pyu",
          "latitude": "18.48130000",
          "longitude": "96.43742000"
        },
        {
          "name": "Taungoo",
          "latitude": "18.94291000",
          "longitude": "96.43408000"
        },
        {
          "name": "Thanatpin",
          "latitude": "17.29136000",
          "longitude": "96.57523000"
        },
        {
          "name": "Tharyarwady",
          "latitude": "17.65399000",
          "longitude": "95.78813000"
        }
      ]
    },
    {
      "name": "Chin State",
      "state_code": "14",
      "latitude": "22.00869780",
      "longitude": "93.58126920",
      "cities": [
        {
          "name": "Falam",
          "latitude": "22.91335000",
          "longitude": "93.67779000"
        },
        {
          "name": "Hakha",
          "latitude": "22.64452000",
          "longitude": "93.61076000"
        }
      ]
    },
    {
      "name": "Kachin State",
      "state_code": "11",
      "latitude": "25.85090400",
      "longitude": "97.43813550",
      "cities": [
        {
          "name": "Bhamo",
          "latitude": "24.25256000",
          "longitude": "97.23357000"
        },
        {
          "name": "Myitkyina",
          "latitude": "25.38327000",
          "longitude": "97.39637000"
        }
      ]
    },
    {
      "name": "Kayah State",
      "state_code": "12",
      "latitude": "19.23420610",
      "longitude": "97.26528580",
      "cities": [
        {
          "name": "Loikaw",
          "latitude": "19.67798000",
          "longitude": "97.20975000"
        }
      ]
    },
    {
      "name": "Kayin State",
      "state_code": "13",
      "latitude": "16.94593460",
      "longitude": "97.95928630",
      "cities": [
        {
          "name": "Dellok",
          "latitude": "16.04072000",
          "longitude": "97.91773000"
        },
        {
          "name": "Hpa-An",
          "latitude": "16.88953000",
          "longitude": "97.63482000"
        },
        {
          "name": "Klonhtoug",
          "latitude": "15.95411000",
          "longitude": "98.43250000"
        },
        {
          "name": "Kyain Seikgyi Township",
          "latitude": "15.82288000",
          "longitude": "98.25257000"
        },
        {
          "name": "Mikenaungea",
          "latitude": "15.95846000",
          "longitude": "98.42721000"
        },
        {
          "name": "Myawadi",
          "latitude": "16.68911000",
          "longitude": "98.50893000"
        },
        {
          "name": "Pulei",
          "latitude": "16.06243000",
          "longitude": "97.88280000"
        },
        {
          "name": "Tagondaing",
          "latitude": "16.06750000",
          "longitude": "97.90694000"
        },
        {
          "name": "Tamoowoug",
          "latitude": "16.03447000",
          "longitude": "97.91458000"
        }
      ]
    },
    {
      "name": "Magway Region",
      "state_code": "03",
      "latitude": "19.88713860",
      "longitude": "94.72775280",
      "cities": [
        {
          "name": "Chauk",
          "latitude": "20.89921000",
          "longitude": "94.81784000"
        },
        {
          "name": "Magway",
          "latitude": "20.14956000",
          "longitude": "94.93246000"
        },
        {
          "name": "Minbu",
          "latitude": "20.18059000",
          "longitude": "94.87595000"
        },
        {
          "name": "Myaydo",
          "latitude": "19.36838000",
          "longitude": "95.21512000"
        },
        {
          "name": "Pakokku",
          "latitude": "21.33489000",
          "longitude": "95.08438000"
        },
        {
          "name": "Taungdwingyi",
          "latitude": "20.00650000",
          "longitude": "95.54531000"
        },
        {
          "name": "Thayetmyo",
          "latitude": "19.32076000",
          "longitude": "95.18272000"
        },
        {
          "name": "Yenangyaung",
          "latitude": "20.46504000",
          "longitude": "94.87120000"
        }
      ]
    },
    {
      "name": "Mandalay Region",
      "state_code": "04",
      "latitude": "21.56190580",
      "longitude": "95.89871390",
      "cities": [
        {
          "name": "Kyaukse",
          "latitude": "21.60560000",
          "longitude": "96.13508000"
        },
        {
          "name": "Mandalay",
          "latitude": "21.97473000",
          "longitude": "96.08359000"
        },
        {
          "name": "Meiktila",
          "latitude": "20.87776000",
          "longitude": "95.85844000"
        },
        {
          "name": "Mogok",
          "latitude": "22.91766000",
          "longitude": "96.50982000"
        },
        {
          "name": "Myingyan",
          "latitude": "21.46002000",
          "longitude": "95.38840000"
        },
        {
          "name": "Nyaungshwe",
          "latitude": "20.66084000",
          "longitude": "96.93405000"
        },
        {
          "name": "Pyin Oo Lwin",
          "latitude": "22.03501000",
          "longitude": "96.45683000"
        },
        {
          "name": "Yamethin",
          "latitude": "20.43189000",
          "longitude": "96.13875000"
        }
      ]
    },
    {
      "name": "Mon State",
      "state_code": "15",
      "latitude": "16.30031330",
      "longitude": "97.69822720",
      "cities": [
        {
          "name": "Kyaikkami",
          "latitude": "16.07686000",
          "longitude": "97.56388000"
        },
        {
          "name": "Kyaikto",
          "latitude": "17.30858000",
          "longitude": "97.01124000"
        },
        {
          "name": "Martaban",
          "latitude": "16.52834000",
          "longitude": "97.61570000"
        },
        {
          "name": "Mawlamyine",
          "latitude": "16.49051000",
          "longitude": "97.62825000"
        },
        {
          "name": "Mudon",
          "latitude": "16.25624000",
          "longitude": "97.72460000"
        },
        {
          "name": "Thaton",
          "latitude": "16.91867000",
          "longitude": "97.37001000"
        }
      ]
    },
    {
      "name": "Naypyidaw Union Territory",
      "state_code": "18",
      "latitude": "19.93862450",
      "longitude": "96.15269850",
      "cities": [
        {
          "name": "Nay Pyi Taw",
          "latitude": "19.74500000",
          "longitude": "96.12972000"
        },
        {
          "name": "Pyinmana",
          "latitude": "19.73810000",
          "longitude": "96.20742000"
        }
      ]
    },
    {
      "name": "Rakhine State",
      "state_code": "16",
      "latitude": "20.10408180",
      "longitude": "93.58126920",
      "cities": [
        {
          "name": "Sittwe",
          "latitude": "20.14624000",
          "longitude": "92.89835000"
        }
      ]
    },
    {
      "name": "Sagaing Region",
      "state_code": "01",
      "latitude": "24.42838100",
      "longitude": "95.39395510",
      "cities": [
        {
          "name": "Mawlaik",
          "latitude": "23.64254000",
          "longitude": "94.40478000"
        },
        {
          "name": "Monywa",
          "latitude": "22.10856000",
          "longitude": "95.13583000"
        },
        {
          "name": "Sagaing",
          "latitude": "21.87870000",
          "longitude": "95.97965000"
        },
        {
          "name": "Shwebo",
          "latitude": "22.56925000",
          "longitude": "95.69818000"
        }
      ]
    },
    {
      "name": "Shan State",
      "state_code": "17",
      "latitude": "22.03619850",
      "longitude": "98.13385580",
      "cities": [
        {
          "name": "Lashio",
          "latitude": "22.93590000",
          "longitude": "97.74980000"
        },
        {
          "name": "Tachilek",
          "latitude": "20.44750000",
          "longitude": "99.88083000"
        },
        {
          "name": "Taunggyi",
          "latitude": "20.78919000",
          "longitude": "97.03776000"
        }
      ]
    },
    {
      "name": "Tanintharyi Region",
      "state_code": "05",
      "latitude": "12.47068760",
      "longitude": "99.01289260",
      "cities": [
        {
          "name": "Dawei",
          "latitude": "14.08230000",
          "longitude": "98.19151000"
        },
        {
          "name": "Kawthoung",
          "latitude": "9.98238000",
          "longitude": "98.55034000"
        },
        {
          "name": "Myeik",
          "latitude": "12.43954000",
          "longitude": "98.60028000"
        }
      ]
    },
    {
      "name": "Yangon Region",
      "state_code": "06",
      "latitude": "16.91434880",
      "longitude": "96.15269850",
      "cities": [
        {
          "name": "Kanbe",
          "latitude": "16.70728000",
          "longitude": "96.00168000"
        },
        {
          "name": "Kayan",
          "latitude": "16.90802000",
          "longitude": "96.56037000"
        },
        {
          "name": "Syriam",
          "latitude": "16.76887000",
          "longitude": "96.24503000"
        },
        {
          "name": "Thongwa",
          "latitude": "16.75998000",
          "longitude": "96.52498000"
        },
        {
          "name": "Twante",
          "latitude": "16.71047000",
          "longitude": "95.92866000"
        },
        {
          "name": "Yangon",
          "latitude": "16.80528000",
          "longitude": "96.15611000"
        }
      ]
    }
  ]
}