{
  "code": "TZ",
  "states": [
    {
      "name": "Arusha Region",
      "state_code": "01",
      "latitude": "-3.38692540",
      "longitude": "36.68299270",
      "cities": [
        {
          "name": "Arusha",
          "latitude": "-3.36667000",
          "longitude": "36.68333000"
        },
        {
          "name": "Kingori",
          "latitude": "-3.28333000",
          "longitude": "36.98333000"
        },
        {
          "name": "Kiratu",
          "latitude": "-3.33333000",
          "longitude": "35.66667000"
        },
        {
          "name": "Longido",
          "latitude": "-2.73319000",
          "longitude": "36.69773000"
        },
        {
          "name": "Mbuguni",
          "latitude": "-3.56667000",
          "longitude": "36.95000000"
        },
        {
          "name": "Merelani",
          "latitude": "-3.56182000",
          "longitude": "36.97895000"
        },
        {
          "name": "Meru",
          "latitude": "-3.30500000",
          "longitude": "36.80100000"
        },
        {
          "name": "Monduli",
          "latitude": "-3.30000000",
          "longitude": "36.45000000"
        },
        {
          "name": "Mto wa Mbu",
          "latitude": "-3.35000000",
          "longitude": "35.85000000"
        },
        {
          "name": "Namanga",
          "latitude": "-2.55116000",
          "longitude": "36.78377000"
        },
        {
          "name": "Ngorongoro",
          "latitude": "-3.23973000",
          "longitude": "35.48747000"
        },
        {
          "name": "Nkoaranga",
          "latitude": "-3.33333000",
          "longitude": "36.80000000"
        },
        {
          "name": "Poli",
          "latitude": "-3.33333000",
          "longitude": "36.80000000"
        },
        {
          "name": "Usa River",
          "latitude": "-3.36667000",
          "longitude": "36.85000000"
        }
      ]
    },
    {
      "name": "Dar es Salaam Region",
      "state_code": "02",
      "latitude": "-6.79235400",
      "longitude": "39.20832840",
      "cities": [
        {
          "name": "Dar es Salaam",
          "latitude": "-6.82349000",
          "longitude": "39.26951000"
        },
        {
          "name": "Magomeni",
          "latitude": "-6.80000000",
          "longitude": "39.25000000"
        }
      ]
    },
    {
      "name": "Dodoma Region",
      "state_code": "03",
      "latitude": "-6.57382280",
      "longitude": "36.26308460",
      "cities": [
        {
          "name": "Dodoma",
          "latitude": "-6.17221000",
          "longitude": "35.73947000"
        },
        {
          "name": "Kibakwe",
          "latitude": "-6.71667000",
          "longitude": "36.36667000"
        },
        {
          "name": "Kisasa",
          "latitude": "-6.17526000",
          "longitude": "35.79266000"
        },
        {
          "name": "Kondoa",
          "latitude": "-4.70931000",
          "longitude": "35.86227000"
        },
        {
          "name": "Kongwa",
          "latitude": "-6.20000000",
          "longitude": "36.41667000"
        },
        {
          "name": "Mpwapwa",
          "latitude": "-6.35000000",
          "longitude": "36.48333000"
        },
        {
          "name": "Msanga",
          "latitude": "-6.05000000",
          "longitude": "36.03333000"
        }
      ]
    },
    {
      "name": "Geita Region",
      "state_code": "27",
      "latitude": "-2.82422570",
      "longitude": "32.26538870",
      "cities": [
        {
          "name": "Buseresere",
          "latitude": "-3.02361000",
          "longitude": "31.87472000"
        },
        {
          "name": "Chato",
          "latitude": "-2.63778000",
          "longitude": "31.76694000"
        },
        {
          "name": "Geita",
          "latitude": "-2.87250000",
          "longitude": "32.23250000"
        },
        {
          "name": "Kasamwa",
          "latitude": "-2.85000000",
          "longitude": "32.43333000"
        },
        {
          "name": "Katoro",
          "latitude": "-3.02028000",
          "longitude": "31.89583000"
        },
        {
          "name": "Masumbwe",
          "latitude": "-3.63333000",
          "longitude": "32.18333000"
        },
        {
          "name": "Ushirombo",
          "latitude": "-3.49194000",
          "longitude": "31.96389000"
        },
        {
          "name": "Uyovu",
          "latitude": "-3.28333000",
          "longitude": "31.52583000"
        }
      ]
    },
    {
      "name": "Iringa Region",
      "state_code": "04",
      "latitude": "-7.78874420",
      "longitude": "35.56578620",
      "cities": [
        {
          "name": "Ilula",
          "latitude": "-7.67660000",
          "longitude": "36.03658000"
        },
        {
          "name": "Iringa",
          "latitude": "-7.76667000",
          "longitude": "35.70000000"
        },
        {
          "name": "Izazi",
          "latitude": "-7.20000000",
          "longitude": "35.73333000"
        },
        {
          "name": "Mafinga",
          "latitude": "-7.25000000",
          "longitude": "35.06667000"
        },
        {
          "name": "Makungu",
          "latitude": "-8.73333000",
          "longitude": "35.28333000"
        },
        {
          "name": "Malangali",
          "latitude": "-8.56667000",
          "longitude": "34.85000000"
        }
      ]
    },
    {
      "name": "Kagera Region",
      "state_code": "05",
      "latitude": "-1.30011150",
      "longitude": "31.26263660",
      "cities": [
        {
          "name": "Biharamulo",
          "latitude": "-2.63194000",
          "longitude": "31.30889000"
        },
        {
          "name": "Bugarama",
          "latitude": "-2.87056000",
          "longitude": "30.52806000"
        },
        {
          "name": "Bugene",
          "latitude": "-1.59111000",
          "longitude": "31.14028000"
        },
        {
          "name": "Bukoba",
          "latitude": "-1.33167000",
          "longitude": "31.81222000"
        },
        {
          "name": "Kabanga",
          "latitude": "-2.63861000",
          "longitude": "30.46778000"
        },
        {
          "name": "Kamachumu",
          "latitude": "-1.61861000",
          "longitude": "31.62000000"
        },
        {
          "name": "Katerero",
          "latitude": "-1.40000000",
          "longitude": "31.73333000"
        },
        {
          "name": "Katoro",
          "latitude": "-1.39972000",
          "longitude": "31.50028000"
        },
        {
          "name": "Kyaka",
          "latitude": "-1.25222000",
          "longitude": "31.42028000"
        },
        {
          "name": "Ngara",
          "latitude": "-2.51222000",
          "longitude": "30.65583000"
        },
        {
          "name": "Nshamba",
          "latitude": "-1.79833000",
          "longitude": "31.55111000"
        },
        {
          "name": "Nsunga",
          "latitude": "-1.14389000",
          "longitude": "31.39472000"
        },
        {
          "name": "Nyakahanga",
          "latitude": "-1.60333000",
          "longitude": "31.14139000"
        },
        {
          "name": "Rulenge",
          "latitude": "-2.71750000",
          "longitude": "30.63250000"
        }
      ]
    },
    {
      "name": "Katavi Region",
      "state_code": "28",
      "latitude": "-6.36771250",
      "longitude": "31.26263660",
      "cities": [
        {
          "name": "Inyonga",
          "latitude": "-6.71667000",
          "longitude": "32.06667000"
        },
        {
          "name": "Karema",
          "latitude": "-6.82052000",
          "longitude": "30.43887000"
        },
        {
          "name": "Mpanda",
          "latitude": "-6.34379000",
          "longitude": "31.06951000"
        },
        {
          "name": "Usevia",
          "latitude": "-7.10000000",
          "longitude": "31.23333000"
        }
      ]
    },
    {
      "name": "Kigoma Region",
      "state_code": "08",
      "latitude": "-4.88240920",
      "longitude": "29.66150550",
      "cities": [
        {
          "name": "Kakonko",
          "latitude": "-3.28278000",
          "longitude": "30.96417000"
        },
        {
          "name": "Kasulu",
          "latitude": "-4.57667000",
          "longitude": "30.10250000"
        },
        {
          "name": "Kibondo",
          "latitude": "-3.58639000",
          "longitude": "30.72028000"
        },
        {
          "name": "Kigoma",
          "latitude": "-4.87694000",
          "longitude": "29.62667000"
        },
        {
          "name": "Mabamba",
          "latitude": "-3.59833000",
          "longitude": "30.50194000"
        },
        {
          "name": "Mwandiga",
          "latitude": "-4.83000000",
          "longitude": "29.65806000"
        },
        {
          "name": "Nguruka",
          "latitude": "-5.10917000",
          "longitude": "31.04194000"
        },
        {
          "name": "Uvinza",
          "latitude": "-5.10361000",
          "longitude": "30.39111000"
        }
      ]
    },
    {
      "name": "Kilimanjaro Region",
      "state_code": "09",
      "latitude": "-4.13369270",
      "longitude": "37.80876930",
      "cities": [
        {
          "name": "Hedaru",
          "latitude": "-4.50000000",
          "longitude": "37.90000000"
        },
        {
          "name": "Kihurio",
          "latitude": "-4.46667000",
          "longitude": "38.06667000"
        },
        {
          "name": "Kisiwani",
          "latitude": "-4.13333000",
          "longitude": "37.95000000"
        },
        {
          "name": "Kwakoa",
          "latitude": "-3.76667000",
          "longitude": "37.71667000"
        },
        {
          "name": "Lembeni",
          "latitude": "-3.78333000",
          "longitude": "37.61667000"
        },
        {
          "name": "Makanya",
          "latitude": "-4.36667000",
          "longitude": "37.83333000"
        },
        {
          "name": "Moshi",
          "latitude": "-3.35000000",
          "longitude": "37.33333000"
        },
        {
          "name": "Mwembe",
          "latitude": "-4.15000000",
          "longitude": "37.85000000"
        },
        {
          "name": "Ndungu",
          "latitude": "-4.36667000",
          "longitude": "38.05000000"
        },
        {
          "name": "Same",
          "latitude": "-4.22199000",
          "longitude": "37.88278000"
        }
      ]
    },
    {
      "name": "Lindi Region",
      "state_code": "12",
      "latitude": "-9.23433940",
      "longitude": "38.31657250",
      "cities": [
        {
          "name": "Lindi",
          "latitude": "-9.99709000",
          "longitude": "39.71649000"
        },
        {
          "name": "Mbekenyera",
          "latitude": "-10.00000000",
          "longitude": "38.98333000"
        },
        {
          "name": "Mingoyo",
          "latitude": "-10.10526000",
          "longitude": "39.61859000"
        },
        {
          "name": "Mtama",
          "latitude": "-10.30000000",
          "longitude": "39.36667000"
        },
        {
          "name": "Nachingwea",
          "latitude": "-10.37250000",
          "longitude": "38.76251000"
        },
        {
          "name": "Nyangao",
          "latitude": "-10.33333000",
          "longitude": "39.28333000"
        },
        {
          "name": "Ruangwa",
          "latitude": "-10.06667000",
          "longitude": "38.93333000"
        }
      ]
    },
    {
      "name": "Manyara Region",
      "state_code": "26",
      "latitude": "-4.31500580",
      "longitude": "36.95410700",
      "cities": [
        {
          "name": "Babati",
          "latitude": "-4.21667000",
          "longitude": "35.75000000"
        },
        {
          "name": "Bashanet",
          "latitude": "-4.23333000",
          "longitude": "35.41667000"
        },
        {
          "name": "Basotu",
          "latitude": "-4.36667000",
          "longitude": "35.08333000"
        },
        {
          "name": "Dareda",
          "latitude": "-4.21667000",
          "longitude": "35.55000000"
        },
        {
          "name": "Dongobesh",
          "latitude": "-4.06667000",
          "longitude": "35.38333000"
        },
        {
          "name": "Endasak",
          "latitude": "-4.41667000",
          "longitude": "35.51667000"
        },
        {
          "name": "Galappo",
          "latitude": "-4.26667000",
          "longitude": "35.85000000"
        },
        {
          "name": "Katesh",
          "latitude": "-4.52483000",
          "longitude": "35.38490000"
        },
        {
          "name": "Kibaya",
          "latitude": "-5.30000000",
          "longitude": "36.56667000"
        },
        {
          "name": "Kirya",
          "latitude": "-3.91667000",
          "longitude": "37.48333000"
        },
        {
          "name": "Magugu",
          "latitude": "-4.01667000",
          "longitude": "35.76667000"
        },
        {
          "name": "Mbulu",
          "latitude": "-3.85000000",
          "longitude": "35.53333000"
        },
        {
          "name": "Naberera",
          "latitude": "-4.20000000",
          "longitude": "36.93333000"
        },
        {
          "name": "Nangwa",
          "latitude": "-4.46667000",
          "longitude": "35.45000000"
        }
      ]
    },
    {
      "name": "Mara Region",
      "state_code": "13",
      "latitude": "-1.77535380",
      "longitude": "34.15319470",
      "cities": [
        {
          "name": "Bukonyo",
          "latitude": "-1.95000000",
          "longitude": "32.93333000"
        },
        {
          "name": "Butiama",
          "latitude": "-1.76667000",
          "longitude": "33.96667000"
        },
        {
          "name": "Issenye",
          "latitude": "-2.00000000",
          "longitude": "34.33333000"
        },
        {
          "name": "Kibara",
          "latitude": "-2.15000000",
          "longitude": "33.45000000"
        },
        {
          "name": "Mugango",
          "latitude": "-1.68333000",
          "longitude": "33.70000000"
        },
        {
          "name": "Mugumu",
          "latitude": "-1.85000000",
          "longitude": "34.70000000"
        },
        {
          "name": "Muriti",
          "latitude": "-1.98333000",
          "longitude": "32.91667000"
        },
        {
          "name": "Musoma",
          "latitude": "-1.50000000",
          "longitude": "33.80000000"
        },
        {
          "name": "Nakatunguru",
          "latitude": "-2.11667000",
          "longitude": "33.06667000"
        },
        {
          "name": "Nansio",
          "latitude": "-2.13333000",
          "longitude": "33.05000000"
        },
        {
          "name": "Nyamuswa",
          "latitude": "-1.90000000",
          "longitude": "34.01667000"
        },
        {
          "name": "Sirari",
          "latitude": "-1.25367000",
          "longitude": "34.47596000"
        }
      ]
    },
    {
      "name": "Morogoro Region",
      "state_code": "16",
      "latitude": "-8.81371730",
      "longitude": "36.95410700",
      "cities": [
        {
          "name": "Geiro",
          "latitude": "-6.15000000",
          "longitude": "36.86667000"
        },
        {
          "name": "Ifakara",
          "latitude": "-8.13333000",
          "longitude": "36.68333000"
        },
        {
          "name": "Kidatu",
          "latitude": "-7.69916000",
          "longitude": "36.95722000"
        },
        {
          "name": "Kidodi",
          "latitude": "-7.60361000",
          "longitude": "37.00438000"
        },
        {
          "name": "Kilosa",
          "latitude": "-6.83333000",
          "longitude": "36.98333000"
        },
        {
          "name": "Kimamba",
          "latitude": "-6.78333000",
          "longitude": "37.13333000"
        },
        {
          "name": "Kisanga",
          "latitude": "-7.43622000",
          "longitude": "37.70337000"
        },
        {
          "name": "Lupiro",
          "latitude": "-8.38333000",
          "longitude": "36.66667000"
        },
        {
          "name": "Magole",
          "latitude": "-6.37697000",
          "longitude": "37.37373000"
        },
        {
          "name": "Mahenge",
          "latitude": "-8.68333000",
          "longitude": "36.71667000"
        },
        {
          "name": "Malinyi",
          "latitude": "-8.93333000",
          "longitude": "36.13333000"
        },
        {
          "name": "Mikumi",
          "latitude": "-7.40409000",
          "longitude": "36.98309000"
        },
        {
          "name": "Mlimba",
          "latitude": "-8.80000000",
          "longitude": "35.81667000"
        },
        {
          "name": "Morogoro",
          "latitude": "-6.82102000",
          "longitude": "37.66122000"
        },
        {
          "name": "Msowero",
          "latitude": "-6.53333000",
          "longitude": "37.20000000"
        },
        {
          "name": "Mtimbira",
          "latitude": "-8.78333000",
          "longitude": "36.35000000"
        },
        {
          "name": "Mvomero District",
          "latitude": "-6.30000000",
          "longitude": "37.45000000"
        },
        {
          "name": "Ngerengere",
          "latitude": "-6.75000000",
          "longitude": "38.11667000"
        }
      ]
    },
    {
      "name": "Mtwara Region",
      "state_code": "17",
      "latitude": "-10.33984550",
      "longitude": "40.16574660",
      "cities": [
        {
          "name": "Chiungutwa",
          "latitude": "-10.88333000",
          "longitude": "38.98333000"
        },
        {
          "name": "Kitama",
          "latitude": "-10.71667000",
          "longitude": "39.73333000"
        },
        {
          "name": "Kitangari",
          "latitude": "-10.65000000",
          "longitude": "39.33333000"
        },
        {
          "name": "Luchingu",
          "latitude": "-10.90000000",
          "longitude": "39.33333000"
        },
        {
          "name": "Lukuledi",
          "latitude": "-10.56667000",
          "longitude": "38.80000000"
        },
        {
          "name": "Lulindi",
          "latitude": "-10.81667000",
          "longitude": "39.13333000"
        },
        {
          "name": "Madimba",
          "latitude": "-10.40000000",
          "longitude": "40.33333000"
        },
        {
          "name": "Mahuta",
          "latitude": "-10.86667000",
          "longitude": "39.45000000"
        },
        {
          "name": "Masasi",
          "latitude": "-10.71667000",
          "longitude": "38.80000000"
        },
        {
          "name": "Masuguru",
          "latitude": "-11.36667000",
          "longitude": "38.41667000"
        },
        {
          "name": "Mtwara",
          "latitude": "-10.26667000",
          "longitude": "40.18333000"
        },
        {
          "name": "Namalenga",
          "latitude": "-10.95000000",
          "longitude": "39.10000000"
        },
        {
          "name": "Namikupa",
          "latitude": "-10.83333000",
          "longitude": "39.60000000"
        },
        {
          "name": "Nanganga",
          "latitude": "-10.38333000",
          "longitude": "39.15000000"
        },
        {
          "name": "Nangomba",
          "latitude": "-10.90000000",
          "longitude": "38.50000000"
        },
        {
          "name": "Nanhyanga",
          "latitude": "-10.80000000",
          "longitude": "39.55000000"
        },
        {
          "name": "Nanyamba",
          "latitude": "-10.68333000",
          "longitude": "39.83333000"
        },
        {
          "name": "Newala Kisimani",
          "latitude": "-10.95000000",
          "longitude": "39.28333000"
        },
        {
          "name": "Tandahimba",
          "latitude": "-10.75000000",
          "longitude": "39.63333000"
        }
      ]
    },
    {
      "name": "Mwanza Region",
      "state_code": "18",
      "latitude": "-2.46711970",
      "longitude": "32.89868120",
      "cities": [
        {
          "name": "Ilemela District",
          "latitude": "-2.44783000",
          "longitude": "33.03177000"
        },
        {
          "name": "Kihangara",
          "latitude": "-2.58333000",
          "longitude": "33.35000000"
        },
        {
          "name": "Malya",
          "latitude": "-2.98333000",
          "longitude": "33.51667000"
        },
        {
          "name": "Misasi",
          "latitude": "-3.00000000",
          "longitude": "33.08333000"
        },
        {
          "name": "Misungwi",
          "latitude": "-2.85000000",
          "longitude": "33.08333000"
        },
        {
          "name": "Mwanza",
          "latitude": "-2.51667000",
          "longitude": "32.90000000"
        },
        {
          "name": "Ngudu",
          "latitude": "-2.96667000",
          "longitude": "33.33333000"
        },
        {
          "name": "Nyanguge",
          "latitude": "-2.55000000",
          "longitude": "33.20000000"
        },
        {
          "name": "Usagara",
          "latitude": "-2.68333000",
          "longitude": "33.00000000"
        }
      ]
    },
    {
      "name": "Njombe Region",
      "state_code": "29",
      "latitude": "-9.24226320",
      "longitude": "35.12687810",
      "cities": [
        {
          "name": "Ilembula",
          "latitude": "-8.90000000",
          "longitude": "34.58333000"
        },
        {
          "name": "Makumbako",
          "latitude": "-8.85000000",
          "longitude": "34.83333000"
        },
        {
          "name": "Manda",
          "latitude": "-10.46667000",
          "longitude": "34.58333000"
        },
        {
          "name": "Matamba",
          "latitude": "-8.98333000",
          "longitude": "33.96667000"
        },
        {
          "name": "Mlangali",
          "latitude": "-9.78333000",
          "longitude": "34.51667000"
        },
        {
          "name": "Mtwango",
          "latitude": "-9.01667000",
          "longitude": "34.80000000"
        },
        {
          "name": "Njombe",
          "latitude": "-9.34917000",
          "longitude": "34.77167000"
        }
      ]
    },
    {
      "name": "North Pemba Region",
      "state_code": "06",
      "latitude": "-5.03193520",
      "longitude": "39.77555710",
      "cities": [
        {
          "name": "Konde",
          "latitude": "-4.95000000",
          "longitude": "39.75000000"
        },
        {
          "name": "Micheweni",
          "latitude": "-4.96667000",
          "longitude": "39.83333000"
        },
        {
          "name": "Wete",
          "latitude": "-5.05589000",
          "longitude": "39.72938000"
        }
      ]
    },
    {
      "name": "Pwani Region",
      "state_code": "19",
      "latitude": "-7.32377140",
      "longitude": "38.82054540",
      "cities": [
        {
          "name": "Bagamoyo",
          "latitude": "-6.44222000",
          "longitude": "38.90422000"
        },
        {
          "name": "Bungu",
          "latitude": "-7.63369000",
          "longitude": "39.05818000"
        },
        {
          "name": "Chalinze",
          "latitude": "-6.63784000",
          "longitude": "38.35396000"
        },
        {
          "name": "Ikwiriri",
          "latitude": "-7.95618000",
          "longitude": "38.97164000"
        },
        {
          "name": "Kibaha",
          "latitude": "-6.76667000",
          "longitude": "38.91667000"
        },
        {
          "name": "Kibiti",
          "latitude": "-7.72178000",
          "longitude": "38.93749000"
        },
        {
          "name": "Kilindoni",
          "latitude": "-7.91446000",
          "longitude": "39.66204000"
        },
        {
          "name": "Kisarawe",
          "latitude": "-6.90000000",
          "longitude": "39.06667000"
        },
        {
          "name": "Lugoba",
          "latitude": "-6.45000000",
          "longitude": "38.33333000"
        },
        {
          "name": "Maneromango",
          "latitude": "-7.19880000",
          "longitude": "38.78478000"
        },
        {
          "name": "Mbumi",
          "latitude": "-7.90577000",
          "longitude": "39.21047000"
        },
        {
          "name": "Mkuranga",
          "latitude": "-7.27000000",
          "longitude": "39.20000000"
        },
        {
          "name": "Mlandizi",
          "latitude": "-6.70000000",
          "longitude": "38.73333000"
        },
        {
          "name": "Mvomero",
          "latitude": "-6.25000000",
          "longitude": "38.66667000"
        },
        {
          "name": "Utete",
          "latitude": "-7.98598000",
          "longitude": "38.75795000"
        },
        {
          "name": "Vikindu",
          "latitude": "-7.00667000",
          "longitude": "39.29849000"
        }
      ]
    },
    {
      "name": "Rukwa Region",
      "state_code": "20",
      "latitude": "-8.01094440",
      "longitude": "31.44561790",
      "cities": [
        {
          "name": "Chala",
          "latitude": "-7.58333000",
          "longitude": "31.26667000"
        },
        {
          "name": "Kirando",
          "latitude": "-7.41667000",
          "longitude": "30.60000000"
        },
        {
          "name": "Laela",
          "latitude": "-8.56667000",
          "longitude": "32.05000000"
        },
        {
          "name": "Matai",
          "latitude": "-8.30000000",
          "longitude": "31.51667000"
        },
        {
          "name": "Namanyere",
          "latitude": "-7.51667000",
          "longitude": "31.05000000"
        },
        {
          "name": "Nkove",
          "latitude": "-7.95000000",
          "longitude": "30.85000000"
        },
        {
          "name": "Sumbawanga",
          "latitude": "-7.96667000",
          "longitude": "31.61667000"
        }
      ]
    },
    {
      "name": "Ruvuma Region",
      "state_code": "21",
      "latitude": "-10.68787170",
      "longitude": "36.26308460",
      "cities": [
        {
          "name": "Kigonsera",
          "latitude": "-10.80000000",
          "longitude": "35.05000000"
        },
        {
          "name": "Liuli",
          "latitude": "-11.08333000",
          "longitude": "34.63333000"
        },
        {
          "name": "Mahanje",
          "latitude": "-9.93333000",
          "longitude": "35.33333000"
        },
        {
          "name": "Maposeni",
          "latitude": "-10.58333000",
          "longitude": "35.40000000"
        },
        {
          "name": "Matiri",
          "latitude": "-10.75000000",
          "longitude": "34.90000000"
        },
        {
          "name": "Mbamba Bay",
          "latitude": "-11.28333000",
          "longitude": "34.76667000"
        },
        {
          "name": "Mbinga",
          "latitude": "-10.93333000",
          "longitude": "35.01667000"
        },
        {
          "name": "Songea",
          "latitude": "-10.68333000",
          "longitude": "35.65000000"
        },
        {
          "name": "Tingi",
          "latitude": "-11.30000000",
          "longitude": "35.03333000"
        }
      ]
    },
    {
      "name": "Shinyanga Region",
      "state_code": "22",
      "latitude": "-3.68099610",
      "longitude": "33.42714030",
      "cities": [
        {
          "name": "Isaka",
          "latitude": "-3.90000000",
          "longitude": "32.93333000"
        },
        {
          "name": "Kahama",
          "latitude": "-3.83333000",
          "longitude": "32.60000000"
        },
        {
          "name": "Kishapu",
          "latitude": "-3.61667000",
          "longitude": "33.86667000"
        },
        {
          "name": "Mhango",
          "latitude": "-3.28333000",
          "longitude": "32.85000000"
        },
        {
          "name": "Mwadui",
          "latitude": "-3.55000000",
          "longitude": "33.60000000"
        },
        {
          "name": "Old Shinyanga",
          "latitude": "-3.55000000",
          "longitude": "33.40000000"
        },
        {
          "name": "Shinyanga",
          "latitude": "-3.66393000",
          "longitude": "33.42118000"
        },
        {
          "name": "Songwa",
          "latitude": "-3.51667000",
          "longitude": "33.51667000"
        },
        {
          "name": "Tinde",
          "latitude": "-3.88333000",
          "longitude": "33.20000000"
        }
      ]
    },
    {
      "name": "Simiyu Region",
      "state_code": "30",
      "latitude": "-2.83087380",
      "longitude": "34.15319470",
      "cities": [
        {
          "name": "Bariadi",
          "latitude": "-2.80000000",
          "longitude": "33.98333000"
        },
        {
          "name": "Kisesa",
          "latitude": "-3.08333000",
          "longitude": "34.15000000"
        },
        {
          "name": "Lalago",
          "latitude": "-3.45000000",
          "longitude": "33.95000000"
        },
        {
          "name": "Malampaka",
          "latitude": "-3.13333000",
          "longitude": "33.53333000"
        },
        {
          "name": "Maswa",
          "latitude": "-2.68333000",
          "longitude": "33.98333000"
        },
        {
          "name": "Matonga",
          "latitude": "-2.38333000",
          "longitude": "34.08333000"
        },
        {
          "name": "Nyakabindi",
          "latitude": "-2.63333000",
          "longitude": "33.98333000"
        },
        {
          "name": "Nyalikungu",
          "latitude": "-3.18333000",
          "longitude": "33.78333000"
        },
        {
          "name": "Somanda",
          "latitude": "-3.36667000",
          "longitude": "33.95000000"
        }
      ]
    },
    {
      "name": "Singida Region",
      "state_code": "23",
      "latitude": "-6.74533520",
      "longitude": "34.15319470",
      "cities": [
        {
          "name": "Igugunu",
          "latitude": "-4.56667000",
          "longitude": "34.63333000"
        },
        {
          "name": "Ikungi",
          "latitude": "-5.13333000",
          "longitude": "34.76667000"
        },
        {
          "name": "Ilongero",
          "latitude": "-4.66667000",
          "longitude": "34.86667000"
        },
        {
          "name": "Itigi",
          "latitude": "-5.70000000",
          "longitude": "34.48333000"
        },
        {
          "name": "Kilimatinde",
          "latitude": "-5.85000000",
          "longitude": "34.95000000"
        },
        {
          "name": "Kintinku",
          "latitude": "-5.88333000",
          "longitude": "35.23333000"
        },
        {
          "name": "Kiomboi",
          "latitude": "-4.26667000",
          "longitude": "34.36667000"
        },
        {
          "name": "Mgandu",
          "latitude": "-5.95000000",
          "longitude": "34.13333000"
        },
        {
          "name": "Mtinko",
          "latitude": "-4.55000000",
          "longitude": "34.85000000"
        },
        {
          "name": "Mungaa",
          "latitude": "-4.96667000",
          "longitude": "34.88333000"
        },
        {
          "name": "Ndago",
          "latitude": "-4.60000000",
          "longitude": "34.35000000"
        },
        {
          "name": "Puma",
          "latitude": "-5.00000000",
          "longitude": "34.73333000"
        },
        {
          "name": "Sepuka",
          "latitude": "-4.75000000",
          "longitude": "34.53333000"
        },
        {
          "name": "Shelui",
          "latitude": "-4.36667000",
          "longitude": "34.20000000"
        },
        {
          "name": "Singida",
          "latitude": "-4.81629000",
          "longitude": "34.74358000"
        }
      ]
    },
    {
      "name": "South Pemba Region",
      "state_code": "10",
      "latitude": "-5.31469610",
      "longitude": "39.75495110",
      "cities": [
        {
          "name": "Chake Chake",
          "latitude": "-5.24586000",
          "longitude": "39.76659000"
        },
        {
          "name": "Mtambile",
          "latitude": "-5.38333000",
          "longitude": "39.70000000"
        },
        {
          "name": "Uwelini",
          "latitude": "-5.40000000",
          "longitude": "39.68333000"
        }
      ]
    },
    {
      "name": "Tabora Region",
      "state_code": "24",
      "latitude": "-5.03421380",
      "longitude": "32.80844960",
      "cities": [
        {
          "name": "Bukene",
          "latitude": "-4.23333000",
          "longitude": "32.88333000"
        },
        {
          "name": "Igurubi",
          "latitude": "-4.00000000",
          "longitude": "33.70000000"
        },
        {
          "name": "Kaliua",
          "latitude": "-5.06056000",
          "longitude": "31.79361000"
        },
        {
          "name": "Mabama",
          "latitude": "-5.13333000",
          "longitude": "32.53333000"
        },
        {
          "name": "Sikonge",
          "latitude": "-5.63333000",
          "longitude": "32.76667000"
        },
        {
          "name": "Tabora",
          "latitude": "-5.01622000",
          "longitude": "32.82663000"
        },
        {
          "name": "Tumbi",
          "latitude": "-5.06667000",
          "longitude": "32.73333000"
        },
        {
          "name": "Usoke",
          "latitude": "-5.16667000",
          "longitude": "32.35000000"
        }
      ]
    },
    {
      "name": "Tanga Region",
      "state_code": "25",
      "latitude": "-5.30497890",
      "longitude": "38.31657250",
      "cities": [
        {
          "name": "Chanika",
          "latitude": "-5.41667000",
          "longitude": "38.01667000"
        },
        {
          "name": "Lushoto",
          "latitude": "-4.78333000",
          "longitude": "38.28333000"
        },
        {
          "name": "Magomeni",
          "latitude": "-5.23333000",
          "longitude": "38.11667000"
        },
        {
          "name": "Majengo",
          "latitude": "-5.15000000",
          "longitude": "38.98333000"
        },
        {
          "name": "Makuyuni",
          "latitude": "-4.73333000",
          "longitude": "38.10000000"
        },
        {
          "name": "Maramba",
          "latitude": "-5.05000000",
          "longitude": "38.61667000"
        },
        {
          "name": "Matui",
          "latitude": "-4.80000000",
          "longitude": "38.25000000"
        },
        {
          "name": "Mazinde",
          "latitude": "-4.80000000",
          "longitude": "38.21667000"
        },
        {
          "name": "Mlalo",
          "latitude": "-4.93333000",
          "longitude": "38.93333000"
        },
        {
          "name": "Muheza",
          "latitude": "-5.16667000",
          "longitude": "38.78333000"
        },
        {
          "name": "Mwanga",
          "latitude": "-4.80000000",
          "longitude": "38.20000000"
        },
        {
          "name": "Pangani",
          "latitude": "-5.42526000",
          "longitude": "38.97473000"
        },
        {
          "name": "Soni",
          "latitude": "-4.85000000",
          "longitude": "38.36667000"
        },
        {
          "name": "Tanga",
          "latitude": "-5.06893000",
          "longitude": "39.09875000"
        }
      ]
    },
    {
      "name": "Zanzibar Central/South Region",
      "state_code": "11",
      "latitude": "-6.26428510",
      "longitude": "39.44502810",
      "cities": [
        {
          "name": "Koani",
          "latitude": "-6.13333000",
          "longitude": "39.28333000"
        },
        {
          "name": "Koani Ndogo",
          "latitude": "-6.13333000",
          "longitude": "39.28333000"
        },
        {
          "name": "Mahonda",
          "latitude": "-6.45000000",
          "longitude": "39.46667000"
        },
        {
          "name": "Nganane",
          "latitude": "-6.40000000",
          "longitude": "39.55000000"
        },
        {
          "name": "Sokoni",
          "latitude": "-6.43333000",
          "longitude": "39.55000000"
        }
      ]
    },
    {
      "name": "Zanzibar North Region",
      "state_code": "07",
      "latitude": "-5.93950930",
      "longitude": "39.27910110",
      "cities": [
        {
          "name": "Gamba",
          "latitude": "-5.90000000",
          "longitude": "39.30000000"
        },
        {
          "name": "Kijini",
          "latitude": "-5.85000000",
          "longitude": "39.31667000"
        },
        {
          "name": "Kiwengwa",
          "latitude": "-5.98957000",
          "longitude": "39.37680000"
        },
        {
          "name": "Mkokotoni",
          "latitude": "-5.87506000",
          "longitude": "39.25523000"
        },
        {
          "name": "Nungwi",
          "latitude": "-5.72651000",
          "longitude": "39.29870000"
        }
      ]
    },
    {
      "name": "Zanzibar Urban/West Region",
      "state_code": "15",
      "latitude": "-6.22981360",
      "longitude": "39.25832930",
      "cities": [
        {
          "name": "Zanzibar",
          "latitude": "-6.16394000",
          "longitude": "39.19793000"
        }
      ]
    }
  ]
}