{
  "code": "CI",
  "states": [
    {
      "name": "Abidjan",
      "state_code": "AB",
      "latitude": "5.35995170",
      "longitude": "-4.00825630",
      "cities": [
        {
          "name": "Abidjan",
          "latitude": "5.30966000",
          "longitude": "-4.01266000"
        },
        {
          "name": "Abobo",
          "latitude": "5.41613000",
          "longitude": "-4.01590000"
        },
        {
          "name": "Anyama",
          "latitude": "5.49462000",
          "longitude": "-4.05183000"
        },
        {
          "name": "Bingerville",
          "latitude": "5.35581000",
          "longitude": "-3.88537000"
        }
      ]
    },
    {
      "name": "Agnéby",
      "state_code": "16",
      "latitude": "5.32245030",
      "longitude": "-4.34495290",
      "cities": []
    },
    {
      "name": "Bafing Region",
      "state_code": "17",
      "latitude": "8.32520470",
      "longitude": "-7.52472430",
      "cities": []
    },
    {
      "name": "Bas-Sassandra District",
      "state_code": "BS",
      "latitude": "5.27983560",
      "longitude": "-6.15269850",
      "cities": [
        {
          "name": "Gbôklé",
          "latitude": "4.95712000",
          "longitude": "-6.09372000"
        },
        {
          "name": "Nawa",
          "latitude": "5.80112000",
          "longitude": "-6.60313000"
        },
        {
          "name": "San-Pédro",
          "latitude": "4.76768000",
          "longitude": "-6.65033000"
        },
        {
          "name": "Sassandra",
          "latitude": "4.95384000",
          "longitude": "-6.08531000"
        },
        {
          "name": "Tabou",
          "latitude": "4.42295000",
          "longitude": "-7.35280000"
        }
      ]
    },
    {
      "name": "Bas-Sassandra Region",
      "state_code": "09",
      "latitude": "5.35679160",
      "longitude": "-6.74939930",
      "cities": []
    },
    {
      "name": "Comoé District",
      "state_code": "CM",
      "latitude": "5.55279300",
      "longitude": "-3.25836260",
      "cities": [
        {
          "name": "Abengourou",
          "latitude": "6.72972000",
          "longitude": "-3.49639000"
        },
        {
          "name": "Aboisso",
          "latitude": "5.46779000",
          "longitude": "-3.20711000"
        },
        {
          "name": "Adiaké",
          "latitude": "5.28634000",
          "longitude": "-3.30403000"
        },
        {
          "name": "Agnibilékrou",
          "latitude": "7.13113000",
          "longitude": "-3.20415000"
        },
        {
          "name": "Ayamé",
          "latitude": "5.60520000",
          "longitude": "-3.15709000"
        },
        {
          "name": "Bonoua",
          "latitude": "5.27247000",
          "longitude": "-3.59625000"
        },
        {
          "name": "Grand-Bassam",
          "latitude": "5.21180000",
          "longitude": "-3.73884000"
        },
        {
          "name": "Indénié-Djuablin",
          "latitude": "6.74434000",
          "longitude": "-3.49400000"
        },
        {
          "name": "Sud-Comoé",
          "latitude": "5.49961000",
          "longitude": "-3.24080000"
        }
      ]
    },
    {
      "name": "Denguélé District",
      "state_code": "DN",
      "latitude": "48.07077630",
      "longitude": "-68.56093410",
      "cities": [
        {
          "name": "Folon",
          "latitude": "9.81241000",
          "longitude": "-7.51894000"
        },
        {
          "name": "Kabadougou",
          "latitude": "9.60571000",
          "longitude": "-7.43774000"
        },
        {
          "name": "Odienné",
          "latitude": "9.50511000",
          "longitude": "-7.56433000"
        }
      ]
    },
    {
      "name": "Denguélé Region",
      "state_code": "10",
      "latitude": "9.46623720",
      "longitude": "-7.43813550",
      "cities": []
    },
    {
      "name": "Dix-Huit Montagnes",
      "state_code": "06",
      "latitude": "7.37623730",
      "longitude": "-7.43813550",
      "cities": [
        {
          "name": "Bangolo",
          "latitude": "7.01232000",
          "longitude": "-7.48639000"
        },
        {
          "name": "Biankouma",
          "latitude": "7.73909000",
          "longitude": "-7.61377000"
        },
        {
          "name": "Cavally",
          "latitude": "6.56343000",
          "longitude": "-7.92526000"
        },
        {
          "name": "Danané",
          "latitude": "7.25957000",
          "longitude": "-8.15498000"
        },
        {
          "name": "Duekoué",
          "latitude": "6.74202000",
          "longitude": "-7.34918000"
        },
        {
          "name": "Guémon",
          "latitude": "7.09300000",
          "longitude": "-7.17785000"
        },
        {
          "name": "Guiglo",
          "latitude": "6.54368000",
          "longitude": "-7.49350000"
        },
        {
          "name": "Man",
          "latitude": "7.41251000",
          "longitude": "-7.55383000"
        },
        {
          "name": "Tonkpi",
          "latitude": "7.56785000",
          "longitude": "-7.60941000"
        },
        {
          "name": "Toulépleu Gueré",
          "latitude": "6.57395000",
          "longitude": "-8.42592000"
        }
      ]
    },
    {
      "name": "Fromager",
      "state_code": "18",
      "latitude": "45.54502130",
      "longitude": "-73.60462230",
      "cities": []
    },
    {
      "name": "Gôh-Djiboua District",
      "state_code": "GD",
      "latitude": "5.87113930",
      "longitude": "-5.56172790",
      "cities": [
        {
          "name": "Divo",
          "latitude": "5.83739000",
          "longitude": "-5.35723000"
        },
        {
          "name": "Gagnoa",
          "latitude": "6.13193000",
          "longitude": "-5.95060000"
        },
        {
          "name": "Gôh",
          "latitude": "6.14459000",
          "longitude": "-5.92644000"
        },
        {
          "name": "Guibéroua",
          "latitude": "6.23869000",
          "longitude": "-6.17147000"
        },
        {
          "name": "Lakota",
          "latitude": "5.84752000",
          "longitude": "-5.68200000"
        },
        {
          "name": "Lôh-Djiboua",
          "latitude": "5.82483000",
          "longitude": "-5.47668000"
        },
        {
          "name": "Oumé",
          "latitude": "6.38309000",
          "longitude": "-5.41759000"
        }
      ]
    },
    {
      "name": "Haut-Sassandra",
      "state_code": "02",
      "latitude": "6.87578480",
      "longitude": "-6.57833870",
      "cities": []
    },
    {
      "name": "Lacs District",
      "state_code": "LC",
      "latitude": "48.19801690",
      "longitude": "-80.45644120",
      "cities": []
    },
    {
      "name": "Lacs Region",
      "state_code": "07",
      "latitude": "47.73958660",
      "longitude": "-70.41866520",
      "cities": [
        {
          "name": "Arrah",
          "latitude": "6.67342000",
          "longitude": "-3.96938000"
        },
        {
          "name": "Bélier",
          "latitude": "7.02582000",
          "longitude": "-5.06744000"
        },
        {
          "name": "Bocanda",
          "latitude": "7.06264000",
          "longitude": "-4.49948000"
        },
        {
          "name": "Bongouanou",
          "latitude": "6.65175000",
          "longitude": "-4.20406000"
        },
        {
          "name": "Daoukro",
          "latitude": "7.05910000",
          "longitude": "-3.96310000"
        },
        {
          "name": "Dimbokro",
          "latitude": "6.64678000",
          "longitude": "-4.70519000"
        },
        {
          "name": "Iffou",
          "latitude": "7.11509000",
          "longitude": "-3.95027000"
        },
        {
          "name": "Moronou",
          "latitude": "6.66830000",
          "longitude": "-4.13155000"
        },
        {
          "name": "N'Zi",
          "latitude": "6.82803000",
          "longitude": "-4.58130000"
        },
        {
          "name": "Toumodi",
          "latitude": "6.55799000",
          "longitude": "-5.01769000"
        },
        {
          "name": "Yamoussoukro",
          "latitude": "6.82055000",
          "longitude": "-5.27674000"
        }
      ]
    },
    {
      "name": "Lagunes District",
      "state_code": "LG",
      "latitude": "5.88273340",
      "longitude": "-4.23333550",
      "cities": []
    },
    {
      "name": "Lagunes region",
      "state_code": "01",
      "latitude": "5.88273340",
      "longitude": "-4.23333550",
      "cities": [
        {
          "name": "Adzopé",
          "latitude": "6.10694000",
          "longitude": "-3.86194000"
        },
        {
          "name": "Affery",
          "latitude": "6.32035000",
          "longitude": "-3.95235000"
        },
        {
          "name": "Agboville",
          "latitude": "5.92801000",
          "longitude": "-4.21319000"
        },
        {
          "name": "Agnéby-Tiassa",
          "latitude": "5.79488000",
          "longitude": "-4.37187000"
        },
        {
          "name": "Akoupé",
          "latitude": "6.38423000",
          "longitude": "-3.88759000"
        },
        {
          "name": "Dabou",
          "latitude": "5.32556000",
          "longitude": "-4.37685000"
        },
        {
          "name": "Grand-Lahou",
          "latitude": "5.25068000",
          "longitude": "-5.00333000"
        },
        {
          "name": "Grands-Ponts",
          "latitude": "5.30487000",
          "longitude": "-4.39247000"
        },
        {
          "name": "Tiassalé",
          "latitude": "5.89839000",
          "longitude": "-4.82293000"
        }
      ]
    },
    {
      "name": "Marahoué Region",
      "state_code": "12",
      "latitude": "6.88462070",
      "longitude": "-5.89871390",
      "cities": []
    },
    {
      "name": "Montagnes District",
      "state_code": "MG",
      "latitude": "7.37623730",
      "longitude": "-7.43813550",
      "cities": []
    },
    {
      "name": "Moyen-Cavally",
      "state_code": "19",
      "latitude": "6.52087930",
      "longitude": "-7.61142170",
      "cities": []
    },
    {
      "name": "Moyen-Comoé",
      "state_code": "05",
      "latitude": "6.65149170",
      "longitude": "-3.50034540",
      "cities": []
    },
    {
      "name": "N'zi-Comoé",
      "state_code": "11",
      "latitude": "7.24567490",
      "longitude": "-4.23333550",
      "cities": []
    },
    {
      "name": "Sassandra-Marahoué District",
      "state_code": "SM",
      "latitude": "6.88033480",
      "longitude": "-6.23759470",
      "cities": [
        {
          "name": "Bouaflé",
          "latitude": "6.99041000",
          "longitude": "-5.74420000"
        },
        {
          "name": "Daloa",
          "latitude": "6.87735000",
          "longitude": "-6.45022000"
        },
        {
          "name": "Haut-Sassandra",
          "latitude": "6.66961000",
          "longitude": "-6.50116000"
        },
        {
          "name": "Issia",
          "latitude": "6.49224000",
          "longitude": "-6.58558000"
        },
        {
          "name": "Marahoué",
          "latitude": "7.03252000",
          "longitude": "-5.80215000"
        },
        {
          "name": "Vavoua",
          "latitude": "7.38194000",
          "longitude": "-6.47778000"
        },
        {
          "name": "Zuénoula",
          "latitude": "7.43027000",
          "longitude": "-6.05054000"
        }
      ]
    },
    {
      "name": "Savanes Region",
      "state_code": "03",
      "latitude": null,
      "longitude": null,
      "cities": []
    },
    {
      "name": "Sud-Bandama",
      "state_code": "15",
      "latitude": "5.53570830",
      "longitude": "-5.56172790",
      "cities": []
    },
    {
      "name": "Sud-Comoé",
      "state_code": "13",
      "latitude": "5.55279300",
      "longitude": "-3.25836260",
      "cities": []
    },
    {
      "name": "Vallée du Bandama District",
      "state_code": "VB",
      "latitude": "8.27897800",
      "longitude": "-4.89356270",
      "cities": []
    },
    {
      "name": "Vallée du Bandama Region",
      "state_code": "04",
      "latitude": "8.27897800",
      "longitude": "-4.89356270",
      "cities": [
        {
          "name": "Béoumi",
          "latitude": "7.67395000",
          "longitude": "-5.58085000"
        },
        {
          "name": "Botro",
          "latitude": "7.85249000",
          "longitude": "-5.31063000"
        },
        {
          "name": "Bouaké",
          "latitude": "7.69385000",
          "longitude": "-5.03031000"
        },
        {
          "name": "Dabakala",
          "latitude": "8.36321000",
          "longitude": "-4.42863000"
        },
        {
          "name": "Gbêkê",
          "latitude": "7.70271000",
          "longitude": "-5.28511000"
        },
        {
          "name": "Hambol",
          "latitude": "8.30368000",
          "longitude": "-5.15396000"
        },
        {
          "name": "Katiola",
          "latitude": "8.13728000",
          "longitude": "-5.10095000"
        },
        {
          "name": "Sakassou",
          "latitude": "7.45462000",
          "longitude": "-5.29263000"
        }
      ]
    },
    {
      "name": "Woroba District",
      "state_code": "WR",
      "latitude": "8.24913720",
      "longitude": "-6.92091350",
      "cities": [
        {
          "name": "Bafing",
          "latitude": "8.40611000",
          "longitude": "-7.58048000"
        },
        {
          "name": "Béré",
          "latitude": "8.18952000",
          "longitude": "-6.17157000"
        },
        {
          "name": "Mankono",
          "latitude": "8.05861000",
          "longitude": "-6.18972000"
        },
        {
          "name": "Séguéla",
          "latitude": "7.96111000",
          "longitude": "-6.67306000"
        },
        {
          "name": "Touba",
          "latitude": "8.28333000",
          "longitude": "-7.68333000"
        },
        {
          "name": "Worodougou",
          "latitude": "8.16482000",
          "longitude": "-6.66595000"
        }
      ]
    },
    {
      "name": "Worodougou",
      "state_code": "14",
      "latitude": "8.25489620",
      "longitude": "-6.57833870",
      "cities": []
    },
    {
      "name": "Yamoussoukro",
      "state_code": "YM",
      "latitude": "6.82762280",
      "longitude": "-5.28934330",
      "cities": []
    },
    {
      "name": "Zanzan Region",
      "state_code": "ZZ",
      "latitude": "8.82079040",
      "longitude": "-3.41955270",
      "cities": [
        {
          "name": "Bondoukou",
          "latitude": "8.04020000",
          "longitude": "-2.80003000"
        },
        {
          "name": "Bouna",
          "latitude": "9.26927000",
          "longitude": "-2.99510000"
        },
        {
          "name": "Bounkani",
          "latitude": "9.47841000",
          "longitude": "-3.31238000"
        },
        {
          "name": "Gontougo",
          "latitude": "7.87132000",
          "longitude": "-3.07068000"
        },
        {
          "name": "Sinfra",
          "latitude": "6.62103000",
          "longitude": "-5.91144000"
        },
        {
          "name": "Tanda",
          "latitude": "7.80335000",
          "longitude": "-3.16832000"
        }
      ]
    }
  ]
}