{"code":"CM","states":[{"name":"Adamawa","state_code":"AD","latitude":"9.32647510","longitude":"12.39838530","cities":[{"name":"Bankim","latitude":"6.08303000","longitude":"11.49050000"},{"name":"Banyo","latitude":"6.75000000","longitude":"11.81667000"},{"name":"Bélel","latitude":"7.05000000","longitude":"14.43333000"},{"name":"Djohong","latitude":"6.83333000","longitude":"14.70000000"},{"name":"Kontcha","latitude":"7.96667000","longitude":"12.23333000"},{"name":"Mayo-Banyo","latitude":"6.58138000","longitude":"11.73522000"},{"name":"Meïganga","latitude":"6.51667000","longitude":"14.30000000"},{"name":"Ngaoundéré","latitude":"7.32765000","longitude":"13.58472000"},{"name":"Somié","latitude":"6.45843000","longitude":"11.43299000"},{"name":"Tibati","latitude":"6.46504000","longitude":"12.62843000"},{"name":"Tignère","latitude":"7.36667000","longitude":"12.65000000"},{"name":"Vina","latitude":"7.16365000","longitude":"13.72711000"}]},{"name":"Centre","state_code":"CE","latitude":null,"longitude":null,"cities":[{"name":"Akono","latitude":"3.50000000","longitude":"11.33333000"},{"name":"Akonolinga","latitude":"3.76667000","longitude":"12.25000000"},{"name":"Bafia","latitude":"4.75000000","longitude":"11.23333000"},{"name":"Eséka","latitude":"3.65000000","longitude":"10.76667000"},{"name":"Essé","latitude":"4.10000000","longitude":"11.90000000"},{"name":"Évodoula","latitude":"4.08333000","longitude":"11.20000000"},{"name":"Mbalmayo","latitude":"3.51667000","longitude":"11.50000000"},{"name":"Mbam-Et-Inoubou","latitude":"4.73754000","longitude":"10.96972000"},{"name":"Mbandjok","latitude":"4.45000000","longitude":"11.90000000"},{"name":"Mbankomo","latitude":"3.78333000","longitude":"11.38333000"},{"name":"Mefou-et-Akono","latitude":"3.58706000","longitude":"11.36089000"},{"name":"Mfoundi","latitude":"3.86670000","longitude":"11.51670000"},{"name":"Minta","latitude":"4.58333000","longitude":"12.80000000"},{"name":"Nanga Eboko","latitude":"4.68333000","longitude":"12.36667000"},{"name":"Ndikiniméki","latitude":"4.76667000","longitude":"10.83333000"},{"name":"Ngomedzap","latitude":"3.25000000","longitude":"11.20000000"},{"name":"Ngoro","latitude":"4.95000000","longitude":"11.38333000"},{"name":"Nkoteng","latitude":"4.51667000","longitude":"12.03333000"},{"name":"Ntui","latitude":"4.45000000","longitude":"11.63333000"},{"name":"Obala","latitude":"4.16667000","longitude":"11.53333000"},{"name":"Okoa","latitude":"3.98333000","longitude":"11.60000000"},{"name":"Okola","latitude":"4.01667000","longitude":"11.38333000"},{"name":"Ombésa","latitude":"4.60000000","longitude":"11.25000000"},{"name":"Saa","latitude":"4.36667000","longitude":"11.45000000"},{"name":"Yaoundé","latitude":"3.86667000","longitude":"11.51667000"},{"name":"Yoko","latitude":"5.53333000","longitude":"12.31667000"}]},{"name":"East","state_code":"ES","latitude":"39.01853360","longitude":"-94.27924110","cities":[{"name":"Abong Mbang","latitude":"3.98333000","longitude":"13.18333000"},{"name":"Batouri","latitude":"4.43333000","longitude":"14.36667000"},{"name":"Bélabo","latitude":"4.93333000","longitude":"13.30000000"},{"name":"Bertoua","latitude":"4.57728000","longitude":"13.68459000"},{"name":"Bétaré Oya","latitude":"5.60000000","longitude":"14.08333000"},{"name":"Dimako","latitude":"4.38333000","longitude":"13.56667000"},{"name":"Doumé","latitude":"4.23333000","longitude":"13.45000000"},{"name":"Garoua Boulaï","latitude":"5.88333000","longitude":"14.55000000"},{"name":"Mbang","latitude":"4.58333000","longitude":"13.33333000"},{"name":"Ndelele","latitude":"4.04065000","longitude":"14.92501000"},{"name":"Yokadouma","latitude":"3.51667000","longitude":"15.05000000"}]},{"name":"Far North","state_code":"EN","latitude":"66.76134510","longitude":"124.12375300","cities":[{"name":"Bogo","latitude":"10.73360000","longitude":"14.60928000"},{"name":"Kaélé","latitude":"10.10917000","longitude":"14.45083000"},{"name":"Kousséri","latitude":"12.07689000","longitude":"15.03063000"},{"name":"Koza","latitude":"10.86846000","longitude":"13.88205000"},{"name":"Makary","latitude":"12.57535000","longitude":"14.45483000"},{"name":"Maroua","latitude":"10.59095000","longitude":"14.31593000"},{"name":"Mayo-Sava","latitude":"11.10682000","longitude":"14.20560000"},{"name":"Mayo-Tsanaga","latitude":"10.58221000","longitude":"13.79351000"},{"name":"Mindif","latitude":"10.39757000","longitude":"14.43626000"},{"name":"Mokolo","latitude":"10.74244000","longitude":"13.80227000"},{"name":"Mora","latitude":"11.04611000","longitude":"14.14011000"},{"name":"Yagoua","latitude":"10.34107000","longitude":"15.23288000"}]},{"name":"Littoral","state_code":"LT","latitude":"48.46227570","longitude":"-68.51780710","cities":[{"name":"Bonabéri","latitude":"4.07142000","longitude":"9.68177000"},{"name":"Diang","latitude":"4.25000000","longitude":"10.01667000"},{"name":"Dibombari","latitude":"4.17870000","longitude":"9.65610000"},{"name":"Dizangué","latitude":"3.76667000","longitude":"9.98333000"},{"name":"Douala","latitude":"4.04827000","longitude":"9.70428000"},{"name":"Edéa","latitude":"3.80000000","longitude":"10.13333000"},{"name":"Loum","latitude":"4.71820000","longitude":"9.73510000"},{"name":"Manjo","latitude":"4.84280000","longitude":"9.82170000"},{"name":"Mbanga","latitude":"4.50160000","longitude":"9.56710000"},{"name":"Melong","latitude":"5.12181000","longitude":"9.96143000"},{"name":"Mouanko","latitude":"3.63972000","longitude":"9.77694000"},{"name":"Ndom","latitude":"4.49780000","longitude":"9.56280000"},{"name":"Ngambé","latitude":"4.23343000","longitude":"10.61532000"},{"name":"Nkongsamba","latitude":"4.95470000","longitude":"9.94040000"},{"name":"Penja","latitude":"4.63911000","longitude":"9.67987000"},{"name":"Yabassi","latitude":"4.45697000","longitude":"9.96822000"}]},{"name":"North","state_code":"NO","latitude":"37.09024000","longitude":"-95.71289100","cities":[{"name":"Faro Department","latitude":"8.25014000","longitude":"12.87829000"},{"name":"Garoua","latitude":"9.30143000","longitude":"13.39771000"},{"name":"Guider","latitude":"9.93330000","longitude":"13.94671000"},{"name":"Lagdo","latitude":"9.05828000","longitude":"13.66605000"},{"name":"Mayo-Louti","latitude":"9.96577000","longitude":"13.72738000"},{"name":"Mayo-Rey","latitude":"8.12630000","longitude":"14.61456000"},{"name":"Pitoa","latitude":"9.38390000","longitude":"13.50231000"},{"name":"Poli","latitude":"8.47560000","longitude":"13.24097000"},{"name":"Rey Bouba","latitude":"8.67240000","longitude":"14.17860000"},{"name":"Tcholliré","latitude":"8.40220000","longitude":"14.16980000"}]},{"name":"Northwest","state_code":"NW","latitude":"36.37118570","longitude":"-94.19346060","cities":[{"name":"Babanki","latitude":"6.11667000","longitude":"10.25000000"},{"name":"Bali","latitude":"5.88737000","longitude":"10.01176000"},{"name":"Bamenda","latitude":"5.95970000","longitude":"10.14597000"},{"name":"Batibo","latitude":"5.83580000","longitude":"9.85530000"},{"name":"Belo","latitude":"6.13333000","longitude":"10.25000000"},{"name":"Boyo","latitude":"6.36365000","longitude":"10.35540000"},{"name":"Fundong","latitude":"6.25000000","longitude":"10.26667000"},{"name":"Jakiri","latitude":"6.10000000","longitude":"10.65000000"},{"name":"Kumbo","latitude":"6.20000000","longitude":"10.66667000"},{"name":"Mbengwi","latitude":"6.01667000","longitude":"10.00000000"},{"name":"Mme-Bafumen","latitude":"6.33333000","longitude":"10.23333000"},{"name":"Njinikom","latitude":"6.23333000","longitude":"10.28333000"},{"name":"Wum","latitude":"6.38333000","longitude":"10.06667000"}]},{"name":"South","state_code":"SU","latitude":"37.63159500","longitude":"-97.34584090","cities":[{"name":"Akom II","latitude":"2.78333000","longitude":"10.56667000"},{"name":"Ambam","latitude":"2.38333000","longitude":"11.28333000"},{"name":"Ébolowa","latitude":"2.90000000","longitude":"11.15000000"},{"name":"Kribi","latitude":"2.93725000","longitude":"9.90765000"},{"name":"Lolodorf","latitude":"3.23333000","longitude":"10.73333000"},{"name":"Mvangué","latitude":"2.96667000","longitude":"11.51667000"},{"name":"Mvila","latitude":"2.79796000","longitude":"11.39434000"},{"name":"Sangmélima","latitude":"2.93333000","longitude":"11.98333000"}]},{"name":"Southwest","state_code":"SW","latitude":"36.19088130","longitude":"-95.88974480","cities":[{"name":"Bamusso","latitude":"4.45910000","longitude":"8.90270000"},{"name":"Bekondo","latitude":"4.68190000","longitude":"9.32140000"},{"name":"Buea","latitude":"4.15342000","longitude":"9.24231000"},{"name":"Fako Division","latitude":"4.16667000","longitude":"9.16667000"},{"name":"Fontem","latitude":"5.46850000","longitude":"9.88180000"},{"name":"Kumba","latitude":"4.63630000","longitude":"9.44690000"},{"name":"Lebialem","latitude":"5.56043000","longitude":"9.92316000"},{"name":"Limbe","latitude":"4.02356000","longitude":"9.20607000"},{"name":"Mamfe","latitude":"5.75132000","longitude":"9.31370000"},{"name":"Mundemba","latitude":"4.94790000","longitude":"8.87240000"},{"name":"Mutengene","latitude":"4.09130000","longitude":"9.31440000"},{"name":"Muyuka","latitude":"4.28980000","longitude":"9.41030000"},{"name":"Nguti","latitude":"5.32990000","longitude":"9.41850000"},{"name":"Tiko","latitude":"4.07500000","longitude":"9.36005000"}]},{"name":"West","state_code":"OU","latitude":"37.03649890","longitude":"-95.67059870","cities":[{"name":"Bafang","latitude":"5.15705000","longitude":"10.17710000"},{"name":"Bafoussam","latitude":"5.47775000","longitude":"10.41759000"},{"name":"Bamendjou","latitude":"5.38988000","longitude":"10.33014000"},{"name":"Bana","latitude":"5.14655000","longitude":"10.27545000"},{"name":"Bandjoun","latitude":"5.37568000","longitude":"10.41326000"},{"name":"Bangangté","latitude":"5.14079000","longitude":"10.52535000"},{"name":"Bansoa","latitude":"5.44836000","longitude":"10.31355000"},{"name":"Bazou","latitude":"5.06001000","longitude":"10.46751000"},{"name":"Dschang","latitude":"5.44397000","longitude":"10.05332000"},{"name":"Foumban","latitude":"5.72662000","longitude":"10.89865000"},{"name":"Foumbot","latitude":"5.50803000","longitude":"10.63250000"},{"name":"Hauts-Plateaux","latitude":"5.29632000","longitude":"10.34314000"},{"name":"Koung-Khi","latitude":"5.33848000","longitude":"10.47453000"},{"name":"Mbouda","latitude":"5.62611000","longitude":"10.25421000"},{"name":"Ngou","latitude":"5.19685000","longitude":"10.38595000"},{"name":"Noun","latitude":"5.64123000","longitude":"10.91840000"},{"name":"Tonga","latitude":"4.96667000","longitude":"10.70000000"}]}]}