{"code":"CR","states":[{"name":"Alajuela Province","state_code":"A","latitude":"10.39158300","longitude":"-84.43827210","cities":[{"name":"Alajuela","latitude":"10.01625000","longitude":"-84.21163000"},{"name":"Atenas","latitude":"9.98333000","longitude":"-84.38333000"},{"name":"Bijagua","latitude":"10.73279000","longitude":"-85.05676000"},{"name":"Carrillos","latitude":"10.02918000","longitude":"-84.27403000"},{"name":"Desamparados","latitude":"9.94727000","longitude":"-84.50626000"},{"name":"Esquipulas","latitude":"10.05676000","longitude":"-84.42337000"},{"name":"Grecia","latitude":"10.06892000","longitude":"-84.31458000"},{"name":"Guatuso","latitude":"10.66667000","longitude":"-84.83333000"},{"name":"La Fortuna","latitude":"10.47089000","longitude":"-84.64535000"},{"name":"Los Chiles","latitude":"10.86667000","longitude":"-84.66667000"},{"name":"Naranjo","latitude":"10.11667000","longitude":"-84.40000000"},{"name":"Orotina","latitude":"9.90000000","longitude":"-84.56667000"},{"name":"Palmares","latitude":"10.03333000","longitude":"-84.43333000"},{"name":"Pital","latitude":"10.45056000","longitude":"-84.27406000"},{"name":"Poás","latitude":"10.08333000","longitude":"-84.23333000"},{"name":"Pocosol","latitude":"10.36667000","longitude":"-84.61667000"},{"name":"Quesada","latitude":"10.32381000","longitude":"-84.42714000"},{"name":"Río Segundo","latitude":"10.24138000","longitude":"-84.27933000"},{"name":"Sabanilla","latitude":"10.07404000","longitude":"-84.21551000"},{"name":"San Carlos","latitude":"10.58333000","longitude":"-84.41667000"},{"name":"San José","latitude":"10.95173000","longitude":"-85.13610000"},{"name":"San Juan","latitude":"10.10248000","longitude":"-84.31694000"},{"name":"San Mateo","latitude":"9.95000000","longitude":"-84.51667000"},{"name":"San Rafael","latitude":"10.06403000","longitude":"-84.47281000"},{"name":"San Ramón","latitude":"10.08718000","longitude":"-84.47044000"},{"name":"Santiago","latitude":"10.02275000","longitude":"-84.44420000"},{"name":"Upala","latitude":"10.85000000","longitude":"-85.16667000"},{"name":"Valverde Vega","latitude":"10.18721000","longitude":"-84.30290000"},{"name":"Zarcero","latitude":"10.20000000","longitude":"-84.40000000"}]},{"name":"Guanacaste Province","state_code":"G","latitude":"10.62673990","longitude":"-85.44367060","cities":[{"name":"Abangares","latitude":"10.21667000","longitude":"-85.00000000"},{"name":"Bagaces","latitude":"10.50000000","longitude":"-85.25000000"},{"name":"Belén","latitude":"10.40789000","longitude":"-85.58836000"},{"name":"Cañas","latitude":"10.48005000","longitude":"-85.11349000"},{"name":"Carrillo","latitude":"10.41667000","longitude":"-85.58333000"},{"name":"Fortuna","latitude":"10.67384000","longitude":"-85.19984000"},{"name":"Hojancha","latitude":"9.96667000","longitude":"-85.41667000"},{"name":"Juntas","latitude":"10.28089000","longitude":"-84.95951000"},{"name":"La Cruz","latitude":"11.00000000","longitude":"-85.58333000"},{"name":"Liberia","latitude":"10.63504000","longitude":"-85.43772000"},{"name":"Nandayure","latitude":"9.91667000","longitude":"-85.28333000"},{"name":"Nicoya","latitude":"10.08333000","longitude":"-85.50000000"},{"name":"Sámara","latitude":"9.88147000","longitude":"-85.52809000"},{"name":"Santa Cruz","latitude":"10.25000000","longitude":"-85.66667000"},{"name":"Sardinal","latitude":"10.51674000","longitude":"-85.64748000"},{"name":"Tilarán","latitude":"10.45878000","longitude":"-84.97513000"}]},{"name":"Heredia Province","state_code":"H","latitude":"10.47352300","longitude":"-84.01674230","cities":[{"name":"Ángeles","latitude":"9.99591000","longitude":"-84.05126000"},{"name":"Barva","latitude":"10.08333000","longitude":"-84.10000000"},{"name":"Belén","latitude":"9.98333000","longitude":"-84.16667000"},{"name":"Flores","latitude":"10.00000000","longitude":"-84.15000000"},{"name":"Heredia","latitude":"10.00236000","longitude":"-84.11651000"},{"name":"La Asunción","latitude":"9.97961000","longitude":"-84.17281000"},{"name":"Llorente","latitude":"9.99844000","longitude":"-84.15448000"},{"name":"Mercedes","latitude":"10.00695000","longitude":"-84.13396000"},{"name":"San Antonio","latitude":"9.98333000","longitude":"-84.18333000"},{"name":"San Francisco","latitude":"9.99299000","longitude":"-84.12934000"},{"name":"San Isidro","latitude":"10.03333000","longitude":"-84.03333000"},{"name":"San Josecito","latitude":"10.01667000","longitude":"-84.10000000"},{"name":"San Pablo","latitude":"10.00000000","longitude":"-84.08333000"},{"name":"San Rafael","latitude":"10.05000000","longitude":"-84.06667000"},{"name":"Santa Bárbara","latitude":"10.08333000","longitude":"-84.15000000"},{"name":"Santo Domingo","latitude":"10.06389000","longitude":"-84.15499000"},{"name":"Sarapiquí","latitude":"10.50000000","longitude":"-84.00000000"}]},{"name":"Limón Province","state_code":"L","latitude":"9.98963980","longitude":"-83.03324170","cities":[{"name":"Batán","latitude":"10.08354000","longitude":"-83.33413000"},{"name":"Guácimo","latitude":"10.20000000","longitude":"-83.66667000"},{"name":"Guápiles","latitude":"10.21682000","longitude":"-83.78483000"},{"name":"Limón","latitude":"9.99074000","longitude":"-83.03596000"},{"name":"Matina","latitude":"10.00000000","longitude":"-83.25000000"},{"name":"Pococí","latitude":"10.50000000","longitude":"-83.63333000"},{"name":"Pocora","latitude":"10.17185000","longitude":"-83.60439000"},{"name":"Roxana","latitude":"10.26712000","longitude":"-83.75110000"},{"name":"Siquirres","latitude":"10.11667000","longitude":"-83.50000000"},{"name":"Sixaola","latitude":"9.52766000","longitude":"-82.62185000"},{"name":"Talamanca","latitude":"9.50000000","longitude":"-83.08333000"}]},{"name":"Provincia de Cartago","state_code":"C","latitude":"9.86223110","longitude":"-83.92141870","cities":[{"name":"Alvarado","latitude":"9.93333000","longitude":"-83.80000000"},{"name":"Cartago","latitude":"9.86444000","longitude":"-83.91944000"},{"name":"Concepción","latitude":"9.93333000","longitude":"-84.00000000"},{"name":"Cot","latitude":"9.89449000","longitude":"-83.87302000"},{"name":"El Guarco","latitude":"9.75000000","longitude":"-83.91667000"},{"name":"Jiménez","latitude":"9.75000000","longitude":"-83.68333000"},{"name":"La Suiza","latitude":"9.85065000","longitude":"-83.61690000"},{"name":"La Unión","latitude":"9.91667000","longitude":"-83.98333000"},{"name":"Oreamuno","latitude":"10.00000000","longitude":"-83.83333000"},{"name":"Orosí","latitude":"9.79617000","longitude":"-83.85383000"},{"name":"Pacayas","latitude":"9.80709000","longitude":"-84.04764000"},{"name":"Paraíso","latitude":"9.75000000","longitude":"-83.80000000"},{"name":"Pejibaye","latitude":"9.81135000","longitude":"-83.70336000"},{"name":"San Diego","latitude":"9.89898000","longitude":"-84.00287000"},{"name":"Tobosi","latitude":"9.83837000","longitude":"-83.98391000"},{"name":"Tres Ríos","latitude":"9.90644000","longitude":"-83.98760000"},{"name":"Tucurrique","latitude":"9.85336000","longitude":"-83.72273000"},{"name":"Turrialba","latitude":"9.80000000","longitude":"-83.53333000"}]},{"name":"Puntarenas Province","state_code":"P","latitude":"9.21695310","longitude":"-83.33618800","cities":[{"name":"Buenos Aires","latitude":"9.11667000","longitude":"-83.25000000"},{"name":"Canoas","latitude":"8.53305000","longitude":"-82.83844000"},{"name":"Chacarita","latitude":"9.98424000","longitude":"-84.77892000"},{"name":"Ciudad Cortés","latitude":"8.95988000","longitude":"-83.52381000"},{"name":"Corredor","latitude":"8.64002000","longitude":"-82.94600000"},{"name":"Corredores","latitude":"8.58333000","longitude":"-82.91667000"},{"name":"Coto Brus","latitude":"8.88333000","longitude":"-82.96667000"},{"name":"Esparza","latitude":"10.00000000","longitude":"-84.66667000"},{"name":"Garabito","latitude":"9.61903000","longitude":"-84.62013000"},{"name":"Golfito","latitude":"8.60000000","longitude":"-83.12000000"},{"name":"Jacó","latitude":"9.61497000","longitude":"-84.62975000"},{"name":"Miramar","latitude":"10.09250000","longitude":"-84.72978000"},{"name":"Montes de Oro","latitude":"10.10000000","longitude":"-84.75000000"},{"name":"Osa","latitude":"8.83333000","longitude":"-83.50000000"},{"name":"Paquera","latitude":"9.82005000","longitude":"-84.93513000"},{"name":"Parrita","latitude":"9.55000000","longitude":"-84.33333000"},{"name":"Puntarenas","latitude":"9.97625000","longitude":"-84.83836000"},{"name":"Quepos","latitude":"9.43187000","longitude":"-84.16141000"},{"name":"San Vito","latitude":"8.82079000","longitude":"-82.97092000"}]},{"name":"San José Province","state_code":"SJ","latitude":"9.91297270","longitude":"-84.07682940","cities":[{"name":"Acosta","latitude":"9.80000000","longitude":"-84.20000000"},{"name":"Alajuelita","latitude":"9.90000000","longitude":"-84.10000000"},{"name":"Aserrí","latitude":"9.86667000","longitude":"-84.10000000"},{"name":"Calle Blancos","latitude":"9.95000000","longitude":"-84.06667000"},{"name":"Colima","latitude":"9.95091000","longitude":"-84.08503000"},{"name":"Colón","latitude":"9.91491000","longitude":"-84.24170000"},{"name":"Curridabat","latitude":"9.91667000","longitude":"-84.03333000"},{"name":"Daniel Flores","latitude":"9.33554000","longitude":"-83.66940000"},{"name":"Desamparados","latitude":"9.90000000","longitude":"-84.06667000"},{"name":"Dota","latitude":"9.65000000","longitude":"-83.95000000"},{"name":"Escazú","latitude":"9.93333000","longitude":"-84.13333000"},{"name":"Goicoechea","latitude":"9.94848000","longitude":"-84.06365000"},{"name":"Granadilla","latitude":"9.93491000","longitude":"-84.01688000"},{"name":"Guadalupe","latitude":"9.94805000","longitude":"-84.05665000"},{"name":"Ipís","latitude":"9.96745000","longitude":"-84.01326000"},{"name":"León Cortés","latitude":"9.68300000","longitude":"-84.04781000"},{"name":"Mercedes","latitude":"9.26270000","longitude":"-83.58202000"},{"name":"Montes de Oca","latitude":"9.93960000","longitude":"-84.03013000"},{"name":"Mora","latitude":"9.91667000","longitude":"-84.25000000"},{"name":"Moravia","latitude":"10.04000000","longitude":"-84.00000000"},{"name":"Palmichal","latitude":"9.83778000","longitude":"-84.20478000"},{"name":"Patarrá","latitude":"9.88071000","longitude":"-84.03501000"},{"name":"Pérez Zeledón","latitude":"9.35473000","longitude":"-83.63484000"},{"name":"Puriscal","latitude":"9.75000000","longitude":"-84.41667000"},{"name":"Purral","latitude":"9.95808000","longitude":"-84.03050000"},{"name":"Sabanilla","latitude":"9.94522000","longitude":"-84.03927000"},{"name":"Salitral","latitude":"9.91163000","longitude":"-84.17835000"},{"name":"Salitrillos","latitude":"9.85259000","longitude":"-84.09062000"},{"name":"San Felipe","latitude":"9.90488000","longitude":"-84.10551000"},{"name":"San Ignacio","latitude":"9.79853000","longitude":"-84.16173000"},{"name":"San Isidro","latitude":"9.36740000","longitude":"-83.69713000"},{"name":"San José","latitude":"9.93333000","longitude":"-84.08333000"},{"name":"San Juan","latitude":"9.95974000","longitude":"-84.08165000"},{"name":"San Juan de Dios","latitude":"9.87730000","longitude":"-84.08470000"},{"name":"San Marcos","latitude":"9.66010000","longitude":"-84.02026000"},{"name":"San Miguel","latitude":"9.87121000","longitude":"-84.06084000"},{"name":"San Pedro","latitude":"9.92829000","longitude":"-84.05074000"},{"name":"San Rafael","latitude":"9.92787000","longitude":"-84.13722000"},{"name":"San Rafael Abajo","latitude":"9.83100000","longitude":"-84.29008000"},{"name":"San Rafael Arriba","latitude":"9.87556000","longitude":"-84.07661000"},{"name":"San Vicente","latitude":"9.96016000","longitude":"-84.04762000"},{"name":"San Vicente de Moravia","latitude":"9.96164000","longitude":"-84.04880000"},{"name":"Santa Ana","latitude":"9.93260000","longitude":"-84.18255000"},{"name":"Santiago","latitude":"9.84636000","longitude":"-84.31428000"},{"name":"Tarrazú","latitude":"9.65965000","longitude":"-84.02138000"},{"name":"Tejar","latitude":"9.74622000","longitude":"-84.23368000"},{"name":"Tibás","latitude":"9.96667000","longitude":"-84.08333000"},{"name":"Turrubares","latitude":"9.75000000","longitude":"-84.50000000"},{"name":"Vázquez de Coronado","latitude":"10.06000000","longitude":"-84.00000000"}]}]}