{
  "code": "CZ",
  "states": [
    {
      "name": "Benešov",
      "state_code": "201",
      "latitude": "49.69008280",
      "longitude": "14.77643990",
      "cities": []
    },
    {
      "name": "Beroun",
      "state_code": "202",
      "latitude": "49.95734280",
      "longitude": "13.98407150",
      "cities": []
    },
    {
      "name": "Blansko",
      "state_code": "641",
      "latitude": "49.36485020",
      "longitude": "16.64775520",
      "cities": []
    },
    {
      "name": "Břeclav",
      "state_code": "644",
      "latitude": "48.75314000",
      "longitude": "16.88251690",
      "cities": []
    },
    {
      "name": "Brno-město",
      "state_code": "642",
      "latitude": "49.19506020",
      "longitude": "16.60683710",
      "cities": []
    },
    {
      "name": "Brno-venkov",
      "state_code": "643",
      "latitude": "49.12501380",
      "longitude": "16.45588240",
      "cities": []
    },
    {
      "name": "Bruntál",
      "state_code": "801",
      "latitude": "49.98817670",
      "longitude": "17.46369410",
      "cities": []
    },
    {
      "name": "Česká Lípa",
      "state_code": "511",
      "latitude": "50.67852010",
      "longitude": "14.53969910",
      "cities": []
    },
    {
      "name": "České Budějovice",
      "state_code": "311",
      "latitude": "48.97755530",
      "longitude": "14.51507470",
      "cities": []
    },
    {
      "name": "Český Krumlov",
      "state_code": "312",
      "latitude": "48.81273540",
      "longitude": "14.31746570",
      "cities": []
    },
    {
      "name": "Cheb",
      "state_code": "411",
      "latitude": "50.07953340",
      "longitude": "12.36986360",
      "cities": []
    },
    {
      "name": "Chomutov",
      "state_code": "422",
      "latitude": "50.45838720",
      "longitude": "13.30179100",
      "cities": []
    },
    {
      "name": "Chrudim",
      "state_code": "531",
      "latitude": "49.88302160",
      "longitude": "15.82908660",
      "cities": []
    },
    {
      "name": "Děčín",
      "state_code": "421",
      "latitude": "50.77255630",
      "longitude": "14.21276120",
      "cities": []
    },
    {
      "name": "Domažlice",
      "state_code": "321",
      "latitude": "49.43970270",
      "longitude": "12.93114350",
      "cities": []
    },
    {
      "name": "Frýdek-Místek",
      "state_code": "802",
      "latitude": "49.68193050",
      "longitude": "18.36732160",
      "cities": []
    },
    {
      "name": "Havlíčkův Brod",
      "state_code": "631",
      "latitude": "49.60433640",
      "longitude": "15.57965520",
      "cities": []
    },
    {
      "name": "Hodonín",
      "state_code": "645",
      "latitude": "48.85293910",
      "longitude": "17.12600250",
      "cities": []
    },
    {
      "name": "Hradec Králové",
      "state_code": "521",
      "latitude": "50.24148050",
      "longitude": "15.67430000",
      "cities": []
    },
    {
      "name": "Jablonec nad Nisou",
      "state_code": "512",
      "latitude": "50.72205280",
      "longitude": "15.17031350",
      "cities": []
    },
    {
      "name": "Jeseník",
      "state_code": "711",
      "latitude": "50.22462490",
      "longitude": "17.19804710",
      "cities": []
    },
    {
      "name": "Jičín",
      "state_code": "522",
      "latitude": "50.43533250",
      "longitude": "15.36104400",
      "cities": []
    },
    {
      "name": "Jihlava",
      "state_code": "632",
      "latitude": "49.39837820",
      "longitude": "15.58704150",
      "cities": []
    },
    {
      "name": "Jihočeský kraj",
      "state_code": "31",
      "latitude": "48.94577890",
      "longitude": "14.44160550",
      "cities": [
        {
          "name": "Bavorov",
          "latitude": "49.12184000",
          "longitude": "14.07893000"
        },
        {
          "name": "Bechyně",
          "latitude": "49.29523000",
          "longitude": "14.46810000"
        },
        {
          "name": "Benešov nad Černou",
          "latitude": "48.72940000",
          "longitude": "14.62737000"
        },
        {
          "name": "Bernartice",
          "latitude": "49.36889000",
          "longitude": "14.38101000"
        },
        {
          "name": "Blatná",
          "latitude": "49.42489000",
          "longitude": "13.88176000"
        },
        {
          "name": "Borek",
          "latitude": "49.02339000",
          "longitude": "14.50088000"
        },
        {
          "name": "Borová Lada",
          "latitude": "48.98983000",
          "longitude": "13.65986000"
        },
        {
          "name": "Borovany",
          "latitude": "48.89860000",
          "longitude": "14.64227000"
        },
        {
          "name": "Brloh",
          "latitude": "48.92987000",
          "longitude": "14.21857000"
        },
        {
          "name": "České Budějovice",
          "latitude": "48.97447000",
          "longitude": "14.47434000"
        },
        {
          "name": "České Velenice",
          "latitude": "48.76851000",
          "longitude": "14.96368000"
        },
        {
          "name": "Český Krumlov",
          "latitude": "48.81091000",
          "longitude": "14.31521000"
        },
        {
          "name": "Český Rudolec",
          "latitude": "49.06835000",
          "longitude": "15.32437000"
        },
        {
          "name": "Chlum u Třeboně",
          "latitude": "48.96235000",
          "longitude": "14.92799000"
        },
        {
          "name": "Chotoviny",
          "latitude": "49.47803000",
          "longitude": "14.67695000"
        },
        {
          "name": "Chvalšiny",
          "latitude": "48.85401000",
          "longitude": "14.21114000"
        },
        {
          "name": "Chýnov",
          "latitude": "49.40677000",
          "longitude": "14.81122000"
        },
        {
          "name": "Chyšky",
          "latitude": "49.52346000",
          "longitude": "14.42757000"
        },
        {
          "name": "Čimelice",
          "latitude": "49.46557000",
          "longitude": "14.06922000"
        },
        {
          "name": "Čkyně",
          "latitude": "49.11503000",
          "longitude": "13.82906000"
        },
        {
          "name": "Dačice",
          "latitude": "49.08154000",
          "longitude": "15.43727000"
        },
        {
          "name": "Dolní Bukovsko",
          "latitude": "49.17086000",
          "longitude": "14.58127000"
        },
        {
          "name": "Dolní Dvořiště",
          "latitude": "48.65642000",
          "longitude": "14.45221000"
        },
        {
          "name": "Dřiteň",
          "latitude": "49.14280000",
          "longitude": "14.34596000"
        },
        {
          "name": "Dubné",
          "latitude": "48.97619000",
          "longitude": "14.36038000"
        },
        {
          "name": "Frymburk",
          "latitude": "48.66094000",
          "longitude": "14.16564000"
        },
        {
          "name": "Hluboká nad Vltavou",
          "latitude": "49.05225000",
          "longitude": "14.43427000"
        },
        {
          "name": "Horní Planá",
          "latitude": "48.76736000",
          "longitude": "14.03257000"
        },
        {
          "name": "Horní Stropnice",
          "latitude": "48.76124000",
          "longitude": "14.73502000"
        },
        {
          "name": "Hrdějovice",
          "latitude": "49.01893000",
          "longitude": "14.47857000"
        },
        {
          "name": "Husinec",
          "latitude": "49.05496000",
          "longitude": "13.98697000"
        },
        {
          "name": "Jarošov nad Nežárkou",
          "latitude": "49.18989000",
          "longitude": "15.06734000"
        },
        {
          "name": "Jindřichův Hradec",
          "latitude": "49.14404000",
          "longitude": "15.00301000"
        },
        {
          "name": "Jistebnice",
          "latitude": "49.48553000",
          "longitude": "14.52760000"
        },
        {
          "name": "Kájov",
          "latitude": "48.81082000",
          "longitude": "14.25859000"
        },
        {
          "name": "Kamenný Újezd",
          "latitude": "48.89753000",
          "longitude": "14.44638000"
        },
        {
          "name": "Kaplice",
          "latitude": "48.73881000",
          "longitude": "14.49449000"
        },
        {
          "name": "Kardašova Řečice",
          "latitude": "49.18478000",
          "longitude": "14.85315000"
        },
        {
          "name": "Katovice",
          "latitude": "49.27348000",
          "longitude": "13.83035000"
        },
        {
          "name": "Kovářov",
          "latitude": "49.51760000",
          "longitude": "14.27809000"
        },
        {
          "name": "Křemže",
          "latitude": "48.90497000",
          "longitude": "14.30568000"
        },
        {
          "name": "Kunžak",
          "latitude": "49.12119000",
          "longitude": "15.19028000"
        },
        {
          "name": "Ledenice",
          "latitude": "48.93329000",
          "longitude": "14.61886000"
        },
        {
          "name": "Lhenice",
          "latitude": "48.99479000",
          "longitude": "14.14980000"
        },
        {
          "name": "Lišov",
          "latitude": "49.01597000",
          "longitude": "14.60838000"
        },
        {
          "name": "Litvínovice",
          "latitude": "48.96207000",
          "longitude": "14.45146000"
        },
        {
          "name": "Lomnice nad Lužnicí",
          "latitude": "49.08468000",
          "longitude": "14.71727000"
        },
        {
          "name": "Loučovice",
          "latitude": "48.62019000",
          "longitude": "14.25747000"
        },
        {
          "name": "Malonty",
          "latitude": "48.68611000",
          "longitude": "14.57678000"
        },
        {
          "name": "Malšice",
          "latitude": "49.36391000",
          "longitude": "14.57868000"
        },
        {
          "name": "Milevsko",
          "latitude": "49.45089000",
          "longitude": "14.36000000"
        },
        {
          "name": "Mirotice",
          "latitude": "49.42908000",
          "longitude": "14.03697000"
        },
        {
          "name": "Mirovice",
          "latitude": "49.51555000",
          "longitude": "14.03582000"
        },
        {
          "name": "Mladá Vožice",
          "latitude": "49.53313000",
          "longitude": "14.80857000"
        },
        {
          "name": "Netolice",
          "latitude": "49.04930000",
          "longitude": "14.19700000"
        },
        {
          "name": "Nová Bystřice",
          "latitude": "49.01926000",
          "longitude": "15.10316000"
        },
        {
          "name": "Nová Včelnice",
          "latitude": "49.23935000",
          "longitude": "15.07260000"
        },
        {
          "name": "Nové Hrady",
          "latitude": "48.78963000",
          "longitude": "14.77839000"
        },
        {
          "name": "Okres České Budějovice",
          "latitude": "49.00000000",
          "longitude": "14.50000000"
        },
        {
          "name": "Okres Český Krumlov",
          "latitude": "48.75000000",
          "longitude": "14.33333000"
        },
        {
          "name": "Okres Jindřichův Hradec",
          "latitude": "49.08333000",
          "longitude": "15.16667000"
        },
        {
          "name": "Okres Písek",
          "latitude": "49.40000000",
          "longitude": "14.20000000"
        },
        {
          "name": "Okres Prachatice",
          "latitude": "49.00000000",
          "longitude": "13.86667000"
        },
        {
          "name": "Okres Strakonice",
          "latitude": "49.26667000",
          "longitude": "13.90000000"
        },
        {
          "name": "Okres Tábor",
          "latitude": "49.41667000",
          "longitude": "14.66667000"
        },
        {
          "name": "Opařany",
          "latitude": "49.39678000",
          "longitude": "14.48137000"
        },
        {
          "name": "Písek",
          "latitude": "49.30880000",
          "longitude": "14.14750000"
        },
        {
          "name": "Planá nad Lužnicí",
          "latitude": "49.35444000",
          "longitude": "14.70147000"
        },
        {
          "name": "Prachatice",
          "latitude": "49.01292000",
          "longitude": "13.99752000"
        },
        {
          "name": "Protivín",
          "latitude": "49.19949000",
          "longitude": "14.21717000"
        },
        {
          "name": "Radomyšl",
          "latitude": "49.31634000",
          "longitude": "13.93024000"
        },
        {
          "name": "Rudolfov",
          "latitude": "48.99339000",
          "longitude": "14.54179000"
        },
        {
          "name": "Sedlice",
          "latitude": "48.77401000",
          "longitude": "14.39115000"
        },
        {
          "name": "Sepekov",
          "latitude": "49.42865000",
          "longitude": "14.41815000"
        },
        {
          "name": "Ševětín",
          "latitude": "49.10005000",
          "longitude": "14.57220000"
        },
        {
          "name": "Sezimovo Ústí",
          "latitude": "49.38519000",
          "longitude": "14.68480000"
        },
        {
          "name": "Slavonice",
          "latitude": "48.99753000",
          "longitude": "15.35154000"
        },
        {
          "name": "Soběslav",
          "latitude": "49.25993000",
          "longitude": "14.71861000"
        },
        {
          "name": "Srubec",
          "latitude": "48.94806000",
          "longitude": "14.54131000"
        },
        {
          "name": "Stachy",
          "latitude": "49.10179000",
          "longitude": "13.66659000"
        },
        {
          "name": "Strakonice",
          "latitude": "49.26141000",
          "longitude": "13.90237000"
        },
        {
          "name": "Strmilov",
          "latitude": "49.15846000",
          "longitude": "15.19934000"
        },
        {
          "name": "Strunkovice nad Blanicí",
          "latitude": "49.08402000",
          "longitude": "14.05522000"
        },
        {
          "name": "Studená",
          "latitude": "49.18516000",
          "longitude": "15.28688000"
        },
        {
          "name": "Suchdol nad Lužnicí",
          "latitude": "48.89000000",
          "longitude": "14.87720000"
        },
        {
          "name": "Tábor",
          "latitude": "49.41441000",
          "longitude": "14.65780000"
        },
        {
          "name": "Třeboň",
          "latitude": "49.00364000",
          "longitude": "14.77065000"
        },
        {
          "name": "Trhové Sviny",
          "latitude": "48.84231000",
          "longitude": "14.63924000"
        },
        {
          "name": "Týn nad Vltavou",
          "latitude": "49.22340000",
          "longitude": "14.42057000"
        },
        {
          "name": "Vacov",
          "latitude": "49.13686000",
          "longitude": "13.72911000"
        },
        {
          "name": "Včelná",
          "latitude": "48.92373000",
          "longitude": "14.45383000"
        },
        {
          "name": "Velešín",
          "latitude": "48.82949000",
          "longitude": "14.46252000"
        },
        {
          "name": "Veselí nad Lužnicí",
          "latitude": "49.18430000",
          "longitude": "14.69734000"
        },
        {
          "name": "Větřní",
          "latitude": "48.77425000",
          "longitude": "14.28616000"
        },
        {
          "name": "Vimperk",
          "latitude": "49.05857000",
          "longitude": "13.78286000"
        },
        {
          "name": "Vlachovo Březí",
          "latitude": "49.08135000",
          "longitude": "13.95842000"
        },
        {
          "name": "Vodňany",
          "latitude": "49.14789000",
          "longitude": "14.17513000"
        },
        {
          "name": "Volary",
          "latitude": "48.90881000",
          "longitude": "13.88657000"
        },
        {
          "name": "Volyně",
          "latitude": "49.16578000",
          "longitude": "13.88624000"
        },
        {
          "name": "Vyšší Brod",
          "latitude": "48.61598000",
          "longitude": "14.31183000"
        },
        {
          "name": "Zdíkov",
          "latitude": "49.08456000",
          "longitude": "13.69738000"
        },
        {
          "name": "Zliv",
          "latitude": "49.06608000",
          "longitude": "14.36613000"
        }
      ]
    },
    {
      "name": "Jihomoravský kraj",
      "state_code": "64",
      "latitude": "48.95445280",
      "longitude": "16.76768990",
      "cities": [
        {
          "name": "Adamov",
          "latitude": "49.30162000",
          "longitude": "16.65253000"
        },
        {
          "name": "Bílovice nad Svitavou",
          "latitude": "49.24708000",
          "longitude": "16.67247000"
        },
        {
          "name": "Blansko",
          "latitude": "49.36304000",
          "longitude": "16.64446000"
        },
        {
          "name": "Blažovice",
          "latitude": "49.16569000",
          "longitude": "16.78611000"
        },
        {
          "name": "Blížkovice",
          "latitude": "48.99976000",
          "longitude": "15.83482000"
        },
        {
          "name": "Blučina",
          "latitude": "49.05497000",
          "longitude": "16.64450000"
        },
        {
          "name": "Bořetice",
          "latitude": "48.91302000",
          "longitude": "16.85306000"
        },
        {
          "name": "Bořitov",
          "latitude": "49.42504000",
          "longitude": "16.59119000"
        },
        {
          "name": "Boskovice",
          "latitude": "49.48751000",
          "longitude": "16.65997000"
        },
        {
          "name": "Bošovice",
          "latitude": "49.05351000",
          "longitude": "16.83676000"
        },
        {
          "name": "Božice",
          "latitude": "48.83687000",
          "longitude": "16.28875000"
        },
        {
          "name": "Břeclav",
          "latitude": "48.75897000",
          "longitude": "16.88203000"
        },
        {
          "name": "Březí",
          "latitude": "48.81928000",
          "longitude": "16.56748000"
        },
        {
          "name": "Brno",
          "latitude": "49.19522000",
          "longitude": "16.60796000"
        },
        {
          "name": "Bučovice",
          "latitude": "49.14896000",
          "longitude": "17.00191000"
        },
        {
          "name": "Bzenec",
          "latitude": "48.97336000",
          "longitude": "17.26685000"
        },
        {
          "name": "Čebín",
          "latitude": "49.31324000",
          "longitude": "16.47791000"
        },
        {
          "name": "Čejč",
          "latitude": "48.94653000",
          "longitude": "16.96511000"
        },
        {
          "name": "Čejkovice",
          "latitude": "48.90592000",
          "longitude": "16.94230000"
        },
        {
          "name": "Černá Hora",
          "latitude": "49.41361000",
          "longitude": "16.58140000"
        },
        {
          "name": "Dambořice",
          "latitude": "49.03828000",
          "longitude": "16.91757000"
        },
        {
          "name": "Dobšice",
          "latitude": "48.84834000",
          "longitude": "16.08218000"
        },
        {
          "name": "Dolní Bojanovice",
          "latitude": "48.85861000",
          "longitude": "17.02859000"
        },
        {
          "name": "Dolní Dunajovice",
          "latitude": "48.85447000",
          "longitude": "16.59283000"
        },
        {
          "name": "Dolní Kounice",
          "latitude": "49.07011000",
          "longitude": "16.46492000"
        },
        {
          "name": "Dolní Loućky",
          "latitude": "49.36099000",
          "longitude": "16.35871000"
        },
        {
          "name": "Domanín",
          "latitude": "49.00167000",
          "longitude": "17.28476000"
        },
        {
          "name": "Doubravice nad Svitavou",
          "latitude": "49.43664000",
          "longitude": "16.62937000"
        },
        {
          "name": "Drásov",
          "latitude": "49.33183000",
          "longitude": "16.47798000"
        },
        {
          "name": "Drnholec",
          "latitude": "48.85746000",
          "longitude": "16.48586000"
        },
        {
          "name": "Drnovice",
          "latitude": "49.27630000",
          "longitude": "16.95146000"
        },
        {
          "name": "Dubňany",
          "latitude": "48.91694000",
          "longitude": "17.09004000"
        },
        {
          "name": "Hevlín",
          "latitude": "48.75209000",
          "longitude": "16.38131000"
        },
        {
          "name": "Hlohovec",
          "latitude": "48.77399000",
          "longitude": "16.76230000"
        },
        {
          "name": "Hodonice",
          "latitude": "48.83680000",
          "longitude": "16.16337000"
        },
        {
          "name": "Hodonín",
          "latitude": "48.84893000",
          "longitude": "17.13244000"
        },
        {
          "name": "Hostěradice",
          "latitude": "48.95006000",
          "longitude": "16.25931000"
        },
        {
          "name": "Hovorany",
          "latitude": "48.95493000",
          "longitude": "16.99346000"
        },
        {
          "name": "Hroznová Lhota",
          "latitude": "48.90784000",
          "longitude": "17.41697000"
        },
        {
          "name": "Hrušky",
          "latitude": "48.79272000",
          "longitude": "16.97404000"
        },
        {
          "name": "Hrušovany nad Jevišovkou",
          "latitude": "48.82991000",
          "longitude": "16.40271000"
        },
        {
          "name": "Hrušovany u Brna",
          "latitude": "49.03863000",
          "longitude": "16.59429000"
        },
        {
          "name": "Hustopeče",
          "latitude": "48.94085000",
          "longitude": "16.73762000"
        },
        {
          "name": "Ivančice",
          "latitude": "49.10144000",
          "longitude": "16.37752000"
        },
        {
          "name": "Ivanovice na Hané",
          "latitude": "49.30542000",
          "longitude": "17.09343000"
        },
        {
          "name": "Jaroslavice",
          "latitude": "48.75657000",
          "longitude": "16.23351000"
        },
        {
          "name": "Jedovnice",
          "latitude": "49.34453000",
          "longitude": "16.75595000"
        },
        {
          "name": "Jevišovice",
          "latitude": "48.98736000",
          "longitude": "15.98992000"
        },
        {
          "name": "Klobouky",
          "latitude": "48.99609000",
          "longitude": "16.86298000"
        },
        {
          "name": "Kněždub",
          "latitude": "48.88666000",
          "longitude": "17.39546000"
        },
        {
          "name": "Kobylí",
          "latitude": "48.93286000",
          "longitude": "16.89159000"
        },
        {
          "name": "Kostice",
          "latitude": "48.74685000",
          "longitude": "16.97869000"
        },
        {
          "name": "Křenovice",
          "latitude": "49.14216000",
          "longitude": "16.82932000"
        },
        {
          "name": "Křepice",
          "latitude": "48.99986000",
          "longitude": "16.71989000"
        },
        {
          "name": "Krumvíř",
          "latitude": "48.98901000",
          "longitude": "16.91027000"
        },
        {
          "name": "Kunštát",
          "latitude": "49.50645000",
          "longitude": "16.51722000"
        },
        {
          "name": "Kuřim",
          "latitude": "49.29852000",
          "longitude": "16.53144000"
        },
        {
          "name": "Kyjov",
          "latitude": "49.01018000",
          "longitude": "17.12253000"
        },
        {
          "name": "Lanžhot",
          "latitude": "48.72443000",
          "longitude": "16.96695000"
        },
        {
          "name": "Lednice",
          "latitude": "48.79992000",
          "longitude": "16.80339000"
        },
        {
          "name": "Lelekovice",
          "latitude": "49.29144000",
          "longitude": "16.57874000"
        },
        {
          "name": "Letonice",
          "latitude": "49.17726000",
          "longitude": "16.95913000"
        },
        {
          "name": "Letovice",
          "latitude": "49.54709000",
          "longitude": "16.57357000"
        },
        {
          "name": "Lipov",
          "latitude": "48.90495000",
          "longitude": "17.46171000"
        },
        {
          "name": "Lipovec",
          "latitude": "49.38394000",
          "longitude": "16.80583000"
        },
        {
          "name": "Lipůvka",
          "latitude": "49.33933000",
          "longitude": "16.55313000"
        },
        {
          "name": "Lomnice",
          "latitude": "49.40462000",
          "longitude": "16.41359000"
        },
        {
          "name": "Louka",
          "latitude": "48.91517000",
          "longitude": "17.48927000"
        },
        {
          "name": "Lužice",
          "latitude": "48.84098000",
          "longitude": "17.07104000"
        },
        {
          "name": "Lysice",
          "latitude": "49.45160000",
          "longitude": "16.53716000"
        },
        {
          "name": "Měnín",
          "latitude": "49.08240000",
          "longitude": "16.69424000"
        },
        {
          "name": "Město Brno",
          "latitude": "49.19954000",
          "longitude": "16.60755000"
        },
        {
          "name": "Mikulčice",
          "latitude": "48.81643000",
          "longitude": "17.05107000"
        },
        {
          "name": "Mikulov",
          "latitude": "48.80556000",
          "longitude": "16.63780000"
        },
        {
          "name": "Milotice",
          "latitude": "48.95528000",
          "longitude": "17.14241000"
        },
        {
          "name": "Miroslav",
          "latitude": "48.94767000",
          "longitude": "16.31252000"
        },
        {
          "name": "Modřice",
          "latitude": "49.11928000",
          "longitude": "16.60446000"
        },
        {
          "name": "Mokrá Hora",
          "latitude": "49.26176000",
          "longitude": "16.59107000"
        },
        {
          "name": "Moravany",
          "latitude": "49.14780000",
          "longitude": "16.58026000"
        },
        {
          "name": "Moravská Nová Ves",
          "latitude": "48.80304000",
          "longitude": "17.01371000"
        },
        {
          "name": "Moravský Krumlov",
          "latitude": "49.04893000",
          "longitude": "16.31169000"
        },
        {
          "name": "Moravský Písek",
          "latitude": "48.99016000",
          "longitude": "17.33269000"
        },
        {
          "name": "Moravský Žižkov",
          "latitude": "48.83285000",
          "longitude": "16.93140000"
        },
        {
          "name": "Moutnice",
          "latitude": "49.04924000",
          "longitude": "16.73741000"
        },
        {
          "name": "Mutěnice",
          "latitude": "48.90413000",
          "longitude": "17.02917000"
        },
        {
          "name": "Nedvědice",
          "latitude": "49.45702000",
          "longitude": "16.33406000"
        },
        {
          "name": "Nesovice",
          "latitude": "49.15111000",
          "longitude": "17.08095000"
        },
        {
          "name": "Nosislav",
          "latitude": "49.01380000",
          "longitude": "16.65431000"
        },
        {
          "name": "Novosedly",
          "latitude": "48.83704000",
          "longitude": "16.49273000"
        },
        {
          "name": "Okres Blansko",
          "latitude": "49.37399000",
          "longitude": "16.64360000"
        },
        {
          "name": "Okres Břeclav",
          "latitude": "48.75958000",
          "longitude": "16.87260000"
        },
        {
          "name": "Okres Brno-venkov",
          "latitude": "49.16667000",
          "longitude": "16.50000000"
        },
        {
          "name": "Okres Hodonín",
          "latitude": "48.86471000",
          "longitude": "17.13284000"
        },
        {
          "name": "Okres Vyškov",
          "latitude": "49.27844000",
          "longitude": "16.99362000"
        },
        {
          "name": "Okres Znojmo",
          "latitude": "48.86200000",
          "longitude": "16.06270000"
        },
        {
          "name": "Olbramovice",
          "latitude": "48.98480000",
          "longitude": "16.40239000"
        },
        {
          "name": "Olešnice",
          "latitude": "49.55755000",
          "longitude": "16.42169000"
        },
        {
          "name": "Ořechov",
          "latitude": "49.11118000",
          "longitude": "16.52329000"
        },
        {
          "name": "Oslavany",
          "latitude": "49.12335000",
          "longitude": "16.33653000"
        },
        {
          "name": "Ostopovice",
          "latitude": "49.16100000",
          "longitude": "16.54548000"
        },
        {
          "name": "Ostrov u Macochy",
          "latitude": "49.38236000",
          "longitude": "16.76268000"
        },
        {
          "name": "Otnice",
          "latitude": "49.08642000",
          "longitude": "16.81443000"
        },
        {
          "name": "Petrov",
          "latitude": "48.88196000",
          "longitude": "17.27810000"
        },
        {
          "name": "Podivín",
          "latitude": "48.82554000",
          "longitude": "16.84822000"
        },
        {
          "name": "Podolí",
          "latitude": "49.19042000",
          "longitude": "16.72084000"
        },
        {
          "name": "Pohořelice",
          "latitude": "48.98119000",
          "longitude": "16.52445000"
        },
        {
          "name": "Pozořice",
          "latitude": "49.20976000",
          "longitude": "16.79074000"
        },
        {
          "name": "Předklášteří",
          "latitude": "49.35253000",
          "longitude": "16.40241000"
        },
        {
          "name": "Prušánky",
          "latitude": "48.82840000",
          "longitude": "16.98068000"
        },
        {
          "name": "Pustiměř",
          "latitude": "49.32251000",
          "longitude": "17.02792000"
        },
        {
          "name": "Rájec-Jestřebí",
          "latitude": "49.41094000",
          "longitude": "16.63902000"
        },
        {
          "name": "Ráječko",
          "latitude": "49.39393000",
          "longitude": "16.64497000"
        },
        {
          "name": "Rajhrad",
          "latitude": "49.09021000",
          "longitude": "16.60388000"
        },
        {
          "name": "Rajhradice",
          "latitude": "49.09203000",
          "longitude": "16.62933000"
        },
        {
          "name": "Rakvice",
          "latitude": "48.85811000",
          "longitude": "16.81330000"
        },
        {
          "name": "Ratíškovice",
          "latitude": "48.92002000",
          "longitude": "17.16561000"
        },
        {
          "name": "Říčany",
          "latitude": "49.21497000",
          "longitude": "16.39362000"
        },
        {
          "name": "Rohatec",
          "latitude": "48.88040000",
          "longitude": "17.18330000"
        },
        {
          "name": "Rosice",
          "latitude": "49.18232000",
          "longitude": "16.38787000"
        },
        {
          "name": "Rousínov",
          "latitude": "49.20128000",
          "longitude": "16.88215000"
        },
        {
          "name": "Šakvice",
          "latitude": "48.89746000",
          "longitude": "16.71424000"
        },
        {
          "name": "Šanov",
          "latitude": "48.80089000",
          "longitude": "16.37858000"
        },
        {
          "name": "Šardice",
          "latitude": "48.96403000",
          "longitude": "17.02812000"
        },
        {
          "name": "Šatov",
          "latitude": "48.79317000",
          "longitude": "16.00992000"
        },
        {
          "name": "Šitbořice",
          "latitude": "49.01433000",
          "longitude": "16.77975000"
        },
        {
          "name": "Šlapanice",
          "latitude": "49.16863000",
          "longitude": "16.72731000"
        },
        {
          "name": "Slavkov u Brna",
          "latitude": "49.15325000",
          "longitude": "16.87649000"
        },
        {
          "name": "Sokolnice",
          "latitude": "49.11392000",
          "longitude": "16.72156000"
        },
        {
          "name": "Strážnice",
          "latitude": "48.90102000",
          "longitude": "17.31680000"
        },
        {
          "name": "Střelice",
          "latitude": "49.15221000",
          "longitude": "16.50399000"
        },
        {
          "name": "Suchohrdly",
          "latitude": "48.86822000",
          "longitude": "16.09471000"
        },
        {
          "name": "Sudoměřice",
          "latitude": "48.86723000",
          "longitude": "17.25676000"
        },
        {
          "name": "Svitávka",
          "latitude": "49.50178000",
          "longitude": "16.59793000"
        },
        {
          "name": "Tasovice",
          "latitude": "48.83610000",
          "longitude": "16.15558000"
        },
        {
          "name": "Telnice",
          "latitude": "49.10187000",
          "longitude": "16.71774000"
        },
        {
          "name": "Těšany",
          "latitude": "49.03956000",
          "longitude": "16.77003000"
        },
        {
          "name": "Tišnov",
          "latitude": "49.34872000",
          "longitude": "16.42438000"
        },
        {
          "name": "Troubsko",
          "latitude": "49.16951000",
          "longitude": "16.51078000"
        },
        {
          "name": "Tvarožná",
          "latitude": "49.19177000",
          "longitude": "16.77146000"
        },
        {
          "name": "Tvrdonice",
          "latitude": "48.76048000",
          "longitude": "16.99446000"
        },
        {
          "name": "Týnec",
          "latitude": "48.77943000",
          "longitude": "17.01322000"
        },
        {
          "name": "Únanov",
          "latitude": "48.90082000",
          "longitude": "16.06351000"
        },
        {
          "name": "Vacenovice",
          "latitude": "48.94510000",
          "longitude": "17.17404000"
        },
        {
          "name": "Valtice",
          "latitude": "48.74069000",
          "longitude": "16.75499000"
        },
        {
          "name": "Velká nad Veličkou",
          "latitude": "48.88257000",
          "longitude": "17.52060000"
        },
        {
          "name": "Velké Bílovice",
          "latitude": "48.84929000",
          "longitude": "16.89227000"
        },
        {
          "name": "Velké Němčice",
          "latitude": "48.99168000",
          "longitude": "16.67208000"
        },
        {
          "name": "Velké Opatovice",
          "latitude": "49.61237000",
          "longitude": "16.67947000"
        },
        {
          "name": "Velké Pavlovice",
          "latitude": "48.90469000",
          "longitude": "16.81605000"
        },
        {
          "name": "Veselí nad Moravou",
          "latitude": "48.95363000",
          "longitude": "17.37648000"
        },
        {
          "name": "Veverská Bítýška",
          "latitude": "49.27591000",
          "longitude": "16.43686000"
        },
        {
          "name": "Viničné Šumice",
          "latitude": "49.21358000",
          "longitude": "16.82541000"
        },
        {
          "name": "Višňové",
          "latitude": "48.98241000",
          "longitude": "16.15025000"
        },
        {
          "name": "Vlkoš",
          "latitude": "48.98960000",
          "longitude": "17.16356000"
        },
        {
          "name": "Vnorovy",
          "latitude": "48.93096000",
          "longitude": "17.35050000"
        },
        {
          "name": "Vojkovice",
          "latitude": "49.05138000",
          "longitude": "16.60820000"
        },
        {
          "name": "Vracov",
          "latitude": "48.97523000",
          "longitude": "17.21100000"
        },
        {
          "name": "Vranovice",
          "latitude": "48.96600000",
          "longitude": "16.60660000"
        },
        {
          "name": "Vrbice",
          "latitude": "48.91508000",
          "longitude": "16.89779000"
        },
        {
          "name": "Vrbovec",
          "latitude": "48.79978000",
          "longitude": "16.10061000"
        },
        {
          "name": "Vyškov",
          "latitude": "49.27747000",
          "longitude": "16.99897000"
        },
        {
          "name": "Žabčice",
          "latitude": "49.01160000",
          "longitude": "16.60257000"
        },
        {
          "name": "Zaječí",
          "latitude": "48.87295000",
          "longitude": "16.76646000"
        },
        {
          "name": "Zastávka",
          "latitude": "49.18800000",
          "longitude": "16.36310000"
        },
        {
          "name": "Zbraslav",
          "latitude": "49.22155000",
          "longitude": "16.29415000"
        },
        {
          "name": "Zbýšov",
          "latitude": "49.15524000",
          "longitude": "16.34951000"
        },
        {
          "name": "Ždánice",
          "latitude": "49.06729000",
          "longitude": "17.02751000"
        },
        {
          "name": "Želešice",
          "latitude": "49.11689000",
          "longitude": "16.58137000"
        },
        {
          "name": "Žeravice",
          "latitude": "49.02288000",
          "longitude": "17.23726000"
        },
        {
          "name": "Židlochovice",
          "latitude": "49.03952000",
          "longitude": "16.61881000"
        },
        {
          "name": "Znojmo",
          "latitude": "48.85550000",
          "longitude": "16.04880000"
        }
      ]
    },
    {
      "name": "Jindřichův Hradec",
      "state_code": "313",
      "latitude": "49.14448230",
      "longitude": "15.00613890",
      "cities": []
    },
    {
      "name": "Karlovarský kraj",
      "state_code": "41",
      "latitude": "50.14350000",
      "longitude": "12.75018990",
      "cities": [
        {
          "name": "Abertamy",
          "latitude": "50.36874000",
          "longitude": "12.81826000"
        },
        {
          "name": "Aš",
          "latitude": "50.22387000",
          "longitude": "12.19499000"
        },
        {
          "name": "Bochov",
          "latitude": "50.14872000",
          "longitude": "13.05227000"
        },
        {
          "name": "Březová",
          "latitude": "50.14557000",
          "longitude": "12.64996000"
        },
        {
          "name": "Bukovany",
          "latitude": "50.16632000",
          "longitude": "12.57265000"
        },
        {
          "name": "Cheb",
          "latitude": "50.07963000",
          "longitude": "12.37392000"
        },
        {
          "name": "Chodov",
          "latitude": "50.24018000",
          "longitude": "12.74551000"
        },
        {
          "name": "Dalovice",
          "latitude": "50.24779000",
          "longitude": "12.89581000"
        },
        {
          "name": "Dolní Rychnov",
          "latitude": "50.16462000",
          "longitude": "12.64507000"
        },
        {
          "name": "Dolní Žandov",
          "latitude": "50.01794000",
          "longitude": "12.55101000"
        },
        {
          "name": "Františkovy Lázně",
          "latitude": "50.12033000",
          "longitude": "12.35174000"
        },
        {
          "name": "Habartov",
          "latitude": "50.18297000",
          "longitude": "12.55054000"
        },
        {
          "name": "Hazlov",
          "latitude": "50.15634000",
          "longitude": "12.27238000"
        },
        {
          "name": "Horní Slavkov",
          "latitude": "50.13863000",
          "longitude": "12.80758000"
        },
        {
          "name": "Hranice",
          "latitude": "50.30459000",
          "longitude": "12.17577000"
        },
        {
          "name": "Hroznětín",
          "latitude": "50.30940000",
          "longitude": "12.87180000"
        },
        {
          "name": "Jáchymov",
          "latitude": "50.35846000",
          "longitude": "12.93465000"
        },
        {
          "name": "Karlovy Vary",
          "latitude": "50.23271000",
          "longitude": "12.87117000"
        },
        {
          "name": "Klášter",
          "latitude": "49.96762000",
          "longitude": "12.87623000"
        },
        {
          "name": "Kraslice",
          "latitude": "50.32372000",
          "longitude": "12.51747000"
        },
        {
          "name": "Kynšperk nad Ohří",
          "latitude": "50.11893000",
          "longitude": "12.53027000"
        },
        {
          "name": "Lázně Kynžvart",
          "latitude": "50.01058000",
          "longitude": "12.62474000"
        },
        {
          "name": "Loket",
          "latitude": "50.18600000",
          "longitude": "12.75405000"
        },
        {
          "name": "Lomnice",
          "latitude": "50.21174000",
          "longitude": "12.63267000"
        },
        {
          "name": "Luby",
          "latitude": "50.25248000",
          "longitude": "12.40595000"
        },
        {
          "name": "Mariánské Lázně",
          "latitude": "49.96459000",
          "longitude": "12.70118000"
        },
        {
          "name": "Merklín",
          "latitude": "50.32808000",
          "longitude": "12.86350000"
        },
        {
          "name": "Město",
          "latitude": "49.97997000",
          "longitude": "12.86432000"
        },
        {
          "name": "Nejdek",
          "latitude": "50.32242000",
          "longitude": "12.72936000"
        },
        {
          "name": "Nová Role",
          "latitude": "50.27092000",
          "longitude": "12.78422000"
        },
        {
          "name": "Nové Sedlo",
          "latitude": "50.20647000",
          "longitude": "12.73800000"
        },
        {
          "name": "Okres Cheb",
          "latitude": "50.08333000",
          "longitude": "12.50000000"
        },
        {
          "name": "Okres Karlovy Vary",
          "latitude": "50.16667000",
          "longitude": "13.00000000"
        },
        {
          "name": "Okres Sokolov",
          "latitude": "50.21667000",
          "longitude": "12.63333000"
        },
        {
          "name": "Oloví",
          "latitude": "50.25113000",
          "longitude": "12.55877000"
        },
        {
          "name": "Ostrov",
          "latitude": "50.30592000",
          "longitude": "12.93907000"
        },
        {
          "name": "Plesná",
          "latitude": "50.22070000",
          "longitude": "12.34669000"
        },
        {
          "name": "Rotava",
          "latitude": "50.29627000",
          "longitude": "12.57341000"
        },
        {
          "name": "Sadov",
          "latitude": "50.26711000",
          "longitude": "12.89708000"
        },
        {
          "name": "Skalná",
          "latitude": "50.17030000",
          "longitude": "12.36144000"
        },
        {
          "name": "Sokolov",
          "latitude": "50.18130000",
          "longitude": "12.64010000"
        },
        {
          "name": "Svatava",
          "latitude": "50.19223000",
          "longitude": "12.62524000"
        },
        {
          "name": "Toužim",
          "latitude": "50.06049000",
          "longitude": "12.98506000"
        },
        {
          "name": "Velká Hleďsebe",
          "latitude": "49.96151000",
          "longitude": "12.66763000"
        },
        {
          "name": "Vintířov",
          "latitude": "50.23382000",
          "longitude": "12.71748000"
        },
        {
          "name": "Žlutice",
          "latitude": "50.09192000",
          "longitude": "13.16297000"
        }
      ]
    },
    {
      "name": "Karlovy Vary",
      "state_code": "412",
      "latitude": "50.14350000",
      "longitude": "12.75018990",
      "cities": []
    },
    {
      "name": "Karviná",
      "state_code": "803",
      "latitude": "49.85665240",
      "longitude": "18.54321860",
      "cities": []
    },
    {
      "name": "Kladno",
      "state_code": "203",
      "latitude": "50.19402580",
      "longitude": "14.10436570",
      "cities": []
    },
    {
      "name": "Klatovy",
      "state_code": "322",
      "latitude": "49.39555490",
      "longitude": "13.29509370",
      "cities": []
    },
    {
      "name": "Kolín",
      "state_code": "204",
      "latitude": "49.98832930",
      "longitude": "15.05519770",
      "cities": []
    },
    {
      "name": "Kraj Vysočina",
      "state_code": "63",
      "latitude": "49.44900520",
      "longitude": "15.64059340",
      "cities": [
        {
          "name": "Batelov",
          "latitude": "49.31425000",
          "longitude": "15.39465000"
        },
        {
          "name": "Bohdalov",
          "latitude": "49.47921000",
          "longitude": "15.87582000"
        },
        {
          "name": "Brtnice",
          "latitude": "49.30695000",
          "longitude": "15.67642000"
        },
        {
          "name": "Budišov",
          "latitude": "49.27138000",
          "longitude": "16.00383000"
        },
        {
          "name": "Bystřice nad Pernštejnem",
          "latitude": "49.52295000",
          "longitude": "16.26147000"
        },
        {
          "name": "Černovice",
          "latitude": "49.37265000",
          "longitude": "14.96089000"
        },
        {
          "name": "Chotěboř",
          "latitude": "49.72072000",
          "longitude": "15.67018000"
        },
        {
          "name": "Dobronín",
          "latitude": "49.47833000",
          "longitude": "15.64992000"
        },
        {
          "name": "Dolní Cerekev",
          "latitude": "49.34449000",
          "longitude": "15.45655000"
        },
        {
          "name": "Golčův Jeníkov",
          "latitude": "49.81626000",
          "longitude": "15.47686000"
        },
        {
          "name": "Habry",
          "latitude": "49.75603000",
          "longitude": "15.48486000"
        },
        {
          "name": "Havlíčkův Brod",
          "latitude": "49.60690000",
          "longitude": "15.57937000"
        },
        {
          "name": "Herálec",
          "latitude": "49.68891000",
          "longitude": "15.99431000"
        },
        {
          "name": "Horní Cerekev",
          "latitude": "49.32026000",
          "longitude": "15.32769000"
        },
        {
          "name": "Hrotovice",
          "latitude": "49.10770000",
          "longitude": "16.06067000"
        },
        {
          "name": "Humpolec",
          "latitude": "49.54152000",
          "longitude": "15.35932000"
        },
        {
          "name": "Jaroměřice nad Rokytnou",
          "latitude": "49.09408000",
          "longitude": "15.89331000"
        },
        {
          "name": "Jemnice",
          "latitude": "49.01898000",
          "longitude": "15.56994000"
        },
        {
          "name": "Jihlava",
          "latitude": "49.39610000",
          "longitude": "15.59124000"
        },
        {
          "name": "Jimramov",
          "latitude": "49.63719000",
          "longitude": "16.22632000"
        },
        {
          "name": "Kamenice",
          "latitude": "49.36659000",
          "longitude": "15.78023000"
        },
        {
          "name": "Kamenice nad Lipou",
          "latitude": "49.30303000",
          "longitude": "15.07519000"
        },
        {
          "name": "Kněžice",
          "latitude": "49.27078000",
          "longitude": "15.67216000"
        },
        {
          "name": "Křižanov",
          "latitude": "49.38858000",
          "longitude": "16.10960000"
        },
        {
          "name": "Křížová",
          "latitude": "49.68841000",
          "longitude": "15.85207000"
        },
        {
          "name": "Ledeč nad Sázavou",
          "latitude": "49.69517000",
          "longitude": "15.27772000"
        },
        {
          "name": "Lípa",
          "latitude": "49.55418000",
          "longitude": "15.54465000"
        },
        {
          "name": "Luka nad Jihlavou",
          "latitude": "49.37403000",
          "longitude": "15.70194000"
        },
        {
          "name": "Lukavec",
          "latitude": "49.56541000",
          "longitude": "14.99041000"
        },
        {
          "name": "Měřín",
          "latitude": "49.39321000",
          "longitude": "15.88381000"
        },
        {
          "name": "Mohelno",
          "latitude": "49.11412000",
          "longitude": "16.19022000"
        },
        {
          "name": "Moravské Budějovice",
          "latitude": "49.05209000",
          "longitude": "15.80864000"
        },
        {
          "name": "Náměšť nad Oslavou",
          "latitude": "49.20726000",
          "longitude": "16.15849000"
        },
        {
          "name": "Nová Cerekev",
          "latitude": "49.41723000",
          "longitude": "15.11675000"
        },
        {
          "name": "Nové Město na Moravě",
          "latitude": "49.56144000",
          "longitude": "16.07418000"
        },
        {
          "name": "Nové Syrovice",
          "latitude": "49.01763000",
          "longitude": "15.77345000"
        },
        {
          "name": "Nové Veselí",
          "latitude": "49.51976000",
          "longitude": "15.90853000"
        },
        {
          "name": "Okres Havlíčkův Brod",
          "latitude": "49.66667000",
          "longitude": "15.58333000"
        },
        {
          "name": "Okres Jihlava",
          "latitude": "49.33333000",
          "longitude": "15.58333000"
        },
        {
          "name": "Okres Pelhřimov",
          "latitude": "49.41667000",
          "longitude": "15.16667000"
        },
        {
          "name": "Okres Třebíč",
          "latitude": "49.13333000",
          "longitude": "15.93333000"
        },
        {
          "name": "Okres Žďár nad Sázavou",
          "latitude": "49.50000000",
          "longitude": "16.03333000"
        },
        {
          "name": "Okříšky",
          "latitude": "49.24539000",
          "longitude": "15.76959000"
        },
        {
          "name": "Okrouhlice",
          "latitude": "49.62991000",
          "longitude": "15.49083000"
        },
        {
          "name": "Pacov",
          "latitude": "49.47076000",
          "longitude": "15.00168000"
        },
        {
          "name": "Pelhřimov",
          "latitude": "49.43134000",
          "longitude": "15.22336000"
        },
        {
          "name": "Počátky",
          "latitude": "49.26020000",
          "longitude": "15.24022000"
        },
        {
          "name": "Polná",
          "latitude": "49.48700000",
          "longitude": "15.71881000"
        },
        {
          "name": "Přibyslav",
          "latitude": "49.57684000",
          "longitude": "15.73855000"
        },
        {
          "name": "Rouchovany",
          "latitude": "49.07036000",
          "longitude": "16.10760000"
        },
        {
          "name": "Stařeč",
          "latitude": "49.19783000",
          "longitude": "15.82791000"
        },
        {
          "name": "Štoky",
          "latitude": "49.50249000",
          "longitude": "15.58863000"
        },
        {
          "name": "Světlá nad Sázavou",
          "latitude": "49.66801000",
          "longitude": "15.40393000"
        },
        {
          "name": "Svratka",
          "latitude": "49.71066000",
          "longitude": "16.03214000"
        },
        {
          "name": "Telč",
          "latitude": "49.18418000",
          "longitude": "15.45275000"
        },
        {
          "name": "Třebíč",
          "latitude": "49.21492000",
          "longitude": "15.88166000"
        },
        {
          "name": "Třešť",
          "latitude": "49.29092000",
          "longitude": "15.48211000"
        },
        {
          "name": "Velká Bíteš",
          "latitude": "49.28838000",
          "longitude": "16.22742000"
        },
        {
          "name": "Velké Meziříčí",
          "latitude": "49.35522000",
          "longitude": "16.01224000"
        },
        {
          "name": "Velký Beranov",
          "latitude": "49.40504000",
          "longitude": "15.66700000"
        },
        {
          "name": "Vilémov",
          "latitude": "49.81566000",
          "longitude": "15.53584000"
        },
        {
          "name": "Vladislav",
          "latitude": "49.21017000",
          "longitude": "15.98830000"
        },
        {
          "name": "Žďár nad Sázavou",
          "latitude": "49.56263000",
          "longitude": "15.93924000"
        },
        {
          "name": "Žďár nad Sázavou Druhy",
          "latitude": "49.58726000",
          "longitude": "15.93215000"
        },
        {
          "name": "Želetava",
          "latitude": "49.14187000",
          "longitude": "15.67300000"
        },
        {
          "name": "Želiv",
          "latitude": "49.52984000",
          "longitude": "15.22181000"
        },
        {
          "name": "Žirovnice",
          "latitude": "49.25318000",
          "longitude": "15.18824000"
        }
      ]
    },
    {
      "name": "Královéhradecký kraj",
      "state_code": "52",
      "latitude": "50.35124840",
      "longitude": "15.79764590",
      "cities": [
        {
          "name": "Albrechtice nad Orlicí",
          "latitude": "50.13979000",
          "longitude": "16.06437000"
        },
        {
          "name": "Bílá Třemešná",
          "latitude": "50.44465000",
          "longitude": "15.74101000"
        },
        {
          "name": "Borohrádek",
          "latitude": "50.09777000",
          "longitude": "16.09326000"
        },
        {
          "name": "Broumov",
          "latitude": "50.58566000",
          "longitude": "16.33181000"
        },
        {
          "name": "Častolovice",
          "latitude": "50.12910000",
          "longitude": "16.18128000"
        },
        {
          "name": "Černilov",
          "latitude": "50.26265000",
          "longitude": "15.92254000"
        },
        {
          "name": "Černožice",
          "latitude": "50.31863000",
          "longitude": "15.87403000"
        },
        {
          "name": "Červený Kostelec",
          "latitude": "50.47626000",
          "longitude": "16.09289000"
        },
        {
          "name": "Česká Skalice",
          "latitude": "50.39467000",
          "longitude": "16.04276000"
        },
        {
          "name": "České Meziříčí",
          "latitude": "50.28680000",
          "longitude": "16.04428000"
        },
        {
          "name": "Chlumec nad Cidlinou",
          "latitude": "50.15440000",
          "longitude": "15.46026000"
        },
        {
          "name": "Dobruška",
          "latitude": "50.29201000",
          "longitude": "16.16001000"
        },
        {
          "name": "Dolní Černilov",
          "latitude": "50.26110000",
          "longitude": "15.96107000"
        },
        {
          "name": "Doudleby nad Orlicí",
          "latitude": "50.10742000",
          "longitude": "16.26131000"
        },
        {
          "name": "Dvůr Králové nad Labem",
          "latitude": "50.43172000",
          "longitude": "15.81402000"
        },
        {
          "name": "Hořice",
          "latitude": "50.36609000",
          "longitude": "15.63183000"
        },
        {
          "name": "Hostinné",
          "latitude": "50.54066000",
          "longitude": "15.72334000"
        },
        {
          "name": "Hradec Králové",
          "latitude": "50.20923000",
          "longitude": "15.83277000"
        },
        {
          "name": "Hronov",
          "latitude": "50.47968000",
          "longitude": "16.18230000"
        },
        {
          "name": "Jaroměř",
          "latitude": "50.35620000",
          "longitude": "15.92136000"
        },
        {
          "name": "Jičín",
          "latitude": "50.43723000",
          "longitude": "15.35162000"
        },
        {
          "name": "Kopidlno",
          "latitude": "50.33085000",
          "longitude": "15.27029000"
        },
        {
          "name": "Kostelec nad Orlicí",
          "latitude": "50.12267000",
          "longitude": "16.21319000"
        },
        {
          "name": "Kvasiny",
          "latitude": "50.21250000",
          "longitude": "16.26323000"
        },
        {
          "name": "Lázně Bělohrad",
          "latitude": "50.42874000",
          "longitude": "15.58269000"
        },
        {
          "name": "Libáň",
          "latitude": "50.37542000",
          "longitude": "15.21684000"
        },
        {
          "name": "Machov",
          "latitude": "50.49927000",
          "longitude": "16.27690000"
        },
        {
          "name": "Malé Svatoňovice",
          "latitude": "50.53395000",
          "longitude": "16.04978000"
        },
        {
          "name": "Meziměstí",
          "latitude": "50.62461000",
          "longitude": "16.24207000"
        },
        {
          "name": "Mladé Buky",
          "latitude": "50.60643000",
          "longitude": "15.83348000"
        },
        {
          "name": "Mostek",
          "latitude": "50.48623000",
          "longitude": "15.69622000"
        },
        {
          "name": "Náchod",
          "latitude": "50.41670000",
          "longitude": "16.16289000"
        },
        {
          "name": "Nechanice",
          "latitude": "50.23737000",
          "longitude": "15.63276000"
        },
        {
          "name": "Nová Paka",
          "latitude": "50.49449000",
          "longitude": "15.51503000"
        },
        {
          "name": "Nové Město nad Metují",
          "latitude": "50.34456000",
          "longitude": "16.15147000"
        },
        {
          "name": "Nový Bydžov",
          "latitude": "50.24150000",
          "longitude": "15.49082000"
        },
        {
          "name": "Okres Hradec Králové",
          "latitude": "50.25000000",
          "longitude": "15.66667000"
        },
        {
          "name": "Okres Jičín",
          "latitude": "50.41667000",
          "longitude": "15.41667000"
        },
        {
          "name": "Okres Náchod",
          "latitude": "50.41667000",
          "longitude": "16.16667000"
        },
        {
          "name": "Okres Rychnov nad Kněžnou",
          "latitude": "50.23333000",
          "longitude": "16.28333000"
        },
        {
          "name": "Okres Trutnov",
          "latitude": "50.58333000",
          "longitude": "15.83333000"
        },
        {
          "name": "Opočno",
          "latitude": "50.26742000",
          "longitude": "16.11480000"
        },
        {
          "name": "Ostroměř",
          "latitude": "50.37246000",
          "longitude": "15.54949000"
        },
        {
          "name": "Pecka",
          "latitude": "50.48034000",
          "longitude": "15.60822000"
        },
        {
          "name": "Pilníkov",
          "latitude": "50.53247000",
          "longitude": "15.82020000"
        },
        {
          "name": "Police nad Metují",
          "latitude": "50.53687000",
          "longitude": "16.23350000"
        },
        {
          "name": "Předměřice nad Labem",
          "latitude": "50.25633000",
          "longitude": "15.81556000"
        },
        {
          "name": "Provodov-Šonov",
          "latitude": "50.38711000",
          "longitude": "16.10797000"
        },
        {
          "name": "Radvanice",
          "latitude": "50.56745000",
          "longitude": "16.06172000"
        },
        {
          "name": "Rokytnice v Orlických Horách",
          "latitude": "50.16473000",
          "longitude": "16.46567000"
        },
        {
          "name": "Rtyně v Podkrkonoší",
          "latitude": "50.50523000",
          "longitude": "16.07187000"
        },
        {
          "name": "Rudník",
          "latitude": "50.59517000",
          "longitude": "15.73362000"
        },
        {
          "name": "Rychnov nad Kněžnou",
          "latitude": "50.16284000",
          "longitude": "16.27488000"
        },
        {
          "name": "Skuhrov nad Bělou",
          "latitude": "50.22946000",
          "longitude": "16.29230000"
        },
        {
          "name": "Smidary",
          "latitude": "50.29146000",
          "longitude": "15.47725000"
        },
        {
          "name": "Smiřice",
          "latitude": "50.29978000",
          "longitude": "15.86508000"
        },
        {
          "name": "Sobotka",
          "latitude": "50.46741000",
          "longitude": "15.17619000"
        },
        {
          "name": "Solnice",
          "latitude": "50.20366000",
          "longitude": "16.23762000"
        },
        {
          "name": "Špindlerův Mlýn",
          "latitude": "50.72615000",
          "longitude": "15.60944000"
        },
        {
          "name": "Stará Paka",
          "latitude": "50.51032000",
          "longitude": "15.49444000"
        },
        {
          "name": "Staré Nechanice",
          "latitude": "50.24298000",
          "longitude": "15.61787000"
        },
        {
          "name": "Stěžery",
          "latitude": "50.21572000",
          "longitude": "15.74831000"
        },
        {
          "name": "Svoboda nad Úpou",
          "latitude": "50.62596000",
          "longitude": "15.81648000"
        },
        {
          "name": "Teplice nad Metují",
          "latitude": "50.59332000",
          "longitude": "16.17026000"
        },
        {
          "name": "Třebechovice pod Orebem",
          "latitude": "50.20097000",
          "longitude": "15.99223000"
        },
        {
          "name": "Trutnov",
          "latitude": "50.56101000",
          "longitude": "15.91270000"
        },
        {
          "name": "Týniště nad Orlicí",
          "latitude": "50.15136000",
          "longitude": "16.07770000"
        },
        {
          "name": "Úpice",
          "latitude": "50.51237000",
          "longitude": "16.01607000"
        },
        {
          "name": "Valdice",
          "latitude": "50.45501000",
          "longitude": "15.38488000"
        },
        {
          "name": "Vamberk",
          "latitude": "50.11756000",
          "longitude": "16.29067000"
        },
        {
          "name": "Velké Poříčí",
          "latitude": "50.46177000",
          "longitude": "16.18931000"
        },
        {
          "name": "Velké Svatoňovice",
          "latitude": "50.53164000",
          "longitude": "16.02853000"
        },
        {
          "name": "Vrchlabí",
          "latitude": "50.62697000",
          "longitude": "15.60937000"
        },
        {
          "name": "Všestary",
          "latitude": "50.25660000",
          "longitude": "15.75983000"
        },
        {
          "name": "Žacléř",
          "latitude": "50.66329000",
          "longitude": "15.91063000"
        },
        {
          "name": "Zadní Mostek",
          "latitude": "50.49670000",
          "longitude": "15.69804000"
        },
        {
          "name": "Železnice",
          "latitude": "50.47274000",
          "longitude": "15.38459000"
        }
      ]
    },
    {
      "name": "Kroměříž",
      "state_code": "721",
      "latitude": "49.29165820",
      "longitude": "17.39938000",
      "cities": []
    },
    {
      "name": "Kutná Hora",
      "state_code": "205",
      "latitude": "49.94920890",
      "longitude": "15.24704400",
      "cities": []
    },
    {
      "name": "Liberec",
      "state_code": "513",
      "latitude": "50.75641010",
      "longitude": "14.99650410",
      "cities": []
    },
    {
      "name": "Liberecký kraj",
      "state_code": "51",
      "latitude": "50.65942400",
      "longitude": "14.76324240",
      "cities": [
        {
          "name": "Benecko",
          "latitude": "50.66633000",
          "longitude": "15.54816000"
        },
        {
          "name": "Brniště",
          "latitude": "50.72919000",
          "longitude": "14.70338000"
        },
        {
          "name": "Česká Lípa",
          "latitude": "50.68551000",
          "longitude": "14.53764000"
        },
        {
          "name": "Český Dub",
          "latitude": "50.66054000",
          "longitude": "14.99617000"
        },
        {
          "name": "Chrastava",
          "latitude": "50.81693000",
          "longitude": "14.96884000"
        },
        {
          "name": "Cvikov",
          "latitude": "50.77668000",
          "longitude": "14.63298000"
        },
        {
          "name": "Desná",
          "latitude": "50.75987000",
          "longitude": "15.30284000"
        },
        {
          "name": "Doksy",
          "latitude": "50.56471000",
          "longitude": "14.65553000"
        },
        {
          "name": "Dubá",
          "latitude": "50.54034000",
          "longitude": "14.54023000"
        },
        {
          "name": "Frýdlant",
          "latitude": "50.92139000",
          "longitude": "15.07974000"
        },
        {
          "name": "Harrachov",
          "latitude": "50.77209000",
          "longitude": "15.43141000"
        },
        {
          "name": "Hejnice",
          "latitude": "50.87720000",
          "longitude": "15.18168000"
        },
        {
          "name": "Hodkovice nad Mohelkou",
          "latitude": "50.66586000",
          "longitude": "15.08985000"
        },
        {
          "name": "Horní Branná",
          "latitude": "50.60826000",
          "longitude": "15.57146000"
        },
        {
          "name": "Hrádek nad Nisou",
          "latitude": "50.85279000",
          "longitude": "14.84455000"
        },
        {
          "name": "Jablonec nad Jizerou",
          "latitude": "50.70347000",
          "longitude": "15.42959000"
        },
        {
          "name": "Jablonec nad Nisou",
          "latitude": "50.72431000",
          "longitude": "15.17108000"
        },
        {
          "name": "Jablonné v Podještědí",
          "latitude": "50.76528000",
          "longitude": "14.76052000"
        },
        {
          "name": "Janov nad Nisou",
          "latitude": "50.77204000",
          "longitude": "15.16913000"
        },
        {
          "name": "Jilemnice",
          "latitude": "50.60890000",
          "longitude": "15.50653000"
        },
        {
          "name": "Josefův Důl",
          "latitude": "50.78191000",
          "longitude": "15.23146000"
        },
        {
          "name": "Kamenický Šenov",
          "latitude": "50.77359000",
          "longitude": "14.47287000"
        },
        {
          "name": "Kořenov",
          "latitude": "50.75926000",
          "longitude": "15.36532000"
        },
        {
          "name": "Košťálov",
          "latitude": "50.57165000",
          "longitude": "15.40403000"
        },
        {
          "name": "Liberec",
          "latitude": "50.76711000",
          "longitude": "15.05619000"
        },
        {
          "name": "Lomnice nad Popelkou",
          "latitude": "50.53062000",
          "longitude": "15.37341000"
        },
        {
          "name": "Lučany nad Nisou",
          "latitude": "50.74136000",
          "longitude": "15.22046000"
        },
        {
          "name": "Malá Skála",
          "latitude": "50.64631000",
          "longitude": "15.19543000"
        },
        {
          "name": "Mimoň",
          "latitude": "50.65869000",
          "longitude": "14.72474000"
        },
        {
          "name": "Mníšek",
          "latitude": "50.83163000",
          "longitude": "15.05630000"
        },
        {
          "name": "Nové Město pod Smrkem",
          "latitude": "50.92491000",
          "longitude": "15.22943000"
        },
        {
          "name": "Nový Bor",
          "latitude": "50.75761000",
          "longitude": "14.55555000"
        },
        {
          "name": "Ohrazenice",
          "latitude": "50.59765000",
          "longitude": "15.12596000"
        },
        {
          "name": "Okres Česká Lípa",
          "latitude": "50.66667000",
          "longitude": "14.66667000"
        },
        {
          "name": "Okres Jablonec nad Nisou",
          "latitude": "50.75000000",
          "longitude": "15.25000000"
        },
        {
          "name": "Okres Liberec",
          "latitude": "50.83333000",
          "longitude": "15.08333000"
        },
        {
          "name": "Okres Semily",
          "latitude": "50.61667000",
          "longitude": "15.41667000"
        },
        {
          "name": "Osečná",
          "latitude": "50.69489000",
          "longitude": "14.92138000"
        },
        {
          "name": "Pěnčín",
          "latitude": "50.68769000",
          "longitude": "15.23593000"
        },
        {
          "name": "Plavy",
          "latitude": "50.70324000",
          "longitude": "15.31736000"
        },
        {
          "name": "Poniklá",
          "latitude": "50.66152000",
          "longitude": "15.46329000"
        },
        {
          "name": "Příšovice",
          "latitude": "50.57813000",
          "longitude": "15.08390000"
        },
        {
          "name": "Raspenava",
          "latitude": "50.90415000",
          "longitude": "15.11465000"
        },
        {
          "name": "Rokytnice nad Jizerou",
          "latitude": "50.72561000",
          "longitude": "15.43357000"
        },
        {
          "name": "Rovensko pod Troskami",
          "latitude": "50.53532000",
          "longitude": "15.25941000"
        },
        {
          "name": "Semily",
          "latitude": "50.60191000",
          "longitude": "15.33552000"
        },
        {
          "name": "Smržovka",
          "latitude": "50.73820000",
          "longitude": "15.24639000"
        },
        {
          "name": "Stráž nad Nisou",
          "latitude": "50.79099000",
          "longitude": "15.02683000"
        },
        {
          "name": "Stráž pod Ralskem",
          "latitude": "50.70280000",
          "longitude": "14.80102000"
        },
        {
          "name": "Studenec",
          "latitude": "50.55344000",
          "longitude": "15.54936000"
        },
        {
          "name": "Tanvald",
          "latitude": "50.73735000",
          "longitude": "15.30585000"
        },
        {
          "name": "Turnov",
          "latitude": "50.58356000",
          "longitude": "15.15186000"
        },
        {
          "name": "Valdice",
          "latitude": "50.58350000",
          "longitude": "15.41248000"
        },
        {
          "name": "Velké Hamry",
          "latitude": "50.71373000",
          "longitude": "15.31539000"
        },
        {
          "name": "Višňova",
          "latitude": "50.96663000",
          "longitude": "15.02495000"
        },
        {
          "name": "Vysoké nad Jizerou",
          "latitude": "50.68559000",
          "longitude": "15.40152000"
        },
        {
          "name": "Zákupy",
          "latitude": "50.68475000",
          "longitude": "14.64522000"
        },
        {
          "name": "Žandov",
          "latitude": "50.71394000",
          "longitude": "14.39623000"
        },
        {
          "name": "Železný Brod",
          "latitude": "50.64274000",
          "longitude": "15.25408000"
        }
      ]
    },
    {
      "name": "Litoměřice",
      "state_code": "423",
      "latitude": "50.53841970",
      "longitude": "14.13054580",
      "cities": []
    },
    {
      "name": "Louny",
      "state_code": "424",
      "latitude": "50.35398120",
      "longitude": "13.80335510",
      "cities": []
    },
    {
      "name": "Mělník",
      "state_code": "206",
      "latitude": "50.31044150",
      "longitude": "14.51792230",
      "cities": []
    },
    {
      "name": "Mladá Boleslav",
      "state_code": "207",
      "latitude": "50.42523170",
      "longitude": "14.93624770",
      "cities": []
    },
    {
      "name": "Moravskoslezský kraj",
      "state_code": "80",
      "latitude": "49.73053270",
      "longitude": "18.23326370",
      "cities": [
        {
          "name": "Albrechtice",
          "latitude": "49.78645000",
          "longitude": "18.52444000"
        },
        {
          "name": "Bartošovice",
          "latitude": "49.66884000",
          "longitude": "18.05461000"
        },
        {
          "name": "Baška",
          "latitude": "49.64584000",
          "longitude": "18.37233000"
        },
        {
          "name": "Bílovec",
          "latitude": "49.75639000",
          "longitude": "18.01581000"
        },
        {
          "name": "Bohumín",
          "latitude": "49.90411000",
          "longitude": "18.35755000"
        },
        {
          "name": "Bohuslavice",
          "latitude": "49.94232000",
          "longitude": "18.12866000"
        },
        {
          "name": "Bolatice",
          "latitude": "49.95172000",
          "longitude": "18.08358000"
        },
        {
          "name": "Brantice",
          "latitude": "50.06351000",
          "longitude": "17.62911000"
        },
        {
          "name": "Březová",
          "latitude": "49.79158000",
          "longitude": "17.86556000"
        },
        {
          "name": "Břidličná",
          "latitude": "49.91167000",
          "longitude": "17.37107000"
        },
        {
          "name": "Brumovice",
          "latitude": "50.01530000",
          "longitude": "17.74958000"
        },
        {
          "name": "Bruntál",
          "latitude": "49.98844000",
          "longitude": "17.46470000"
        },
        {
          "name": "Brušperk",
          "latitude": "49.70010000",
          "longitude": "18.22210000"
        },
        {
          "name": "Budišov nad Budišovkou",
          "latitude": "49.79511000",
          "longitude": "17.62969000"
        },
        {
          "name": "Bukovec",
          "latitude": "49.55114000",
          "longitude": "18.82683000"
        },
        {
          "name": "Bystřice",
          "latitude": "49.63657000",
          "longitude": "18.72038000"
        },
        {
          "name": "Čeladná",
          "latitude": "49.54873000",
          "longitude": "18.33759000"
        },
        {
          "name": "Český Těšín",
          "latitude": "49.74613000",
          "longitude": "18.62613000"
        },
        {
          "name": "Chlebičov",
          "latitude": "49.95942000",
          "longitude": "17.96748000"
        },
        {
          "name": "Chotěbuz",
          "latitude": "49.76849000",
          "longitude": "18.56912000"
        },
        {
          "name": "Chuchelná",
          "latitude": "49.98664000",
          "longitude": "18.11656000"
        },
        {
          "name": "Darkovice",
          "latitude": "49.93592000",
          "longitude": "18.22213000"
        },
        {
          "name": "Dětmarovice",
          "latitude": "49.89412000",
          "longitude": "18.46079000"
        },
        {
          "name": "Dobrá",
          "latitude": "49.67383000",
          "longitude": "18.41393000"
        },
        {
          "name": "Dobratice",
          "latitude": "49.66039000",
          "longitude": "18.49226000"
        },
        {
          "name": "Dolní Benešov",
          "latitude": "49.92101000",
          "longitude": "18.10835000"
        },
        {
          "name": "Dolní Lhota",
          "latitude": "49.84236000",
          "longitude": "18.09241000"
        },
        {
          "name": "Dolní Lutyně",
          "latitude": "49.89876000",
          "longitude": "18.42815000"
        },
        {
          "name": "Dolní Životice",
          "latitude": "49.89732000",
          "longitude": "17.77969000"
        },
        {
          "name": "Doubrava",
          "latitude": "49.85873000",
          "longitude": "18.48018000"
        },
        {
          "name": "Dvorce",
          "latitude": "49.83332000",
          "longitude": "17.54762000"
        },
        {
          "name": "Frenštát pod Radhoštěm",
          "latitude": "49.54835000",
          "longitude": "18.21078000"
        },
        {
          "name": "Fryčovice",
          "latitude": "49.66677000",
          "longitude": "18.22321000"
        },
        {
          "name": "Frýdek-Místek",
          "latitude": "49.68333000",
          "longitude": "18.35000000"
        },
        {
          "name": "Frýdlant nad Ostravicí",
          "latitude": "49.59280000",
          "longitude": "18.35967000"
        },
        {
          "name": "Fulnek",
          "latitude": "49.71238000",
          "longitude": "17.90319000"
        },
        {
          "name": "Háj ve Slezsku",
          "latitude": "49.89856000",
          "longitude": "18.09540000"
        },
        {
          "name": "Hať",
          "latitude": "49.94644000",
          "longitude": "18.23931000"
        },
        {
          "name": "Havířov",
          "latitude": "49.77984000",
          "longitude": "18.43688000"
        },
        {
          "name": "Hlučín",
          "latitude": "49.89795000",
          "longitude": "18.19196000"
        },
        {
          "name": "Hněvošice",
          "latitude": "50.00299000",
          "longitude": "18.00829000"
        },
        {
          "name": "Hnojník",
          "latitude": "49.68250000",
          "longitude": "18.54143000"
        },
        {
          "name": "Hodslavice",
          "latitude": "49.53856000",
          "longitude": "18.02367000"
        },
        {
          "name": "Holasovice",
          "latitude": "49.99843000",
          "longitude": "17.80847000"
        },
        {
          "name": "Horní Benešov",
          "latitude": "49.96682000",
          "longitude": "17.60262000"
        },
        {
          "name": "Horní Bludovice",
          "latitude": "49.74965000",
          "longitude": "18.43677000"
        },
        {
          "name": "Horní Město",
          "latitude": "49.90845000",
          "longitude": "17.21112000"
        },
        {
          "name": "Horní Suchá",
          "latitude": "49.79780000",
          "longitude": "18.48189000"
        },
        {
          "name": "Horní Těrlicko",
          "latitude": "49.75177000",
          "longitude": "18.48290000"
        },
        {
          "name": "Hrabyně",
          "latitude": "49.88249000",
          "longitude": "18.05483000"
        },
        {
          "name": "Hradec nad Moravici",
          "latitude": "49.87042000",
          "longitude": "17.87843000"
        },
        {
          "name": "Hrádek",
          "latitude": "49.61661000",
          "longitude": "18.73720000"
        },
        {
          "name": "Hukvaldy",
          "latitude": "49.62381000",
          "longitude": "18.22189000"
        },
        {
          "name": "Jablunkov",
          "latitude": "49.57672000",
          "longitude": "18.76458000"
        },
        {
          "name": "Jakartovice",
          "latitude": "49.91510000",
          "longitude": "17.68400000"
        },
        {
          "name": "Janovice",
          "latitude": "49.62141000",
          "longitude": "18.40602000"
        },
        {
          "name": "Jeseník nad Odrou",
          "latitude": "49.61194000",
          "longitude": "17.90526000"
        },
        {
          "name": "Jindřichov",
          "latitude": "50.25184000",
          "longitude": "17.51903000"
        },
        {
          "name": "Jistebník",
          "latitude": "49.75400000",
          "longitude": "18.13063000"
        },
        {
          "name": "Karlovice",
          "latitude": "50.10564000",
          "longitude": "17.44563000"
        },
        {
          "name": "Karviná",
          "latitude": "49.85400000",
          "longitude": "18.54169000"
        },
        {
          "name": "Klimkovice",
          "latitude": "49.78809000",
          "longitude": "18.12585000"
        },
        {
          "name": "Kobeřice",
          "latitude": "49.98548000",
          "longitude": "18.05212000"
        },
        {
          "name": "Komorní Lhotka",
          "latitude": "49.65811000",
          "longitude": "18.52777000"
        },
        {
          "name": "Kopřivnice",
          "latitude": "49.59947000",
          "longitude": "18.14480000"
        },
        {
          "name": "Kozlovice",
          "latitude": "49.59040000",
          "longitude": "18.25656000"
        },
        {
          "name": "Kozmice",
          "latitude": "49.91280000",
          "longitude": "18.15584000"
        },
        {
          "name": "Kravaře",
          "latitude": "49.93203000",
          "longitude": "18.00472000"
        },
        {
          "name": "Krmelín",
          "latitude": "49.72914000",
          "longitude": "18.23541000"
        },
        {
          "name": "Krnov",
          "latitude": "50.08967000",
          "longitude": "17.70385000"
        },
        {
          "name": "Kunčice pod Ondřejníkem",
          "latitude": "49.55070000",
          "longitude": "18.26113000"
        },
        {
          "name": "Kunín",
          "latitude": "49.63377000",
          "longitude": "17.98965000"
        },
        {
          "name": "Lichnov",
          "latitude": "50.00786000",
          "longitude": "17.62640000"
        },
        {
          "name": "Lichnov (o. Nový Jičín)",
          "latitude": "49.56423000",
          "longitude": "18.16898000"
        },
        {
          "name": "Lučina",
          "latitude": "49.72082000",
          "longitude": "18.44776000"
        },
        {
          "name": "Ludgeřovice",
          "latitude": "49.89042000",
          "longitude": "18.24008000"
        },
        {
          "name": "Markvartovice",
          "latitude": "49.90595000",
          "longitude": "18.23602000"
        },
        {
          "name": "Město Albrechtice",
          "latitude": "50.16294000",
          "longitude": "17.57481000"
        },
        {
          "name": "Metylovice",
          "latitude": "49.60666000",
          "longitude": "18.33911000"
        },
        {
          "name": "Milíkov",
          "latitude": "49.58565000",
          "longitude": "18.71943000"
        },
        {
          "name": "Mokré Lazce",
          "latitude": "49.90462000",
          "longitude": "18.02954000"
        },
        {
          "name": "Morávka",
          "latitude": "49.59607000",
          "longitude": "18.52471000"
        },
        {
          "name": "Mořkov",
          "latitude": "49.53684000",
          "longitude": "18.05968000"
        },
        {
          "name": "Mosty u Jablunkova",
          "latitude": "49.52737000",
          "longitude": "18.75417000"
        },
        {
          "name": "Návsí u Jablunkova",
          "latitude": "49.58720000",
          "longitude": "18.75907000"
        },
        {
          "name": "Nový Jičín",
          "latitude": "49.59438000",
          "longitude": "18.01028000"
        },
        {
          "name": "Nýdek",
          "latitude": "49.65609000",
          "longitude": "18.75687000"
        },
        {
          "name": "Odry",
          "latitude": "49.66255000",
          "longitude": "17.83084000"
        },
        {
          "name": "Okres Bruntál",
          "latitude": "50.00000000",
          "longitude": "17.41667000"
        },
        {
          "name": "Okres Frýdek-Místek",
          "latitude": "49.58333000",
          "longitude": "18.50000000"
        },
        {
          "name": "Okres Karviná",
          "latitude": "49.83333000",
          "longitude": "18.50000000"
        },
        {
          "name": "Okres Nový Jičín",
          "latitude": "49.66667000",
          "longitude": "18.00000000"
        },
        {
          "name": "Okres Opava",
          "latitude": "49.83333000",
          "longitude": "17.91667000"
        },
        {
          "name": "Okres Ostrava-město",
          "latitude": "49.83333000",
          "longitude": "18.25000000"
        },
        {
          "name": "Oldřišov",
          "latitude": "49.99130000",
          "longitude": "17.96074000"
        },
        {
          "name": "Opava",
          "latitude": "49.93866000",
          "longitude": "17.90257000"
        },
        {
          "name": "Orlová",
          "latitude": "49.84527000",
          "longitude": "18.43011000"
        },
        {
          "name": "Osoblaha",
          "latitude": "50.27517000",
          "longitude": "17.71523000"
        },
        {
          "name": "Ostrava",
          "latitude": "49.83465000",
          "longitude": "18.28204000"
        },
        {
          "name": "Ostravice",
          "latitude": "49.53510000",
          "longitude": "18.39164000"
        },
        {
          "name": "Otice",
          "latitude": "49.91684000",
          "longitude": "17.86982000"
        },
        {
          "name": "Palkovice",
          "latitude": "49.63467000",
          "longitude": "18.31508000"
        },
        {
          "name": "Paskov",
          "latitude": "49.73179000",
          "longitude": "18.29037000"
        },
        {
          "name": "Petrovice u Karviné",
          "latitude": "49.89587000",
          "longitude": "18.54779000"
        },
        {
          "name": "Petřvald",
          "latitude": "49.83100000",
          "longitude": "18.38940000"
        },
        {
          "name": "Písek",
          "latitude": "49.55924000",
          "longitude": "18.80231000"
        },
        {
          "name": "Píšť",
          "latitude": "49.97857000",
          "longitude": "18.19349000"
        },
        {
          "name": "Pražmo",
          "latitude": "49.60876000",
          "longitude": "18.48617000"
        },
        {
          "name": "Příbor",
          "latitude": "49.64094000",
          "longitude": "18.14499000"
        },
        {
          "name": "Pustá Polom",
          "latitude": "49.84917000",
          "longitude": "17.99790000"
        },
        {
          "name": "Raškovice",
          "latitude": "49.61975000",
          "longitude": "18.47286000"
        },
        {
          "name": "Řepiště",
          "latitude": "49.73338000",
          "longitude": "18.31707000"
        },
        {
          "name": "Ropice",
          "latitude": "49.70536000",
          "longitude": "18.61345000"
        },
        {
          "name": "Rybí",
          "latitude": "49.60073000",
          "longitude": "18.07592000"
        },
        {
          "name": "Rychvald",
          "latitude": "49.86625000",
          "longitude": "18.37626000"
        },
        {
          "name": "Rýmařov",
          "latitude": "49.93183000",
          "longitude": "17.27177000"
        },
        {
          "name": "Sedliště",
          "latitude": "49.71836000",
          "longitude": "18.36869000"
        },
        {
          "name": "Sedlnice",
          "latitude": "49.65770000",
          "longitude": "18.08690000"
        },
        {
          "name": "Šenov",
          "latitude": "49.79315000",
          "longitude": "18.37607000"
        },
        {
          "name": "Šilheřovice",
          "latitude": "49.92602000",
          "longitude": "18.27017000"
        },
        {
          "name": "Slavkov",
          "latitude": "49.92180000",
          "longitude": "17.83641000"
        },
        {
          "name": "Stará Ves nad Ondřejnicí",
          "latitude": "49.72775000",
          "longitude": "18.18850000"
        },
        {
          "name": "Staré Město",
          "latitude": "49.66992000",
          "longitude": "18.36349000"
        },
        {
          "name": "Staříč",
          "latitude": "49.68594000",
          "longitude": "18.27281000"
        },
        {
          "name": "Starý Bohumín",
          "latitude": "49.91690000",
          "longitude": "18.33619000"
        },
        {
          "name": "Starý Jičín",
          "latitude": "49.57686000",
          "longitude": "17.96169000"
        },
        {
          "name": "Stěbořice",
          "latitude": "49.93708000",
          "longitude": "17.80547000"
        },
        {
          "name": "Štěpánkovice",
          "latitude": "49.95738000",
          "longitude": "18.03741000"
        },
        {
          "name": "Štítina",
          "latitude": "49.91487000",
          "longitude": "18.01245000"
        },
        {
          "name": "Stonava",
          "latitude": "49.81691000",
          "longitude": "18.52518000"
        },
        {
          "name": "Štramberk",
          "latitude": "49.59181000",
          "longitude": "18.11741000"
        },
        {
          "name": "Studénka",
          "latitude": "49.72342000",
          "longitude": "18.07853000"
        },
        {
          "name": "Sviadnov",
          "latitude": "49.68926000",
          "longitude": "18.32762000"
        },
        {
          "name": "Tichá",
          "latitude": "49.56999000",
          "longitude": "18.22148000"
        },
        {
          "name": "Třinec",
          "latitude": "49.67763000",
          "longitude": "18.67078000"
        },
        {
          "name": "Trojanovice",
          "latitude": "49.52039000",
          "longitude": "18.23800000"
        },
        {
          "name": "Václavovice",
          "latitude": "49.75531000",
          "longitude": "18.37220000"
        },
        {
          "name": "Velká Polom",
          "latitude": "49.86359000",
          "longitude": "18.09331000"
        },
        {
          "name": "Velké Heraltice",
          "latitude": "49.97493000",
          "longitude": "17.72879000"
        },
        {
          "name": "Velké Hoštice",
          "latitude": "49.93609000",
          "longitude": "17.97380000"
        },
        {
          "name": "Vendryně",
          "latitude": "49.66662000",
          "longitude": "18.71307000"
        },
        {
          "name": "Veřovice",
          "latitude": "49.53916000",
          "longitude": "18.11425000"
        },
        {
          "name": "Vítkov",
          "latitude": "49.77445000",
          "longitude": "17.74941000"
        },
        {
          "name": "Vlčnov",
          "latitude": "49.57866000",
          "longitude": "17.95458000"
        },
        {
          "name": "Vratimov",
          "latitude": "49.76995000",
          "longitude": "18.31015000"
        },
        {
          "name": "Vrbice",
          "latitude": "49.88333000",
          "longitude": "18.31667000"
        },
        {
          "name": "Vrbno pod Pradědem",
          "latitude": "50.12095000",
          "longitude": "17.38316000"
        },
        {
          "name": "Vřesina",
          "latitude": "49.82418000",
          "longitude": "18.12569000"
        },
        {
          "name": "Zátor",
          "latitude": "50.03413000",
          "longitude": "17.59296000"
        }
      ]
    },
    {
      "name": "Most",
      "state_code": "425",
      "latitude": "37.15540830",
      "longitude": "-94.29488840",
      "cities": []
    },
    {
      "name": "Náchod",
      "state_code": "523",
      "latitude": "50.41457220",
      "longitude": "16.16563470",
      "cities": []
    },
    {
      "name": "Nový Jičín",
      "state_code": "804",
      "latitude": "49.59432510",
      "longitude": "18.01353560",
      "cities": []
    },
    {
      "name": "Nymburk",
      "state_code": "208",
      "latitude": "50.18558160",
      "longitude": "15.04366040",
      "cities": []
    },
    {
      "name": "Olomouc",
      "state_code": "712",
      "latitude": "49.59377800",
      "longitude": "17.25087870",
      "cities": []
    },
    {
      "name": "Olomoucký kraj",
      "state_code": "71",
      "latitude": "49.65865490",
      "longitude": "17.08114060",
      "cities": [
        {
          "name": "Bedihošť",
          "latitude": "49.44826000",
          "longitude": "17.16643000"
        },
        {
          "name": "Bělotín",
          "latitude": "49.59120000",
          "longitude": "17.80654000"
        },
        {
          "name": "Bílá Lhota",
          "latitude": "49.70953000",
          "longitude": "16.97507000"
        },
        {
          "name": "Bludov",
          "latitude": "49.94080000",
          "longitude": "16.92849000"
        },
        {
          "name": "Bohuňovice",
          "latitude": "49.66301000",
          "longitude": "17.28693000"
        },
        {
          "name": "Bouzov",
          "latitude": "49.70426000",
          "longitude": "16.89288000"
        },
        {
          "name": "Brodek u Přerova",
          "latitude": "49.48419000",
          "longitude": "17.33825000"
        },
        {
          "name": "Čelechovice na Hané",
          "latitude": "49.51626000",
          "longitude": "17.09379000"
        },
        {
          "name": "Červenka",
          "latitude": "49.72068000",
          "longitude": "17.07773000"
        },
        {
          "name": "Česká Ves",
          "latitude": "50.25736000",
          "longitude": "17.22805000"
        },
        {
          "name": "Dolany",
          "latitude": "49.64987000",
          "longitude": "17.32240000"
        },
        {
          "name": "Dolní Bohdíkov",
          "latitude": "50.00996000",
          "longitude": "16.90433000"
        },
        {
          "name": "Dolní Studénky",
          "latitude": "49.93506000",
          "longitude": "16.97107000"
        },
        {
          "name": "Dolní Újezd",
          "latitude": "49.54597000",
          "longitude": "17.53547000"
        },
        {
          "name": "Doloplazy",
          "latitude": "49.56876000",
          "longitude": "17.41393000"
        },
        {
          "name": "Drahanovice",
          "latitude": "49.57856000",
          "longitude": "17.07701000"
        },
        {
          "name": "Dřevohostice",
          "latitude": "49.42594000",
          "longitude": "17.59204000"
        },
        {
          "name": "Dub nad Moravou",
          "latitude": "49.48249000",
          "longitude": "17.27723000"
        },
        {
          "name": "Dubicko",
          "latitude": "49.82806000",
          "longitude": "16.96266000"
        },
        {
          "name": "Grygov",
          "latitude": "49.53841000",
          "longitude": "17.30887000"
        },
        {
          "name": "Hanušovice",
          "latitude": "50.08049000",
          "longitude": "16.93641000"
        },
        {
          "name": "Hlubočky",
          "latitude": "49.61783000",
          "longitude": "17.39436000"
        },
        {
          "name": "Hněvotín",
          "latitude": "49.57205000",
          "longitude": "17.17954000"
        },
        {
          "name": "Horka nad Moravou",
          "latitude": "49.64009000",
          "longitude": "17.21070000"
        },
        {
          "name": "Horní Moštěnice",
          "latitude": "49.41213000",
          "longitude": "17.45879000"
        },
        {
          "name": "Horní Štěpánov",
          "latitude": "49.54901000",
          "longitude": "16.79078000"
        },
        {
          "name": "Hranice",
          "latitude": "49.54796000",
          "longitude": "17.73469000"
        },
        {
          "name": "Hustopeče Nad Bečvou",
          "latitude": "49.53053000",
          "longitude": "17.86994000"
        },
        {
          "name": "Javorník",
          "latitude": "50.39077000",
          "longitude": "17.00272000"
        },
        {
          "name": "Jeseník",
          "latitude": "50.22937000",
          "longitude": "17.20464000"
        },
        {
          "name": "Kojetín",
          "latitude": "49.35179000",
          "longitude": "17.30207000"
        },
        {
          "name": "Kokory",
          "latitude": "49.49482000",
          "longitude": "17.37544000"
        },
        {
          "name": "Konice",
          "latitude": "49.59030000",
          "longitude": "16.88911000"
        },
        {
          "name": "Kostelec na Hané",
          "latitude": "49.51398000",
          "longitude": "17.05824000"
        },
        {
          "name": "Kralice na Hané",
          "latitude": "49.46296000",
          "longitude": "17.18048000"
        },
        {
          "name": "Leština",
          "latitude": "49.86879000",
          "longitude": "16.92748000"
        },
        {
          "name": "Lipník nad Bečvou",
          "latitude": "49.52721000",
          "longitude": "17.58594000"
        },
        {
          "name": "Litovel",
          "latitude": "49.70121000",
          "longitude": "17.07615000"
        },
        {
          "name": "Loštice",
          "latitude": "49.74470000",
          "longitude": "16.92892000"
        },
        {
          "name": "Loučná nad Desnou",
          "latitude": "50.07433000",
          "longitude": "17.09052000"
        },
        {
          "name": "Lutín",
          "latitude": "49.55845000",
          "longitude": "17.13572000"
        },
        {
          "name": "Majetín",
          "latitude": "49.49808000",
          "longitude": "17.33314000"
        },
        {
          "name": "Medlov",
          "latitude": "49.78754000",
          "longitude": "17.06261000"
        },
        {
          "name": "Město Libavá",
          "latitude": "49.72162000",
          "longitude": "17.52013000"
        },
        {
          "name": "Mikulovice",
          "latitude": "50.29854000",
          "longitude": "17.32155000"
        },
        {
          "name": "Mohelnice",
          "latitude": "49.77698000",
          "longitude": "16.91946000"
        },
        {
          "name": "Moravičany",
          "latitude": "49.75694000",
          "longitude": "16.96042000"
        },
        {
          "name": "Moravský Beroun",
          "latitude": "49.79374000",
          "longitude": "17.44212000"
        },
        {
          "name": "Mostkovice",
          "latitude": "49.47215000",
          "longitude": "17.05212000"
        },
        {
          "name": "Náklo",
          "latitude": "49.65462000",
          "longitude": "17.12969000"
        },
        {
          "name": "Náměšť na Hané",
          "latitude": "49.60213000",
          "longitude": "17.06539000"
        },
        {
          "name": "Němčice nad Hanou",
          "latitude": "49.34181000",
          "longitude": "17.20596000"
        },
        {
          "name": "Nezamyslice",
          "latitude": "49.32543000",
          "longitude": "17.17326000"
        },
        {
          "name": "Nový Malín",
          "latitude": "49.94262000",
          "longitude": "17.03191000"
        },
        {
          "name": "Okres Jeseník",
          "latitude": "50.25000000",
          "longitude": "17.16667000"
        },
        {
          "name": "Okres Olomouc",
          "latitude": "49.66667000",
          "longitude": "17.25000000"
        },