{
  "code": "DE",
  "states": [
    {
      "name": "Baden-Württemberg",
      "state_code": "BW",
      "latitude": "48.66160370",
      "longitude": "9.35013360",
      "cities": [
        {
          "name": "Aach",
          "latitude": "47.84240000",
          "longitude": "8.85384000"
        },
        {
          "name": "Aalen",
          "latitude": "48.83777000",
          "longitude": "10.09330000"
        },
        {
          "name": "Abstatt",
          "latitude": "49.06820000",
          "longitude": "9.29070000"
        },
        {
          "name": "Abtsgmünd",
          "latitude": "48.89503000",
          "longitude": "10.00172000"
        },
        {
          "name": "Achern",
          "latitude": "48.63115000",
          "longitude": "8.07607000"
        },
        {
          "name": "Achstetten",
          "latitude": "48.25886000",
          "longitude": "9.89748000"
        },
        {
          "name": "Adelberg",
          "latitude": "48.76227000",
          "longitude": "9.59991000"
        },
        {
          "name": "Adelmannsfelden",
          "latitude": "48.95476000",
          "longitude": "10.00466000"
        },
        {
          "name": "Adelsheim",
          "latitude": "49.40150000",
          "longitude": "9.39250000"
        },
        {
          "name": "Affalterbach",
          "latitude": "48.92267000",
          "longitude": "9.32362000"
        },
        {
          "name": "Aglasterhausen",
          "latitude": "49.35694000",
          "longitude": "8.98694000"
        },
        {
          "name": "Aichelberg",
          "latitude": "48.63557000",
          "longitude": "9.56373000"
        },
        {
          "name": "Aichhalden",
          "latitude": "48.26719000",
          "longitude": "8.40233000"
        },
        {
          "name": "Aichstetten",
          "latitude": "47.89295000",
          "longitude": "10.07837000"
        },
        {
          "name": "Aidlingen",
          "latitude": "48.67849000",
          "longitude": "8.89524000"
        },
        {
          "name": "Aitrach",
          "latitude": "47.93333000",
          "longitude": "10.08333000"
        },
        {
          "name": "Albbruck",
          "latitude": "47.59077000",
          "longitude": "8.12954000"
        },
        {
          "name": "Albershausen",
          "latitude": "48.69136000",
          "longitude": "9.56493000"
        },
        {
          "name": "Albstadt",
          "latitude": "48.21644000",
          "longitude": "9.02596000"
        },
        {
          "name": "Aldingen",
          "latitude": "48.10000000",
          "longitude": "8.70000000"
        },
        {
          "name": "Alfdorf",
          "latitude": "48.84385000",
          "longitude": "9.71857000"
        },
        {
          "name": "Allensbach",
          "latitude": "47.71536000",
          "longitude": "9.07145000"
        },
        {
          "name": "Allmendingen",
          "latitude": "48.33052000",
          "longitude": "9.72419000"
        },
        {
          "name": "Allmersbach im Tal",
          "latitude": "48.90659000",
          "longitude": "9.46815000"
        },
        {
          "name": "Alpirsbach",
          "latitude": "48.34507000",
          "longitude": "8.40197000"
        },
        {
          "name": "Altbach",
          "latitude": "48.72268000",
          "longitude": "9.38078000"
        },
        {
          "name": "Altdorf",
          "latitude": "48.63112000",
          "longitude": "8.99626000"
        },
        {
          "name": "Altenriet",
          "latitude": "48.59140000",
          "longitude": "9.22186000"
        },
        {
          "name": "Altensteig",
          "latitude": "48.58649000",
          "longitude": "8.60395000"
        },
        {
          "name": "Altes Lager",
          "latitude": "48.41755000",
          "longitude": "9.53606000"
        },
        {
          "name": "Althengstett",
          "latitude": "48.72325000",
          "longitude": "8.79434000"
        },
        {
          "name": "Althütte",
          "latitude": "48.91565000",
          "longitude": "9.56984000"
        },
        {
          "name": "Altlußheim",
          "latitude": "49.30167000",
          "longitude": "8.49917000"
        },
        {
          "name": "Altshausen",
          "latitude": "47.93333000",
          "longitude": "9.53333000"
        },
        {
          "name": "Amstetten",
          "latitude": "48.57876000",
          "longitude": "9.87388000"
        },
        {
          "name": "Amtzell",
          "latitude": "47.70000000",
          "longitude": "9.75000000"
        },
        {
          "name": "Aspach",
          "latitude": "48.96667000",
          "longitude": "9.40000000"
        },
        {
          "name": "Asperg",
          "latitude": "48.90525000",
          "longitude": "9.13502000"
        },
        {
          "name": "Assamstadt",
          "latitude": "49.42806000",
          "longitude": "9.68611000"
        },
        {
          "name": "Asselfingen",
          "latitude": "48.52959000",
          "longitude": "10.19166000"
        },
        {
          "name": "Attenweiler",
          "latitude": "48.13333000",
          "longitude": "9.70000000"
        },
        {
          "name": "Au",
          "latitude": "47.95000000",
          "longitude": "7.83333000"
        },
        {
          "name": "Au am Rhein",
          "latitude": "48.95000000",
          "longitude": "8.23333000"
        },
        {
          "name": "Auggen",
          "latitude": "47.78333000",
          "longitude": "7.60000000"
        },
        {
          "name": "Aulendorf",
          "latitude": "47.95083000",
          "longitude": "9.63745000"
        },
        {
          "name": "Backnang",
          "latitude": "48.94743000",
          "longitude": "9.43718000"
        },
        {
          "name": "Bad Bellingen",
          "latitude": "47.73147000",
          "longitude": "7.55756000"
        },
        {
          "name": "Bad Buchau",
          "latitude": "48.06231000",
          "longitude": "9.61244000"
        },
        {
          "name": "Bad Ditzenbach",
          "latitude": "48.58830000",
          "longitude": "9.70393000"
        },
        {
          "name": "Bad Dürrheim",
          "latitude": "48.02093000",
          "longitude": "8.53056000"
        },
        {
          "name": "Bad Herrenalb",
          "latitude": "48.79787000",
          "longitude": "8.43617000"
        },
        {
          "name": "Bad Liebenzell",
          "latitude": "48.77427000",
          "longitude": "8.72971000"
        },
        {
          "name": "Bad Mergentheim",
          "latitude": "49.49250000",
          "longitude": "9.77361000"
        },
        {
          "name": "Bad Peterstal-Griesbach",
          "latitude": "48.43333000",
          "longitude": "8.21667000"
        },
        {
          "name": "Bad Rappenau",
          "latitude": "49.23848000",
          "longitude": "9.10180000"
        },
        {
          "name": "Bad Rippoldsau-Schapbach",
          "latitude": "48.42883000",
          "longitude": "8.32584000"
        },
        {
          "name": "Bad Säckingen",
          "latitude": "47.55371000",
          "longitude": "7.94612000"
        },
        {
          "name": "Bad Schussenried",
          "latitude": "48.00468000",
          "longitude": "9.65741000"
        },
        {
          "name": "Bad Teinach-Zavelstein",
          "latitude": "48.69051000",
          "longitude": "8.69285000"
        },
        {
          "name": "Bad Überkingen",
          "latitude": "48.59991000",
          "longitude": "9.79586000"
        },
        {
          "name": "Bad Urach",
          "latitude": "48.49107000",
          "longitude": "9.40009000"
        },
        {
          "name": "Bad Waldsee",
          "latitude": "47.92027000",
          "longitude": "9.75490000"
        },
        {
          "name": "Bad Wildbad",
          "latitude": "48.75071000",
          "longitude": "8.55040000"
        },
        {
          "name": "Bad Wimpfen",
          "latitude": "49.22971000",
          "longitude": "9.15648000"
        },
        {
          "name": "Bad Wurzach",
          "latitude": "47.90799000",
          "longitude": "9.89686000"
        },
        {
          "name": "Baden-Baden",
          "latitude": "48.76060000",
          "longitude": "8.23975000"
        },
        {
          "name": "Badenweiler",
          "latitude": "47.80223000",
          "longitude": "7.67236000"
        },
        {
          "name": "Bahlingen",
          "latitude": "48.12064000",
          "longitude": "7.73982000"
        },
        {
          "name": "Baienfurt",
          "latitude": "47.82857000",
          "longitude": "9.65157000"
        },
        {
          "name": "Baiersbronn",
          "latitude": "48.50318000",
          "longitude": "8.37699000"
        },
        {
          "name": "Baindt",
          "latitude": "47.85000000",
          "longitude": "9.66667000"
        },
        {
          "name": "Balingen",
          "latitude": "48.27525000",
          "longitude": "8.85464000"
        },
        {
          "name": "Baltmannsweiler",
          "latitude": "48.74215000",
          "longitude": "9.44940000"
        },
        {
          "name": "Balzfeld",
          "latitude": "49.26892000",
          "longitude": "8.78919000"
        },
        {
          "name": "Bammental",
          "latitude": "49.35611000",
          "longitude": "8.77944000"
        },
        {
          "name": "Bartholomä",
          "latitude": "48.75350000",
          "longitude": "9.98752000"
        },
        {
          "name": "Beilstein",
          "latitude": "49.04140000",
          "longitude": "9.31370000"
        },
        {
          "name": "Beimerstetten",
          "latitude": "48.48333000",
          "longitude": "9.98333000"
        },
        {
          "name": "Bempflingen",
          "latitude": "48.57178000",
          "longitude": "9.26834000"
        },
        {
          "name": "Benningen am Neckar",
          "latitude": "48.94672000",
          "longitude": "9.24212000"
        },
        {
          "name": "Bergatreute",
          "latitude": "47.85000000",
          "longitude": "9.75000000"
        },
        {
          "name": "Berghaupten",
          "latitude": "48.40602000",
          "longitude": "7.98672000"
        },
        {
          "name": "Berghülen",
          "latitude": "48.46399000",
          "longitude": "9.76110000"
        },
        {
          "name": "Berkheim",
          "latitude": "48.04263000",
          "longitude": "10.08227000"
        },
        {
          "name": "Bermatingen",
          "latitude": "47.73333000",
          "longitude": "9.35000000"
        },
        {
          "name": "Bernau",
          "latitude": "47.80018000",
          "longitude": "8.03830000"
        },
        {
          "name": "Bernstadt",
          "latitude": "48.49957000",
          "longitude": "10.02575000"
        },
        {
          "name": "Besigheim",
          "latitude": "48.99797000",
          "longitude": "9.14268000"
        },
        {
          "name": "Beuren",
          "latitude": "48.56927000",
          "longitude": "9.40406000"
        },
        {
          "name": "Biberach",
          "latitude": "48.61008000",
          "longitude": "8.27704000"
        },
        {
          "name": "Biberach an der Riß",
          "latitude": "48.09345000",
          "longitude": "9.79053000"
        },
        {
          "name": "Bietigheim",
          "latitude": "48.90919000",
          "longitude": "8.25202000"
        },
        {
          "name": "Bietigheim-Bissingen",
          "latitude": "48.94407000",
          "longitude": "9.11755000"
        },
        {
          "name": "Billigheim",
          "latitude": "49.34861000",
          "longitude": "9.25389000"
        },
        {
          "name": "Binau",
          "latitude": "49.36833000",
          "longitude": "9.05806000"
        },
        {
          "name": "Bingen",
          "latitude": "48.11127000",
          "longitude": "9.27238000"
        },
        {
          "name": "Binzen",
          "latitude": "47.63333000",
          "longitude": "7.61667000"
        },
        {
          "name": "Birenbach",
          "latitude": "48.74732000",
          "longitude": "9.66115000"
        },
        {
          "name": "Birkenfeld",
          "latitude": "48.86667000",
          "longitude": "8.63333000"
        },
        {
          "name": "Bischweier",
          "latitude": "48.83766000",
          "longitude": "8.28412000"
        },
        {
          "name": "Bisingen",
          "latitude": "48.31012000",
          "longitude": "8.91738000"
        },
        {
          "name": "Bissingen an der Teck",
          "latitude": "48.59915000",
          "longitude": "9.49146000"
        },
        {
          "name": "Bitz",
          "latitude": "48.24400000",
          "longitude": "9.09144000"
        },
        {
          "name": "Blaubeuren",
          "latitude": "48.41215000",
          "longitude": "9.78427000"
        },
        {
          "name": "Blaufelden",
          "latitude": "49.29778000",
          "longitude": "9.97389000"
        },
        {
          "name": "Blumberg",
          "latitude": "47.84058000",
          "longitude": "8.53329000"
        },
        {
          "name": "Böbingen an der Rems",
          "latitude": "48.81955000",
          "longitude": "9.92130000"
        },
        {
          "name": "Böblingen",
          "latitude": "48.68212000",
          "longitude": "9.01171000"
        },
        {
          "name": "Bodelshausen",
          "latitude": "48.38886000",
          "longitude": "8.97703000"
        },
        {
          "name": "Bodman-Ludwigshafen",
          "latitude": "47.81817000",
          "longitude": "9.05540000"
        },
        {
          "name": "Bodnegg",
          "latitude": "47.71014000",
          "longitude": "9.68841000"
        },
        {
          "name": "Böhmenkirch",
          "latitude": "48.68333000",
          "longitude": "9.93333000"
        },
        {
          "name": "Bolheim",
          "latitude": "48.63141000",
          "longitude": "10.14995000"
        },
        {
          "name": "Boll",
          "latitude": "48.64357000",
          "longitude": "9.61295000"
        },
        {
          "name": "Bollschweil",
          "latitude": "47.92143000",
          "longitude": "7.78986000"
        },
        {
          "name": "Bondorf",
          "latitude": "48.52064000",
          "longitude": "8.83704000"
        },
        {
          "name": "Bonndorf",
          "latitude": "47.81863000",
          "longitude": "8.34139000"
        },
        {
          "name": "Bönnigheim",
          "latitude": "49.04018000",
          "longitude": "9.09386000"
        },
        {
          "name": "Bopfingen",
          "latitude": "48.85847000",
          "longitude": "10.35417000"
        },
        {
          "name": "Börtlingen",
          "latitude": "48.75376000",
          "longitude": "9.63181000"
        },
        {
          "name": "Bösingen",
          "latitude": "48.23333000",
          "longitude": "8.55000000"
        },
        {
          "name": "Böttingen",
          "latitude": "48.10000000",
          "longitude": "8.80000000"
        },
        {
          "name": "Bötzingen",
          "latitude": "48.07642000",
          "longitude": "7.72485000"
        },
        {
          "name": "Boxberg",
          "latitude": "49.47965000",
          "longitude": "9.64006000"
        },
        {
          "name": "Brackenheim",
          "latitude": "49.07787000",
          "longitude": "9.06601000"
        },
        {
          "name": "Bräunlingen",
          "latitude": "47.92957000",
          "longitude": "8.44806000"
        },
        {
          "name": "Braunsbach",
          "latitude": "49.19917000",
          "longitude": "9.79056000"
        },
        {
          "name": "Breisach am Rhein",
          "latitude": "48.03279000",
          "longitude": "7.58294000"
        },
        {
          "name": "Breitnau",
          "latitude": "47.93333000",
          "longitude": "8.08333000"
        },
        {
          "name": "Bretten",
          "latitude": "49.03685000",
          "longitude": "8.70745000"
        },
        {
          "name": "Bretzfeld",
          "latitude": "49.17944000",
          "longitude": "9.43833000"
        },
        {
          "name": "Bruchsal",
          "latitude": "49.12426000",
          "longitude": "8.59804000"
        },
        {
          "name": "Brühl",
          "latitude": "49.39722000",
          "longitude": "8.53361000"
        },
        {
          "name": "Bubsheim",
          "latitude": "48.11667000",
          "longitude": "8.83333000"
        },
        {
          "name": "Buch am Ahorn",
          "latitude": "49.53909000",
          "longitude": "9.55560000"
        },
        {
          "name": "Buchen in Odenwald",
          "latitude": "49.52416000",
          "longitude": "9.32293000"
        },
        {
          "name": "Buchenbach",
          "latitude": "47.96138000",
          "longitude": "8.00909000"
        },
        {
          "name": "Buggingen",
          "latitude": "47.84750000",
          "longitude": "7.63799000"
        },
        {
          "name": "Bühl",
          "latitude": "48.69676000",
          "longitude": "8.13523000"
        },
        {
          "name": "Bühlertal",
          "latitude": "48.68569000",
          "longitude": "8.18876000"
        },
        {
          "name": "Bühlertann",
          "latitude": "49.04167000",
          "longitude": "9.90861000"
        },
        {
          "name": "Bühlerzell",
          "latitude": "49.00333000",
          "longitude": "9.92056000"
        },
        {
          "name": "Burgrieden",
          "latitude": "48.23333000",
          "longitude": "9.93333000"
        },
        {
          "name": "Burgstetten",
          "latitude": "48.92805000",
          "longitude": "9.37239000"
        },
        {
          "name": "Burladingen",
          "latitude": "48.29111000",
          "longitude": "9.11286000"
        },
        {
          "name": "Büsingen",
          "latitude": "47.69638000",
          "longitude": "8.68759000"
        },
        {
          "name": "Calw",
          "latitude": "48.71419000",
          "longitude": "8.74031000"
        },
        {
          "name": "Cleebronn",
          "latitude": "49.04500000",
          "longitude": "9.03694000"
        },
        {
          "name": "Crailsheim",
          "latitude": "49.13444000",
          "longitude": "10.07193000"
        },
        {
          "name": "Creglingen",
          "latitude": "49.46937000",
          "longitude": "10.03119000"
        },
        {
          "name": "Daisendorf",
          "latitude": "47.71265000",
          "longitude": "9.26783000"
        },
        {
          "name": "Dauchingen",
          "latitude": "48.08993000",
          "longitude": "8.55011000"
        },
        {
          "name": "Deckenpfronn",
          "latitude": "48.65128000",
          "longitude": "8.82417000"
        },
        {
          "name": "Deggingen",
          "latitude": "48.59710000",
          "longitude": "9.71891000"
        },
        {
          "name": "Deilingen",
          "latitude": "48.17410000",
          "longitude": "8.78533000"
        },
        {
          "name": "Deißlingen",
          "latitude": "48.11230000",
          "longitude": "8.60736000"
        },
        {
          "name": "Deizisau",
          "latitude": "48.71220000",
          "longitude": "9.38610000"
        },
        {
          "name": "Denkendorf",
          "latitude": "48.69555000",
          "longitude": "9.31675000"
        },
        {
          "name": "Denkingen",
          "latitude": "48.11110000",
          "longitude": "8.73820000"
        },
        {
          "name": "Denzlingen",
          "latitude": "48.06667000",
          "longitude": "7.88333000"
        },
        {
          "name": "Dettenhausen",
          "latitude": "48.60758000",
          "longitude": "9.10041000"
        },
        {
          "name": "Dettighofen",
          "latitude": "47.62333000",
          "longitude": "8.48512000"
        },
        {
          "name": "Dettingen",
          "latitude": "48.26246000",
          "longitude": "9.72161000"
        },
        {
          "name": "Dettingen an der Erms",
          "latitude": "48.53077000",
          "longitude": "9.34458000"
        },
        {
          "name": "Dettingen unter Teck",
          "latitude": "48.61667000",
          "longitude": "9.45000000"
        },
        {
          "name": "Dielheim",
          "latitude": "49.28417000",
          "longitude": "8.73806000"
        },
        {
          "name": "Dietenheim",
          "latitude": "48.21072000",
          "longitude": "10.07163000"
        },
        {
          "name": "Dietingen",
          "latitude": "48.20480000",
          "longitude": "8.64864000"
        },
        {
          "name": "Dischingen",
          "latitude": "48.70000000",
          "longitude": "10.36667000"
        },
        {
          "name": "Ditzingen",
          "latitude": "48.82672000",
          "longitude": "9.06703000"
        },
        {
          "name": "Dobel",
          "latitude": "48.80000000",
          "longitude": "8.50000000"
        },
        {
          "name": "Dogern",
          "latitude": "47.60952000",
          "longitude": "8.16713000"
        },
        {
          "name": "Donaueschingen",
          "latitude": "47.95514000",
          "longitude": "8.49707000"
        },
        {
          "name": "Donzdorf",
          "latitude": "48.68544000",
          "longitude": "9.81053000"
        },
        {
          "name": "Dormettingen",
          "latitude": "48.23688000",
          "longitude": "8.77327000"
        },
        {
          "name": "Dornhan",
          "latitude": "48.35008000",
          "longitude": "8.50901000"
        },
        {
          "name": "Dornstadt",
          "latitude": "48.46697000",
          "longitude": "9.94434000"
        },
        {
          "name": "Dornstetten",
          "latitude": "48.47198000",
          "longitude": "8.49817000"
        },
        {
          "name": "Dörzbach",
          "latitude": "49.38355000",
          "longitude": "9.70732000"
        },
        {
          "name": "Dossenheim",
          "latitude": "49.45028000",
          "longitude": "8.67472000"
        },
        {
          "name": "Dotternhausen",
          "latitude": "48.22848000",
          "longitude": "8.79228000"
        },
        {
          "name": "Dunningen",
          "latitude": "48.21242000",
          "longitude": "8.50619000"
        },
        {
          "name": "Durbach",
          "latitude": "48.49352000",
          "longitude": "8.01736000"
        },
        {
          "name": "Dürbheim",
          "latitude": "48.05623000",
          "longitude": "8.79344000"
        },
        {
          "name": "Durlangen",
          "latitude": "48.85632000",
          "longitude": "9.79654000"
        },
        {
          "name": "Dürmentingen",
          "latitude": "48.11667000",
          "longitude": "9.53333000"
        },
        {
          "name": "Durmersheim",
          "latitude": "48.93333000",
          "longitude": "8.26667000"
        },
        {
          "name": "Dürnau",
          "latitude": "48.64079000",
          "longitude": "9.63544000"
        },
        {
          "name": "Dußlingen",
          "latitude": "48.45357000",
          "longitude": "9.05552000"
        },
        {
          "name": "Ebenweiler",
          "latitude": "47.90000000",
          "longitude": "9.51667000"
        },
        {
          "name": "Eberbach",
          "latitude": "49.46680000",
          "longitude": "8.99016000"
        },
        {
          "name": "Eberdingen",
          "latitude": "48.87942000",
          "longitude": "8.96502000"
        },
        {
          "name": "Eberhardzell",
          "latitude": "48.00000000",
          "longitude": "9.81667000"
        },
        {
          "name": "Ebersbach an der Fils",
          "latitude": "48.71600000",
          "longitude": "9.52360000"
        },
        {
          "name": "Ebersbach-Musbach",
          "latitude": "47.96667000",
          "longitude": "9.58333000"
        },
        {
          "name": "Eberstadt",
          "latitude": "49.18028000",
          "longitude": "9.32111000"
        },
        {
          "name": "Ebhausen",
          "latitude": "48.58333000",
          "longitude": "8.68333000"
        },
        {
          "name": "Ebringen",
          "latitude": "47.95780000",
          "longitude": "7.77652000"
        },
        {
          "name": "Edingen-Neckarhausen",
          "latitude": "49.45722000",
          "longitude": "8.60639000"
        },
        {
          "name": "Efringen-Kirchen",
          "latitude": "47.65000000",
          "longitude": "7.56667000"
        },
        {
          "name": "Egenhausen",
          "latitude": "48.56667000",
          "longitude": "8.61667000"
        },
        {
          "name": "Eggenstein-Leopoldshafen",
          "latitude": "49.09006000",
          "longitude": "8.39879000"
        },
        {
          "name": "Eggingen",
          "latitude": "47.70000000",
          "longitude": "8.40000000"
        },
        {
          "name": "Ehingen",
          "latitude": "48.28259000",
          "longitude": "9.72749000"
        },
        {
          "name": "Ehningen",
          "latitude": "48.65882000",
          "longitude": "8.94124000"
        },
        {
          "name": "Eichstetten",
          "latitude": "48.09427000",
          "longitude": "7.74244000"
        },
        {
          "name": "Eigeltingen",
          "latitude": "47.85802000",
          "longitude": "8.89784000"
        },
        {
          "name": "Eimeldingen",
          "latitude": "47.63333000",
          "longitude": "7.60000000"
        },
        {
          "name": "Eisenbach",
          "latitude": "47.96117000",
          "longitude": "8.26802000"
        },
        {
          "name": "Eisingen",
          "latitude": "48.95000000",
          "longitude": "8.66667000"
        },
        {
          "name": "Eislingen",
          "latitude": "48.69515000",
          "longitude": "9.70676000"
        },
        {
          "name": "Ellenberg",
          "latitude": "49.01667000",
          "longitude": "10.21667000"
        },
        {
          "name": "Ellhofen",
          "latitude": "49.14667000",
          "longitude": "9.32194000"
        },
        {
          "name": "Ellwangen",
          "latitude": "48.96164000",
          "longitude": "10.13173000"
        },
        {
          "name": "Elzach",
          "latitude": "48.17247000",
          "longitude": "8.06992000"
        },
        {
          "name": "Emmendingen",
          "latitude": "48.12096000",
          "longitude": "7.85359000"
        },
        {
          "name": "Emmingen-Liptingen",
          "latitude": "47.93333000",
          "longitude": "8.88333000"
        },
        {
          "name": "Empfingen",
          "latitude": "48.39258000",
          "longitude": "8.71036000"
        },
        {
          "name": "Endingen",
          "latitude": "48.14221000",
          "longitude": "7.70049000"
        },
        {
          "name": "Engelsbrand",
          "latitude": "48.83333000",
          "longitude": "8.65000000"
        },
        {
          "name": "Engen",
          "latitude": "47.85534000",
          "longitude": "8.77342000"
        },
        {
          "name": "Eningen unter Achalm",
          "latitude": "48.48686000",
          "longitude": "9.25946000"
        },
        {
          "name": "Ennetach",
          "latitude": "48.05238000",
          "longitude": "9.32010000"
        },
        {
          "name": "Enzklösterle",
          "latitude": "48.66638000",
          "longitude": "8.47083000"
        },
        {
          "name": "Epfenbach",
          "latitude": "49.33917000",
          "longitude": "8.90778000"
        },
        {
          "name": "Epfendorf",
          "latitude": "48.25000000",
          "longitude": "8.60000000"
        },
        {
          "name": "Eppelheim",
          "latitude": "49.40190000",
          "longitude": "8.63644000"
        },
        {
          "name": "Eppingen",
          "latitude": "49.13645000",
          "longitude": "8.91229000"
        },
        {
          "name": "Erbach",
          "latitude": "48.32841000",
          "longitude": "9.88752000"
        },
        {
          "name": "Erdmannhausen",
          "latitude": "48.94256000",
          "longitude": "9.29615000"
        },
        {
          "name": "Eriskirch",
          "latitude": "47.62479000",
          "longitude": "9.54197000"
        },
        {
          "name": "Erkenbrechtsweiler",
          "latitude": "48.55656000",
          "longitude": "9.43211000"
        },
        {
          "name": "Erlenbach",
          "latitude": "49.17250000",
          "longitude": "9.26833000"
        },
        {
          "name": "Erlenmoos",
          "latitude": "48.06530000",
          "longitude": "9.97567000"
        },
        {
          "name": "Erligheim",
          "latitude": "49.02250000",
          "longitude": "9.09722000"
        },
        {
          "name": "Erolzheim",
          "latitude": "48.09001000",
          "longitude": "10.07300000"
        },
        {
          "name": "Ersingen",
          "latitude": "48.29260000",
          "longitude": "9.85510000"
        },
        {
          "name": "Ertingen",
          "latitude": "48.10000000",
          "longitude": "9.46667000"
        },
        {
          "name": "Eschach",
          "latitude": "48.88832000",
          "longitude": "9.86999000"
        },
        {
          "name": "Eschelbronn",
          "latitude": "49.31944000",
          "longitude": "8.86528000"
        },
        {
          "name": "Eschenbach",
          "latitude": "48.65264000",
          "longitude": "9.67037000"
        },
        {
          "name": "Essingen",
          "latitude": "48.80859000",
          "longitude": "10.02773000"
        },
        {
          "name": "Esslingen",
          "latitude": "48.73961000",
          "longitude": "9.30473000"
        },
        {
          "name": "Ettenheim",
          "latitude": "48.25696000",
          "longitude": "7.81247000"
        },
        {
          "name": "Ettlingen",
          "latitude": "48.94094000",
          "longitude": "8.40763000"
        },
        {
          "name": "Eutingen an der Enz",
          "latitude": "48.91246000",
          "longitude": "8.74898000"
        },
        {
          "name": "Fahrenbach",
          "latitude": "49.43139000",
          "longitude": "9.15056000"
        },
        {
          "name": "Feldberg",
          "latitude": "47.77435000",
          "longitude": "7.64142000"
        },
        {
          "name": "Fellbach",
          "latitude": "48.80912000",
          "longitude": "9.27697000"
        },
        {
          "name": "Fichtenberg",
          "latitude": "48.98601000",
          "longitude": "9.71199000"
        },
        {
          "name": "Filderstadt",
          "latitude": "48.65698000",
          "longitude": "9.22049000"
        },
        {
          "name": "Fischerbach",
          "latitude": "48.28687000",
          "longitude": "8.10959000"
        },
        {
          "name": "Flein",
          "latitude": "49.10306000",
          "longitude": "9.21083000"
        },
        {
          "name": "Forbach",
          "latitude": "48.68333000",
          "longitude": "8.35000000"
        },
        {
          "name": "Forchheim",
          "latitude": "48.16667000",
          "longitude": "7.70000000"
        },
        {
          "name": "Forchtenberg",
          "latitude": "49.28867000",
          "longitude": "9.56026000"
        },
        {
          "name": "Forst",
          "latitude": "49.15861000",
          "longitude": "8.58083000"
        },
        {
          "name": "Freiberg am Neckar",
          "latitude": "48.93196000",
          "longitude": "9.20240000"
        },
        {
          "name": "Freiburg",
          "latitude": "47.99590000",
          "longitude": "7.85222000"
        },
        {
          "name": "Freiburg Region",
          "latitude": "48.16667000",
          "longitude": "8.33333000"
        },
        {
          "name": "Freudenberg",
          "latitude": "49.75349000",
          "longitude": "9.32748000"
        },
        {
          "name": "Freudenstadt",
          "latitude": "48.46695000",
          "longitude": "8.41371000"
        },
        {
          "name": "Freudental",
          "latitude": "49.00972000",
          "longitude": "9.05917000"
        },
        {
          "name": "Frickenhausen",
          "latitude": "48.59353000",
          "longitude": "9.36005000"
        },
        {
          "name": "Frickingen",
          "latitude": "47.81438000",
          "longitude": "9.27349000"
        },
        {
          "name": "Fridingen an der Donau",
          "latitude": "48.01955000",
          "longitude": "8.92322000"
        },
        {
          "name": "Friedenweiler",
          "latitude": "47.91778000",
          "longitude": "8.25627000"
        },
        {
          "name": "Friedrichshafen",
          "latitude": "47.65689000",
          "longitude": "9.47554000"
        },
        {
          "name": "Friolzheim",
          "latitude": "48.83333000",
          "longitude": "8.83333000"
        },
        {
          "name": "Frittlingen",
          "latitude": "48.12709000",
          "longitude": "8.70774000"
        },
        {
          "name": "Fronreute",
          "latitude": "47.87053000",
          "longitude": "9.56944000"
        },
        {
          "name": "Fürstenberg",
          "latitude": "47.67895000",
          "longitude": "9.15535000"
        },
        {
          "name": "Furtwangen",
          "latitude": "48.05156000",
          "longitude": "8.20715000"
        },
        {
          "name": "Gaggenau",
          "latitude": "48.80000000",
          "longitude": "8.33333000"
        },
        {
          "name": "Gaiberg",
          "latitude": "49.36639000",
          "longitude": "8.74972000"
        },
        {
          "name": "Gaienhofen",
          "latitude": "47.68333000",
          "longitude": "8.98333000"
        },
        {
          "name": "Gaildorf",
          "latitude": "49.00027000",
          "longitude": "9.76953000"
        },
        {
          "name": "Gailingen",
          "latitude": "47.69711000",
          "longitude": "8.75567000"
        },
        {
          "name": "Gammelshausen",
          "latitude": "48.64023000",
          "longitude": "9.65072000"
        },
        {
          "name": "Gammertingen",
          "latitude": "48.25240000",
          "longitude": "9.22349000"
        },
        {
          "name": "Gärtringen",
          "latitude": "48.64176000",
          "longitude": "8.90073000"
        },
        {
          "name": "Gechingen",
          "latitude": "48.69527000",
          "longitude": "8.82915000"
        },
        {
          "name": "Geisingen",
          "latitude": "47.92504000",
          "longitude": "8.65002000"
        },
        {
          "name": "Geislingen",
          "latitude": "48.28768000",
          "longitude": "8.81241000"
        },
        {
          "name": "Geislingen an der Steige",
          "latitude": "48.62423000",
          "longitude": "9.82736000"
        },
        {
          "name": "Gemmingen",
          "latitude": "49.15639000",
          "longitude": "8.98194000"
        },
        {
          "name": "Gemmrigheim",
          "latitude": "49.02833000",
          "longitude": "9.15556000"
        },
        {
          "name": "Gengenbach",
          "latitude": "48.40476000",
          "longitude": "8.01433000"
        },
        {
          "name": "Gerabronn",
          "latitude": "48.97071000",
          "longitude": "9.91986000"
        },
        {
          "name": "Gerlingen",
          "latitude": "48.79954000",
          "longitude": "9.06316000"
        },
        {
          "name": "Gernsbach",
          "latitude": "48.77034000",
          "longitude": "8.34306000"
        },
        {
          "name": "Gerstetten",
          "latitude": "48.62254000",
          "longitude": "10.01984000"
        },
        {
          "name": "Giengen an der Brenz",
          "latitude": "48.62219000",
          "longitude": "10.24312000"
        },
        {
          "name": "Gingen an der Fils",
          "latitude": "48.65979000",
          "longitude": "9.78092000"
        },
        {
          "name": "Glatten",
          "latitude": "48.44246000",
          "longitude": "8.51116000"
        },
        {
          "name": "Göggingen",
          "latitude": "48.86123000",
          "longitude": "9.88398000"
        },
        {
          "name": "Gomadingen",
          "latitude": "48.39980000",
          "longitude": "9.39065000"
        },
        {
          "name": "Gomaringen",
          "latitude": "48.45349000",
          "longitude": "9.09582000"
        },
        {
          "name": "Gondelsheim",
          "latitude": "49.05917000",
          "longitude": "8.65833000"
        },
        {
          "name": "Göppingen",
          "latitude": "48.70354000",
          "longitude": "9.65209000"
        },
        {
          "name": "Görwihl",
          "latitude": "47.64275000",
          "longitude": "8.07482000"
        },
        {
          "name": "Gosheim",
          "latitude": "48.13430000",
          "longitude": "8.75426000"
        },
        {
          "name": "Gottenheim",
          "latitude": "48.05000000",
          "longitude": "7.73333000"
        },
        {
          "name": "Gottmadingen",
          "latitude": "47.73511000",
          "longitude": "8.77687000"
        },
        {
          "name": "Graben-Neudorf",
          "latitude": "49.16695000",
          "longitude": "8.49243000"
        },
        {
          "name": "Grabenstetten",
          "latitude": "48.52397000",
          "longitude": "9.46155000"
        },
        {
          "name": "Grafenau",
          "latitude": "48.71427000",
          "longitude": "8.91219000"
        },
        {
          "name": "Grafenhausen",
          "latitude": "48.28427000",
          "longitude": "7.76678000"
        },
        {
          "name": "Greffern",
          "latitude": "48.75205000",
          "longitude": "8.00515000"
        },
        {
          "name": "Grenzach-Wyhlen",
          "latitude": "47.55000000",
          "longitude": "7.68333000"
        },
        {
          "name": "Großbettlingen",
          "latitude": "48.59052000",
          "longitude": "9.30782000"
        },
        {
          "name": "Großbottwar",
          "latitude": "49.00147000",
          "longitude": "9.29348000"
        },
        {
          "name": "Grosselfingen",
          "latitude": "48.33229000",
          "longitude": "8.88704000"
        },
        {
          "name": "Großerlach",
          "latitude": "49.05368000",
          "longitude": "9.51356000"
        },
        {
          "name": "Großrinderfeld",
          "latitude": "49.66536000",
          "longitude": "9.73356000"
        },
        {
          "name": "Gruibingen",
          "latitude": "48.59483000",
          "longitude": "9.64389000"
        },
        {
          "name": "Grünkraut",
          "latitude": "47.74417000",
          "longitude": "9.65588000"
        },
        {
          "name": "Grünsfeld",
          "latitude": "49.60949000",
          "longitude": "9.74725000"
        },
        {
          "name": "Gschwend",
          "latitude": "48.93333000",
          "longitude": "9.74436000"
        },
        {
          "name": "Güglingen",
          "latitude": "49.06642000",
          "longitude": "9.00175000"
        },
        {
          "name": "Gundelfingen",
          "latitude": "48.04246000",
          "longitude": "7.86570000"
        },
        {
          "name": "Gundelsheim",
          "latitude": "49.28330000",
          "longitude": "9.16037000"
        },
        {
          "name": "Gutach",
          "latitude": "48.24844000",
          "longitude": "8.21293000"
        },
        {
          "name": "Gutach im Breisgau",
          "latitude": "48.11667000",
          "longitude": "7.98333000"
        },
        {
          "name": "Gütenbach",
          "latitude": "48.05000000",
          "longitude": "8.15000000"
        },
        {
          "name": "Gutenzell-Hürbel",
          "latitude": "48.11667000",
          "longitude": "9.98333000"
        },
        {
          "name": "Hagnau",
          "latitude": "47.67666000",
          "longitude": "9.31787000"
        },
        {
          "name": "Haigerloch",
          "latitude": "48.36614000",
          "longitude": "8.80357000"
        },
        {
          "name": "Haiterbach",
          "latitude": "48.52066000",
          "longitude": "8.64435000"
        },
        {
          "name": "Hambrücken",
          "latitude": "49.19000000",
          "longitude": "8.54056000"
        },
        {
          "name": "Hardheim",
          "latitude": "49.61194000",
          "longitude": "9.47194000"
        },
        {
          "name": "Hardt",
          "latitude": "48.18333000",
          "longitude": "8.41667000"
        },
        {
          "name": "Hartheim",
          "latitude": "47.93333000",
          "longitude": "7.63333000"
        },
        {
          "name": "Hasel",
          "latitude": "47.65342000",
          "longitude": "7.89720000"
        },
        {
          "name": "Haslach",
          "latitude": "48.56531000",
          "longitude": "8.05658000"
        },
        {
          "name": "Haßmersheim",
          "latitude": "49.30000000",
          "longitude": "9.15000000"
        },
        {
          "name": "Hattenhofen",
          "latitude": "48.66648000",
          "longitude": "9.57456000"
        },
        {
          "name": "Hausach",
          "latitude": "48.28426000",
          "longitude": "8.17602000"
        },
        {
          "name": "Hausen",
          "latitude": "47.68128000",
          "longitude": "7.83986000"
        },
        {
          "name": "Häusern",
          "latitude": "47.75000000",
          "longitude": "8.16667000"
        },
        {
          "name": "Hayingen",
          "latitude": "48.27531000",
          "longitude": "9.47760000"
        },
        {
          "name": "Hechingen",
          "latitude": "48.35149000",
          "longitude": "8.96317000"
        },
        {
          "name": "Heddesheim",
          "latitude": "49.50556000",
          "longitude": "8.60361000"
        },
        {
          "name": "Heidelberg",
          "latitude": "49.40768000",
          "longitude": "8.69079000"
        },
        {
          "name": "Heidenheim an der Brenz",
          "latitude": "48.67798000",
          "longitude": "10.15162000"
        },
        {
          "name": "Heilbronn",
          "latitude": "49.13995000",
          "longitude": "9.22054000"
        },
        {
          "name": "Heiligenberg",
          "latitude": "47.82094000",
          "longitude": "9.31280000"
        },
        {
          "name": "Heiligkreuzsteinach",
          "latitude": "49.48333000",
          "longitude": "8.79500000"
        },
        {
          "name": "Heimsheim",
          "latitude": "48.80656000",
          "longitude": "8.86744000"
        },
        {
          "name": "Heiningen",
          "latitude": "48.66177000",
          "longitude": "9.64977000"
        },
        {
          "name": "Heitersheim",
          "latitude": "47.87468000",
          "longitude": "7.65721000"
        },
        {
          "name": "Helmstadt-Bargen",
          "latitude": "49.31427000",
          "longitude": "8.99712000"
        },
        {
          "name": "Hemmingen",
          "latitude": "48.86667000",
          "longitude": "9.03333000"
        },
        {
          "name": "Hemsbach",
          "latitude": "49.59075000",
          "longitude": "8.64779000"
        },
        {
          "name": "Herbertingen",
          "latitude": "48.06667000",
          "longitude": "9.43333000"
        },
        {
          "name": "Herbolzheim",
          "latitude": "48.21884000",
          "longitude": "7.77746000"
        },
        {
          "name": "Herbrechtingen",
          "latitude": "48.62173000",
          "longitude": "10.17600000"
        },
        {
          "name": "Herdwangen-Schönach",
          "latitude": "47.85000000",
          "longitude": "9.20000000"
        },
        {
          "name": "Hermaringen",
          "latitude": "48.59544000",
          "longitude": "10.26065000"
        },
        {
          "name": "Herrenberg",
          "latitude": "48.59523000",
          "longitude": "8.86648000"
        },
        {
          "name": "Herrischried",
          "latitude": "47.66667000",
          "longitude": "8.00000000"
        },
        {
          "name": "Hessigheim",
          "latitude": "48.99407000",
          "longitude": "9.18629000"
        },
        {
          "name": "Hettingen",
          "latitude": "48.21601000",
          "longitude": "9.23169000"
        },
        {
          "name": "Heubach",
          "latitude": "48.79267000",
          "longitude": "9.93370000"
        },
        {
          "name": "Heuchlingen",
          "latitude": "48.85215000",
          "longitude": "9.94391000"
        },
        {
          "name": "Hildrizhausen",
          "latitude": "48.62423000",
          "longitude": "8.96605000"
        },
        {
          "name": "Hilzingen",
          "latitude": "47.76667000",
          "longitude": "8.78333000"
        },
        {
          "name": "Hinterzarten",
          "latitude": "47.90276000",
          "longitude": "8.10701000"
        },
        {
          "name": "Hirrlingen",
          "latitude": "48.41245000",
          "longitude": "8.88742000"
        },
        {
          "name": "Hirschberg an der Bergstraße",
          "latitude": "49.50710000",
          "longitude": "8.65693000"
        },
        {
          "name": "Hochdorf",
          "latitude": "48.02560000",
          "longitude": "9.78778000"
        },
        {
          "name": "Höchenschwand",
          "latitude": "47.73333000",
          "longitude": "8.16667000"
        },
        {
          "name": "Hockenheim",
          "latitude": "49.32334000",
          "longitude": "8.55194000"
        },
        {
          "name": "Höfen an der Enz",
          "latitude": "48.80000000",
          "longitude": "8.58333000"
        },
        {
          "name": "Hofstetten",
          "latitude": "48.25846000",
          "longitude": "8.06595000"
        },
        {
          "name": "Hohberg",
          "latitude": "48.32270000",
          "longitude": "7.89972000"
        },
        {
          "name": "Hohentengen",
          "latitude": "47.57005000",
          "longitude": "8.43250000"
        },
        {
          "name": "Holzgerlingen",
          "latitude": "48.63969000",
          "longitude": "9.01149000"
        },
        {
          "name": "Holzmaden",
          "latitude": "48.63333000",
          "longitude": "9.51667000"
        },
        {
          "name": "Höpfingen",
          "latitude": "49.60250000",
          "longitude": "9.42861000"
        },
        {
          "name": "Horb am Neckar",
          "latitude": "48.44423000",
          "longitude": "8.69130000"
        },
        {
          "name": "Horben",
          "latitude": "47.93333000",
          "longitude": "7.86667000"
        },
        {
          "name": "Horgenzell",
          "latitude": "47.80534000",
          "longitude": "9.49727000"
        },
        {
          "name": "Hornberg",
          "latitude": "48.21068000",
          "longitude": "8.23275000"
        },
        {
          "name": "Horrenberg",
          "latitude": "49.28040000",
          "longitude": "8.78087000"
        },
        {
          "name": "Hüffenhardt",
          "latitude": "49.29194000",
          "longitude": "9.08167000"
        },
        {
          "name": "Hüfingen",
          "latitude": "47.92543000",
          "longitude": "8.48831000"
        },
        {
          "name": "Hügelsheim",
          "latitude": "48.80000000",
          "longitude": "8.11667000"
        },
        {
          "name": "Hülben",
          "latitude": "48.51982000",
          "longitude": "9.40790000"
        },
        {
          "name": "Hüttisheim",
          "latitude": "48.27965000",
          "longitude": "9.94246000"
        },
        {
          "name": "Hüttlingen",
          "latitude": "48.89266000",
          "longitude": "10.10064000"
        },
        {
          "name": "Iffezheim",
          "latitude": "48.82167000",
          "longitude": "8.14310000"
        },
        {
          "name": "Igersheim",
          "latitude": "49.49444000",
          "longitude": "9.81694000"
        },
        {
          "name": "Iggingen",
          "latitude": "48.83167000",
          "longitude": "9.87894000"
        },
        {
          "name": "Ihringen",
          "latitude": "48.04303000",
          "longitude": "7.64760000"
        },
        {
          "name": "Illerrieden",
          "latitude": "48.27017000",
          "longitude": "10.05155000"
        },
        {
          "name": "Illingen",
          "latitude": "48.95616000",
          "longitude": "8.92459000"
        },
        {
          "name": "Illmensee",
          "latitude": "47.86229000",
          "longitude": "9.37235000"
        },
        {
          "name": "Ilsfeld",
          "latitude": "49.05548000",
          "longitude": "9.24598000"
        },
        {
          "name": "Ilshofen",
          "latitude": "49.17015000",
          "longitude": "9.91825000"
        },
        {
          "name": "Ilvesheim",
          "latitude": "49.47404000",
          "longitude": "8.56740000"
        },
        {
          "name": "Immendingen",
          "latitude": "47.93333000",
          "longitude": "8.73333000"
        },
        {
          "name": "Immenstaad am Bodensee",
          "latitude": "47.66667000",
          "longitude": "9.36667000"
        },
        {
          "name": "Ingelfingen",
          "latitude": "49.30028000",
          "longitude": "9.65303000"
        },
        {
          "name": "Ingoldingen",
          "latitude": "48.02552000",
          "longitude": "9.74195000"
        },
        {
          "name": "Inzigkofen",
          "latitude": "48.07034000",
          "longitude": "9.17998000"
        },
        {
          "name": "Inzlingen",
          "latitude": "47.58851000",
          "longitude": "7.69094000"
        },
        {
          "name": "Isny",
          "latitude": "47.69260000",
          "longitude": "10.03857000"
        },
        {
          "name": "Ispringen",
          "latitude": "48.91667000",
          "longitude": "8.66667000"
        },
        {
          "name": "Ittlingen",
          "latitude": "49.19083000",
          "longitude": "8.93083000"
        },
        {
          "name": "Jagsthausen",
          "latitude": "49.31056000",
          "longitude": "9.46833000"
        },
        {
          "name": "Jagstzell",
          "latitude": "49.03055000",
          "longitude": "10.09751000"
        },
        {
          "name": "Jestetten",
          "latitude": "47.65000000",
          "longitude": "8.56667000"
        },
        {
          "name": "Jöhlingen",
          "latitude": "49.03218000",
          "longitude": "8.57350000"
        },
        {
          "name": "Jungingen",
          "latitude": "48.32787000",
          "longitude": "9.04095000"
        },
        {
          "name": "Kaisersbach",
          "latitude": "48.93023000",
          "longitude": "9.63898000"
        },
        {
          "name": "Kandern",
          "latitude": "47.71393000",
          "longitude": "7.66237000"
        },
        {
          "name": "Kappel-Grafenhausen",
          "latitude": "48.28382000",
          "longitude": "7.76605000"
        },
        {
          "name": "Kappelrodeck",
          "latitude": "48.59182000",
          "longitude": "8.11692000"
        },
        {
          "name": "Karlsdorf-Neuthard",
          "latitude": "49.13472000",
          "longitude": "8.53028000"
        },
        {
          "name": "Karlsruhe",
          "latitude": "49.00937000",
          "longitude": "8.40444000"
        },
        {
          "name": "Karlsruhe Region",
          "latitude": "49.00000000",
          "longitude": "8.66667000"
        },
        {
          "name": "Kehl",
          "latitude": "48.57297000",
          "longitude": "7.81523000"
        },
        {
          "name": "Kenzingen",
          "latitude": "48.19630000",
          "longitude": "7.76974000"
        },
        {
          "name": "Ketsch",
          "latitude": "49.36778000",
          "longitude": "8.53111000"
        },
        {
          "name": "Kieselbronn",
          "latitude": "48.93333000",
          "longitude": "8.75000000"
        },
        {
          "name": "Kippenheim",
          "latitude": "48.29564000",
          "longitude": "7.82510000"
        },
        {
          "name": "Kirchardt",
          "latitude": "49.20500000",
          "longitude": "8.99167000"
        },
        {
          "name": "Kirchberg an der Iller",
          "latitude": "48.13333000",
          "longitude": "10.08333000"
        },
        {
          "name": "Kirchberg an der Jagst",
          "latitude": "49.20056000",
          "longitude": "9.98226000"
        },
        {
          "name": "Kirchberg an der Murr",
          "latitude": "48.94297000",
          "longitude": "9.34083000"
        },
        {
          "name": "Kirchdorf",
          "latitude": "48.07667000",
          "longitude": "10.12629000"
        },
        {
          "name": "Kirchentellinsfurt",
          "latitude": "48.53315000",
          "longitude": "9.14732000"
        },
        {
          "name": "Kirchheim am Neckar",
          "latitude": "49.04500000",
          "longitude": "9.14222000"
        },
        {
          "name": "Kirchheim am Ries",
          "latitude": "48.87922000",
          "longitude": "10.40028000"
        },
        {
          "name": "Kirchheim unter Teck",
          "latitude": "48.64683000",
          "longitude": "9.45378000"
        },
        {
          "name": "Kirchzarten",
          "latitude": "47.96667000",
          "longitude": "7.95000000"
        },
        {
          "name": "Kißlegg",
          "latitude": "47.78894000",
          "longitude": "9.88383000"
        },
        {
          "name": "Klingenstein",
          "latitude": "48.41849000",
          "longitude": "9.90812000"
        },
        {
          "name": "Knittlingen",
          "latitude": "49.02487000",
          "longitude": "8.75606000"
        },
        {
          "name": "Kohlberg",
          "latitude": "48.55845000",
          "longitude": "9.33576000"
        },
        {
          "name": "Kolbingen",
          "latitude": "48.05227000",
          "longitude": "8.88957000"
        },
        {
          "name": "Köngen",
          "latitude": "48.68333000",
          "longitude": "9.36667000"
        },
        {
          "name": "Königheim",
          "latitude": "49.62028000",
          "longitude": "9.59583000"
        },
        {
          "name": "Königsbach-Stein",
          "latitude": "48.96585000",
          "longitude": "8.60573000"
        },
        {
          "name": "Königsbronn",
          "latitude": "48.74317000",
          "longitude": "10.11193000"
        },
        {
          "name": "Königsfeld im Schwarzwald",
          "latitude": "48.13814000",
          "longitude": "8.41973000"
        },
        {
          "name": "Konstanz",
          "latitude": "47.66033000",
          "longitude": "9.17582000"
        },
        {
          "name": "Korb",
          "latitude": "48.84303000",
          "longitude": "9.36258000"
        },
        {
          "name": "Korntal",
          "latitude": "48.83218000",
          "longitude": "9.12140000"
        },
        {
          "name": "Kornwestheim",
          "latitude": "48.86158000",
          "longitude": "9.18569000"
        },
        {
          "name": "Kraichtal",
          "latitude": "49.14623000",
          "longitude": "8.73276000"
        },
        {
          "name": "Krauchenwies",
          "latitude": "48.01651000",
          "longitude": "9.24757000"
        },
        {
          "name": "Krautheim",
          "latitude": "49.38789000",
          "longitude": "9.63553000"
        },
        {
          "name": "Kressbronn am Bodensee",
          "latitude": "47.59760000",
          "longitude": "9.59707000"
        },
        {
          "name": "Kronau",
          "latitude": "49.22250000",
          "longitude": "8.63111000"
        },
        {
          "name": "Kuchen",
          "latitude": "48.63583000",
          "longitude": "9.79989000"
        },
        {
          "name": "Külsheim",
          "latitude": "49.66942000",
          "longitude": "9.52361000"
        },
        {
          "name": "Künzelsau",
          "latitude": "49.28180000",
          "longitude": "9.68352000"
        },
        {
          "name": "Kupferzell",
          "latitude": "49.22778000",
          "longitude": "9.69000000"
        },
        {
          "name": "Kuppenheim",
          "latitude": "48.82794000",
          "longitude": "8.25417000"
        },
        {
          "name": "Kürnbach",
          "latitude": "49.07750000",
          "longitude": "8.84556000"
        },
        {
          "name": "Kusterdingen",
          "latitude": "48.52291000",
          "longitude": "9.11977000"
        },
        {
          "name": "Ladenburg",
          "latitude": "49.47307000",
          "longitude": "8.60896000"
        },
        {
          "name": "Lahr",
          "latitude": "48.34042000",
          "longitude": "7.86886000"
        },
        {
          "name": "Laichingen",
          "latitude": "48.48939000",
          "longitude": "9.68612000"
        },
        {
          "name": "Langenargen",
          "latitude": "47.59858000",
          "longitude": "9.54163000"
        },
        {
          "name": "Langenau",
          "latitude": "48.49616000",
          "longitude": "10.11849000"
        },
        {
          "name": "Langenbrettach",
          "latitude": "49.22601000",
          "longitude": "9.41842000"
        },
        {
          "name": "Langenburg",
          "latitude": "49.25401000",
          "longitude": "9.85673000"
        },
        {
          "name": "Langenenslingen",
          "latitude": "48.14851000",
          "longitude": "9.37765000"
        },
        {
          "name": "Lauchheim",
          "latitude": "48.87135000",
          "longitude": "10.24222000"
        },
        {
          "name": "Lauchringen",
          "latitude": "47.62699000",
          "longitude": "8.31442000"
        },
        {
          "name": "Lauda-Königshofen",
          "latitude": "49.56526000",
          "longitude": "9.70816000"
        },
        {
          "name": "Laudenbach",
          "latitude": "49.61333000",
          "longitude": "8.65389000"
        },
        {
          "name": "Lauf",
          "latitude": "48.65000000",
          "longitude": "8.13333000"
        },
        {
          "name": "Laufenburg",
          "latitude": "47.56512000",
          "longitude": "8.06045000"
        },
        {
          "name": "Lauffen am Neckar",
          "latitude": "49.07340000",
          "longitude": "9.14567000"
        },
        {
          "name": "Laupheim",
          "latitude": "48.22786000",
          "longitude": "9.87874000"
        },
        {
          "name": "Lautenbach",
          "latitude": "48.48185000",
          "longitude": "8.02732000"
        },
        {
          "name": "Lauterbach/Schwarzwald",
          "latitude": "48.22999000",
          "longitude": "8.34240000"
        },
        {
          "name": "Lehrensteinsfeld",
          "latitude": "49.13111000",
          "longitude": "9.32722000"
        },
        {
          "name": "Leibertingen",
          "latitude": "48.04263000",
          "longitude": "9.01308000"
        },
        {
          "name": "Leimen",
          "latitude": "49.34737000",
          "longitude": "8.68733000"
        },
        {
          "name": "Leinfelden-Echterdingen",
          "latitude": "48.69406000",
          "longitude": "9.16809000"
        },
        {
          "name": "Leingarten",
          "latitude": "49.14639000",
          "longitude": "9.11694000"
        },
        {
          "name": "Leinzell",
          "latitude": "48.84941000",
          "longitude": "9.87750000"
        },
        {
          "name": "Lenningen",
          "latitude": "48.55048000",
          "longitude": "9.47674000"
        },
        {
          "name": "Lenzkirch",
          "latitude": "47.86832000",
          "longitude": "8.20211000"
        },
        {
          "name": "Leonberg",
          "latitude": "48.80000000",
          "longitude": "9.01667000"
        },
        {
          "name": "Leutenbach",
          "latitude": "48.88791000",
          "longitude": "9.39267000"
        },
        {
          "name": "Leutkirch",
          "latitude": "47.82672000",
          "longitude": "10.02050000"
        },
        {
          "name": "Lichtenau",
          "latitude": "48.72607000",
          "longitude": "8.00486000"
        },
        {
          "name": "Linkenheim-Hochstetten",
          "latitude": "49.13197000",
          "longitude": "8.41244000"
        },
        {
          "name": "Lobbach",
          "latitude": "49.37519000",
          "longitude": "8.88884000"
        },
        {
          "name": "Löchgau",
          "latitude": "49.00361000",
          "longitude": "9.10639000"
        },
        {
          "name": "Loffenau",
          "latitude": "48.77214000",
          "longitude": "8.38463000"
        },
        {
          "name": "Löffingen",
          "latitude": "47.88405000",
          "longitude": "8.34384000"
        },
        {
          "name": "Lonsee",
          "latitude": "48.54340000",
          "longitude": "9.91999000"
        },
        {
          "name": "Lorch",
          "latitude": "48.79833000",
          "longitude": "9.69140000"
        },
        {
          "name": "Lörrach",
          "latitude": "47.61497000",
          "longitude": "7.66457000"
        },
        {
          "name": "Loßburg",
          "latitude": "48.40000000",
          "longitude": "8.45000000"
        },
        {
          "name": "Lottstetten",
          "latitude": "47.63333000",
          "longitude": "8.56667000"
        },
        {
          "name": "Löwenstein",
          "latitude": "49.09558000",
          "longitude": "9.38000000"
        },
        {
          "name": "Ludwigsburg",
          "latitude": "48.89731000",
          "longitude": "9.19161000"
        },
        {
          "name": "Magstadt",
          "latitude": "48.74471000",
          "longitude": "8.96675000"
        },
        {
          "name": "Mahlberg",
          "latitude": "48.28639000",
          "longitude": "7.81411000"
        },
        {
          "name": "Mainhardt",
          "latitude": "49.07611000",
          "longitude": "9.55639000"
        },
        {
          "name": "Malsch",
          "latitude": "49.24722000",
          "longitude": "8.68278000"
        },
        {
          "name": "Malterdingen",
          "latitude": "48.15719000",
          "longitude": "7.78608000"
        },
        {
          "name": "Mannheim",
          "latitude": "49.48910000",
          "longitude": "8.46694000"
        },
        {
          "name": "Marbach am Neckar",
          "latitude": "48.93964000",
          "longitude": "9.25995000"
        },
        {
          "name": "Markdorf",
          "latitude": "47.71916000",
          "longitude": "9.39028000"
        },
        {
          "name": "Markgröningen",
          "latitude": "48.90493000",
          "longitude": "9.08059000"
        },
        {
          "name": "Maselheim",
          "latitude": "48.13333000",
          "longitude": "9.88333000"
        },
        {
          "name": "Massenbachhausen",
          "latitude": "49.17778000",
          "longitude": "9.04333000"
        },
        {
          "name": "Mauer",
          "latitude": "49.34083000",
          "longitude": "8.80028000"
        },
        {
          "name": "Maulbronn",
          "latitude": "48.99958000",
          "longitude": "8.80337000"
        },
        {
          "name": "Maulburg",
          "latitude": "47.64631000",
          "longitude": "7.78210000"
        },
        {
          "name": "Meckenbeuren",
          "latitude": "47.70000000",
          "longitude": "9.56667000"
        },
        {
          "name": "Meckesheim",
          "latitude": "49.32167000",
          "longitude": "8.81944000"
        },
        {
          "name": "Meersburg",
          "latitude": "47.69419000",
          "longitude": "9.27113000"
        },
        {
          "name": "Mehrstetten",
          "latitude": "48.37609000",
          "longitude": "9.56600000"
        },
        {
          "name": "Meißenheim",
          "latitude": "48.41035000",
          "longitude": "7.77266000"
        },
        {
          "name": "Mengen",
          "latitude": "48.04951000",
          "longitude": "9.33005000"
        },
        {
          "name": "Merdingen",
          "latitude": "48.01667000",
          "longitude": "7.68333000"
        },
        {
          "name": "Merklingen",
          "latitude": "48.51135000",
          "longitude": "9.75496000"
        },
        {
          "name": "Merzhausen",
          "latitude": "47.96667000",
          "longitude": "7.83333000"
        },
        {
          "name": "Meßkirch",
          "latitude": "47.99457000",
          "longitude": "9.11479000"
        },
        {
          "name": "Meßstetten",
          "latitude": "48.18317000",
          "longitude": "8.96565000"
        },
        {
          "name": "Metzingen",
          "latitude": "48.53695000",
          "longitude": "9.28330000"
        },
        {
          "name": "Michelbach an der Bilz",
          "latitude": "49.07028000",
          "longitude": "9.76250000"
        },
        {
          "name": "Michelfeld",
          "latitude": "49.09750000",
          "longitude": "9.67861000"
        },
        {
          "name": "Mietingen",
          "latitude": "48.18333000",
          "longitude": "9.90000000"
        },
        {
          "name": "Mittelbiberach",
          "latitude": "48.08333000",
          "longitude": "9.75000000"
        },
        {
          "name": "Mittelschöntal",
          "latitude": "48.94615000",
          "longitude": "9.39520000"
        },
        {
          "name": "Möckmühl",
          "latitude": "49.32490000",
          "longitude": "9.35837000"
        },
        {
          "name": "Mögglingen",
          "latitude": "48.82320000",
          "longitude": "9.96250000"
        },
        {
          "name": "Möglingen",
          "latitude": "48.88741000",
          "longitude": "9.12694000"
        },
        {
          "name": "Mönchweiler",
          "latitude": "48.10040000",
          "longitude": "8.42219000"
        },
        {
          "name": "Mönsheim",
          "latitude": "48.86667000",
          "longitude": "8.86667000"
        },
        {
          "name": "Moos",
          "latitude": "47.72439000",
          "longitude": "8.93479000"
        },
        {
          "name": "Mosbach",
          "latitude": "49.35357000",
          "longitude": "9.15106000"
        },
        {
          "name": "Mössingen",
          "latitude": "48.40567000",
          "longitude": "9.05419000"
        },
        {
          "name": "Mötzingen",
          "latitude": "48.53320000",
          "longitude": "8.77447000"
        },
        {
          "name": "Mudau",
          "latitude": "49.53444000",
          "longitude": "9.20444000"
        },
        {
          "name": "Muggensturm",
          "latitude": "48.86667000",
          "longitude": "8.28333000"
        },
        {
          "name": "Mühlacker",
          "latitude": "48.94754000",
          "longitude": "8.83675000"
        },
        {
          "name": "Mühlenbach",
          "latitude": "48.25000000",
          "longitude": "8.11667000"
        },
        {
          "name": "Mühlhausen",
          "latitude": "49.24861000",
          "longitude": "8.72667000"
        },
        {
          "name": "Mühlhausen-Ehingen",
          "latitude": "47.81102000",
          "longitude": "8.81224000"
        },
        {
          "name": "Mühlheim am Bach",
          "latitude": "48.37863000",
          "longitude": "8.69735000"
        },
        {
          "name": "Mühlingen",
          "latitude": "47.91667000",
          "longitude": "9.01667000"
        },
        {
          "name": "Mulfingen",
          "latitude": "49.34028000",
          "longitude": "9.80083000"
        },
        {
          "name": "Müllheim",
          "latitude": "47.80820000",
          "longitude": "7.63035000"
        },
        {
          "name": "Mundelsheim",
          "latitude": "49.00083000",
          "longitude": "9.20778000"
        },
        {
          "name": "Munderkingen",
          "latitude": "48.23568000",
          "longitude": "9.64398000"
        },
        {
          "name": "Münsingen",
          "latitude": "48.41126000",
          "longitude": "9.49704000"
        },
        {
          "name": "Münstertal/Schwarzwald",
          "latitude": "47.85472000",
          "longitude": "7.78417000"
        },
        {
          "name": "Murg",
          "latitude": "47.55492000",
          "longitude": "8.02182000"
        },
        {
          "name": "Murr",
          "latitude": "48.96207000",
          "longitude": "9.25924000"
        },
        {
          "name": "Murrhardt",
          "latitude": "48.98191000",
          "longitude": "9.57047000"
        },
        {
          "name": "Mutlangen",
          "latitude": "48.82588000",
          "longitude": "9.79714000"
        },
        {
          "name": "Nagold",
          "latitude": "48.54980000",
          "longitude": "8.72366000"
        },
        {
          "name": "Nattheim",
          "latitude": "48.69963000",
          "longitude": "10.24209000"
        },
        {
          "name": "Neckarbischofsheim",
          "latitude": "49.29625000",
          "longitude": "8.96380000"
        },
        {
          "name": "Neckargemünd",
          "latitude": "49.38899000",
          "longitude": "8.79590000"
        },
        {
          "name": "Neckargerach",
          "latitude": "49.40000000",
          "longitude": "9.06667000"
        },
        {
          "name": "Neckarsulm",
          "latitude": "49.18912000",
          "longitude": "9.22527000"
        },
        {
          "name": "Neckartailfingen",
          "latitude": "48.61172000",
          "longitude": "9.26371000"
        },
        {
          "name": "Neckartenzlingen",
          "latitude": "48.58981000",
          "longitude": "9.23478000"
        },
        {
          "name": "Neckarwestheim",
          "latitude": "49.04694000",
          "longitude": "9.19000000"
        },
        {
          "name": "Neckarzimmern",
          "latitude": "49.31917000",
          "longitude": "9.13278000"
        },
        {
          "name": "Nehren",
          "latitude": "48.43097000",
          "longitude": "9.06990000"
        },
        {
          "name": "Neidenstein",
          "latitude": "49.31667000",
          "longitude": "8.88472000"
        },
        {
          "name": "Neidlingen",
          "latitude": "48.57865000",
          "longitude": "9.56454000"
        },
        {
          "name": "Nellingen",
          "latitude": "48.54196000",
          "longitude": "9.79053000"
        },
        {
          "name": "Neresheim",
          "latitude": "48.75511000",
          "longitude": "10.33041000"
        },
        {
          "name": "Neubulach",
          "latitude": "48.66092000",
          "longitude": "8.69611000"
        },
        {
          "name": "Neudenau",
          "latitude": "49.29181000",
          "longitude": "9.26975000"
        },
        {
          "name": "Neuenbürg",
          "latitude": "48.84516000",
          "longitude": "8.59574000"
        },
        {
          "name": "Neuenburg am Rhein",
          "latitude": "47.81431000",
          "longitude": "7.56005000"
        },
        {
          "name": "Neuenstadt am Kocher",
          "latitude": "49.23498000",
          "longitude": "9.33215000"
        },
        {
          "name": "Neuenstein",
          "latitude": "49.20490000",
          "longitude": "9.58000000"
        },
        {
          "name": "Neuffen",
          "latitude": "48.55460000",
          "longitude": "9.37550000"
        },
        {
          "name": "Neufra",
          "latitude": "48.12880000",
          "longitude": "9.47554000"
        },
        {
          "name": "Neuhausen",
          "latitude": "48.79260000",
          "longitude": "8.77649000"
        },
        {
          "name": "Neuhausen auf den Fildern",
          "latitude": "48.68333000",
          "longitude": "9.28333000"
        },
        {
          "name": "Neukirch",
          "latitude": "47.65738000",
          "longitude": "9.70333000"
        },
        {
          "name": "Neuler",
          "latitude": "48.92803000",
          "longitude": "10.06888000"
        },
        {
          "name": "Neulußheim",
          "latitude": "49.29806000",
          "longitude": "8.51833000"
        },
        {
          "name": "Neunkirchen",
          "latitude": "49.38694000",
          "longitude": "9.01056000"
        },
        {
          "name": "Neuweiler",
          "latitude": "48.66667000",
          "longitude": "8.60000000"
        },
        {
          "name": "Niedereschach",
          "latitude": "48.13333000",
          "longitude": "8.53333000"
        },
        {
          "name": "Niedernhall",
          "latitude": "49.29516000",
          "longitude": "9.61604000"
        },
        {
          "name": "Niederstetten",
          "latitude": "49.40000000",
          "longitude": "9.91944000"
        },
        {
          "name": "Niederstotzingen",
          "latitude": "48.54127000",
          "longitude": "10.23505000"
        },
        {
          "name": "Niederwangen",
          "latitude": "47.67192000",
          "longitude": "9.79880000"
        },
        {
          "name": "Niefern-Öschelbronn",
          "latitude": "48.91667000",
          "longitude": "8.78333000"
        },
        {
          "name": "Nordheim",
          "latitude": "49.10861000",
          "longitude": "9.12778000"
        },
        {
          "name": "Nordrach",
          "latitude": "48.40000000",
          "longitude": "8.08333000"
        },
        {
          "name": "Notzingen",
          "latitude": "48.67076000",
          "longitude": "9.45721000"
        },
        {
          "name": "Nufringen",
          "latitude": "48.62253000",
          "longitude": "8.89009000"
        },
        {
          "name": "Nürtingen",
          "latitude": "48.62565000",
          "longitude": "9.34203000"
        },
        {
          "name": "Nußloch",
          "latitude": "49.32389000",
          "longitude": "8.69556000"
        },
        {
          "name": "Oberboihingen",
          "latitude": "48.65000000",
          "longitude": "9.36667000"
        },
        {
          "name": "Oberderdingen",
          "latitude": "49.06556000",
          "longitude": "8.80306000"
        },
        {
          "name": "Oberdischingen",
          "latitude": "48.30000000",
          "longitude": "9.83333000"
        },
        {
          "name": "Oberharmersbach",
          "latitude": "48.37358000",
          "longitude": "8.12542000"
        },
        {
          "name": "Oberhausen-Rheinhausen",
          "latitude": "49.27389000",
          "longitude": "8.47167000"
        },
        {
          "name": "Oberjettingen",
          "latitude": "48.57468000",
          "longitude": "8.77636000"
        },
        {
          "name": "Oberkirch",
          "latitude": "48.53241000",
          "longitude": "8.07864000"
        },
        {
          "name": "Oberkochen",
          "latitude": "48.78379000",
          "longitude": "10.10519000"
        },
        {
          "name": "Obermarchtal",
          "latitude": "48.23279000",
          "longitude": "9.57235000"
        },
        {
          "name": "Oberndorf",
          "latitude": "48.29050000",
          "longitude": "8.57221000"
        },
        {
          "name": "Obernheim",
          "latitude": "48.16297000",
          "longitude": "8.86113000"
        },
        {
          "name": "Oberreichenbach",
          "latitude": "48.73333000",
          "longitude": "8.66667000"
        },
        {
          "name": "Oberried",
          "latitude": "47.93333000",
          "longitude": "7.95000000"
        },
        {
          "name": "Oberriexingen",
          "latitude": "48.92652000",
          "longitude": "9.02701000"
        },
        {
          "name": "Oberrot",
          "latitude": "49.01444000",
          "longitude": "9.66722000"
        },
        {
          "name": "Oberrotweil",
          "latitude": "48.08990000",
          "longitude": "7.63601000"
        },
        {
          "name": "Obersontheim",
          "latitude": "49.05667000",
          "longitude": "9.89917000"
        },
        {
          "name": "Oberstadion",
          "latitude": "48.18596000",
          "longitude": "9.69241000"
        },
        {
          "name": "Oberstenfeld",
          "latitude": "49.02611000",
          "longitude": "9.32083000"
        },
        {
          "name": "Oberteuringen",
          "latitude": "47.72409000",
          "longitude": "9.46979000"
        },
        {
          "name": "Oberwolfach",
          "latitude": "48.31667000",
          "longitude": "8.21667000"
        },
        {
          "name": "Obrigheim",
          "latitude": "49.35194000",
          "longitude": "9.09083000"
        },
        {
          "name": "Ochsenhausen",
          "latitude": "48.07029000",
          "longitude": "9.95030000"
        },
        {
          "name": "Oedheim",
          "latitude": "49.24028000",
          "longitude": "9.25333000"
        },
        {
          "name": "Offenau",
          "latitude": "49.24583000",
          "longitude": "9.16056000"
        },
        {
          "name": "Offenburg",
          "latitude": "48.47377000",
          "longitude": "7.94495000"
        },
        {
          "name": "Ofterdingen",
          "latitude": "48.41667000",
          "longitude": "9.03333000"
        },
        {
          "name": "Oftersheim",
          "latitude": "49.36528000",
          "longitude": "8.58306000"
        },
        {
          "name": "Ohlsbach",
          "latitude": "48.43222000",
          "longitude": "7.99384000"
        },
        {
          "name": "Ohmden",
          "latitude": "48.64599000",
          "longitude": "9.52698000"
        },
        {
          "name": "Öhningen",
          "latitude": "47.66186000",
          "longitude": "8.88674000"
        },
        {
          "name": "Öhringen",
          "latitude": "49.19884000",
          "longitude": "9.50720000"
        },
        {
          "name": "Ölbronn-Dürrn",
          "latitude": "48.96667000",
          "longitude": "8.75000000"
        },
        {
          "name": "Öpfingen",
          "latitude": "48.28636000",
          "longitude": "9.80259000"
        },
        {
          "name": "Oppenau",
          "latitude": "48.47332000",
          "longitude": "8.15970000"
        },
        {
          "name": "Oppenweiler",
          "latitude": "48.98270000",
          "longitude": "9.45850000"
        },
        {
          "name": "Orsingen-Nenzingen",
          "latitude": "47.84272000",
          "longitude": "8.95909000"
        },
        {
          "name": "Ortenberg",
          "latitude": "48.45158000",
          "longitude": "7.97178000"
        },
        {
          "name": "Ostelsheim",
          "latitude": "48.72633000",
          "longitude": "8.84816000"
        },
        {
          "name": "Osterburken",
          "latitude": "49.42997000",
          "longitude": "9.42252000"
        },
        {
          "name": "Ostfildern",
          "latitude": "48.72704000",
          "longitude": "9.24954000"
        },
        {
          "name": "Ostrach",
          "latitude": "47.95000000",
          "longitude": "9.38333000"
        },
        {
          "name": "Östringen",
          "latitude": "49.21911000",
          "longitude": "8.71192000"
        },
        {
          "name": "Ötigheim",
          "latitude": "48.89085000",
          "longitude": "8.23442000"
        },
        {
          "name": "Ötisheim",
          "latitude": "48.96667000",
          "longitude": "8.80000000"
        },
        {
          "name": "Ottenbach",
          "latitude": "48.73649000",
          "longitude": "9.74844000"
        },
        {
          "name": "Ottenhofen",
          "latitude": "48.73560000",
          "longitude": "8.12981000"
        },
        {
          "name": "Ottersweier",
          "latitude": "48.67022000",
          "longitude": "8.11323000"
        },
        {
          "name": "Owen",
          "latitude": "48.58742000",
          "longitude": "9.44978000"
        },
        {
          "name": "Owingen",
          "latitude": "47.80967000",
          "longitude": "9.17173000"
        },
        {
          "name": "Pfaffenhofen",
          "latitude": "49.06444000",
          "longitude": "8.97639000"
        },
        {
          "name": "Pfaffenweiler",
          "latitude": "47.93333000",
          "longitude": "7.75000000"
        },
        {
          "name": "Pfalzgrafenweiler",
          "latitude": "48.52650000",
          "longitude": "8.56582000"
        },
        {
          "name": "Pfedelbach",
          "latitude": "49.17806000",
          "longitude": "9.50500000"
        },
        {
          "name": "Pforzheim",
          "latitude": "48.88436000",
          "longitude": "8.69892000"
        },
        {
          "name": "Pfronstetten",
          "latitude": "48.27641000",
          "longitude": "9.35995000"
        },
        {
          "name": "Pfullendorf",
          "latitude": "47.92610000",
          "longitude": "9.25780000"
        },
        {
          "name": "Pfullingen",
          "latitude": "48.46458000",
          "longitude": "9.22796000"
        },
        {
          "name": "Philippsburg",
          "latitude": "49.23170000",
          "longitude": "8.46074000"
        },
        {
          "name": "Plankstadt",
          "latitude": "49.39444000",
          "longitude": "8.59611000"
        },
        {
          "name": "Pleidelsheim",
          "latitude": "48.95920000",
          "longitude": "9.20311000"
        },
        {
          "name": "Pliezhausen",
          "latitude": "48.55934000",
          "longitude": "9.20749000"
        },
        {
          "name": "Plochingen",
          "latitude": "48.71067000",
          "longitude": "9.41949000"
        },
        {
          "name": "Plüderhausen",
          "latitude": "48.79875000",
          "longitude": "9.59587000"
        },
        {
          "name": "Radolfzell",
          "latitude": "47.74194000",
          "longitude": "8.97098000"
        },
        {
          "name": "Rammingen",
          "latitude": "48.51814000",
          "longitude": "10.17197000"
        },
        {
          "name": "Rangendingen",
          "latitude": "48.38168000",
          "longitude": "8.88940000"
        },
        {
          "name": "Rastatt",
          "latitude": "48.85851000",
          "longitude": "8.20965000"
        },
        {
          "name": "Rauenberg",
          "latitude": "49.26943000",
          "longitude": "8.70344000"
        },
        {
          "name": "Ravensburg",
          "latitude": "47.78198000",
          "longitude": "9.61062000"
        },
        {
          "name": "Rechberghausen",
          "latitude": "48.73080000",
          "longitude": "9.64419000"
        },
        {
          "name": "Regierungsbezirk Stuttgart",
          "latitude": "49.08333000",
          "longitude": "9.66667000"
        },
        {
          "name": "Reichartshausen",
          "latitude": "49.35500000",
          "longitude": "8.94528000"
        },
        {
          "name": "Reichenau",
          "latitude": "47.68885000",
          "longitude": "9.06355000"
        },
        {
          "name": "Reichenbach an der Fils",
          "latitude": "48.71011000",
          "longitude": "9.46429000"
        },
        {
          "name": "Reilingen",
          "latitude": "49.29833000",
          "longitude": "8.56417000"
        },
        {
          "name": "Renchen",
          "latitude": "48.58850000",
          "longitude": "8.01321000"
        },
        {
          "name": "Renningen",
          "latitude": "48.76974000",
          "longitude": "8.93871000"
        },
        {
          "name": "Reutlingen",
          "latitude": "48.49144000",
          "longitude": "9.20427000"
        },
        {
          "name": "Rheinau",
          "latitude": "48.66602000",
          "longitude": "7.93659000"
        },
        {
          "name": "Rheinfelden",
          "latitude": "47.56013000",
          "longitude": "7.78715000"
        },
        {
          "name": "Rheinstetten",
          "latitude": "48.96850000",
          "longitude": "8.30704000"
        },
        {
          "name": "Rickenbach",
          "latitude": "47.61895000",
          "longitude": "7.97873000"
        },
        {
          "name": "Riederich",
          "latitude": "48.56029000",
          "longitude": "9.26883000"
        },
        {
          "name": "Riedlingen",
          "latitude": "48.15455000",
          "longitude": "9.47558000"
        },
        {
          "name": "Riegel",
          "latitude": "48.15111000",
          "longitude": "7.74915000"
        },
        {
          "name": "Rielasingen-Worblingen",
          "latitude": "47.73465000",
          "longitude": "8.84013000"
        },
        {
          "name": "Rietheim-Weilheim",
          "latitude": "48.01667000",
          "longitude": "8.76667000"
        },
        {
          "name": "Ringsheim",
          "latitude": "48.24765000",
          "longitude": "7.77823000"
        },
        {
          "name": "Rohrdorf",
          "latitude": "48.56667000",
          "longitude": "8.70000000"
        },
        {
          "name": "Roigheim",
          "latitude": "49.36472000",
          "longitude": "9.34000000"
        },
        {
          "name": "Rosenberg",
          "latitude": "49.01892000",
          "longitude": "10.02960000"
        },
        {
          "name": "Rosenfeld",
          "latitude": "48.28639000",
          "longitude": "8.72357000"
        },
        {
          "name": "Rot",
          "latitude": "47.92278000",
          "longitude": "9.10485000"
        },
        {
          "name": "Rot am See",
          "latitude": "49.25000000",
          "longitude": "10.01667000"
        },
        {
          "name": "Rottenacker",
          "latitude": "48.23485000",
          "longitude": "9.68956000"
        },
        {
          "name": "Rottenburg",
          "latitude": "48.47629000",
          "longitude": "8.93528000"
        },
        {
          "name": "Rottweil",
          "latitude": "48.16783000",
          "longitude": "8.62719000"
        },
        {
          "name": "Rudersberg",
          "latitude": "48.88515000",
          "longitude": "9.52927000"
        },
        {
          "name": "Rümmingen",
          "latitude": "47.64120000",
          "longitude": "7.64198000"
        },
        {
          "name": "Ruppertshofen",
          "latitude": "48.88275000",
          "longitude": "9.81506000"
        },
        {
          "name": "Rust",
          "latitude": "48.26667000",
          "longitude": "7.73333000"
        },
        {
          "name": "Rutesheim",
          "latitude": "48.80808000",
          "longitude": "8.94536000"
        },
        {
          "name": "Sachsenheim",
          "latitude": "48.96000000",
          "longitude": "9.06472000"
        },
        {
          "name": "Salach",
          "latitude": "48.69198000",
          "longitude": "9.73715000"
        },
        {
          "name": "Salem",
          "latitude": "47.76258000",
          "longitude": "9.29031000"
        },
        {
          "name": "Sandhausen",
          "latitude": "49.34278000",
          "longitude": "8.65917000"
        },
        {
          "name": "Sankt Blasien",
          "latitude": "47.76252000",
          "longitude": "8.12714000"
        },
        {
          "name": "Sankt Georgen im Schwarzwald",
          "latitude": "48.12716000",
          "longitude": "8.33513000"
        },
        {
          "name": "Sankt Johann",
          "latitude": "48.45397000",
          "longitude": "9.34396000"
        },
        {
          "name": "Sankt Leon-Rot",
          "latitude": "49.26593000",
          "longitude": "8.61803000"
        },
        {
          "name": "Sankt Märgen",
          "latitude": "48.00805000",
          "longitude": "8.09283000"
        },
        {
          "name": "Sankt Peter",
          "latitude": "48.01475000",
          "longitude": "8.03294000"
        },
        {
          "name": "Sasbach",
          "latitude": "48.63971000",
          "longitude": "8.09375000"
        },
        {
          "name": "Sasbachwalden",
          "latitude": "48.61667000",
          "longitude": "8.13333000"
        },
        {
          "name": "Satteldorf",
          "latitude": "49.16953000",
          "longitude": "10.07957000"
        },
        {
          "name": "Sauldorf",
          "latitude": "47.94371000",
          "longitude": "9.10833000"
        },
        {
          "name": "Saulgau",
          "latitude": "48.01676000",
          "longitude": "9.50064000"
        },
        {
          "name": "Schallstadt",
          "latitude": "47.95855000",
          "longitude": "7.75755000"
        },
        {
          "name": "Schechingen",
          "latitude": "48.87341000",
          "longitude": "9.91744000"
        },
        {
          "name": "Scheer",
          "latitude": "48.07292000",
          "longitude": "9.29486000"
        },
        {
          "name": "Schelklingen",
          "latitude": "48.37575000",
          "longitude": "9.73273000"
        },
        {
          "name": "Schenkenzell",
          "latitude": "48.31202000",
          "longitude": "8.37212000"
        },
        {
          "name": "Schiltach",
          "latitude": "48.28932000",
          "longitude": "8.34169000"
        },
        {
          "name": "Schlaitdorf",
          "latitude": "48.60431000",
          "longitude": "9.22268000"
        },
        {
          "name": "Schlat",
          "latitude": "48.65321000",
          "longitude": "9.70625000"
        },
        {
          "name": "Schliengen",
          "latitude": "47.75698000",
          "longitude": "7.57645000"
        },
        {
          "name": "Schlier",
          "latitude": "47.77004000",
          "longitude": "9.67354000"
        },
        {
          "name": "Schlierbach",
          "latitude": "48.67362000",
          "longitude": "9.51811000"
        },
        {
          "name": "Schluchsee",
          "latitude": "47.81667000",
          "longitude": "8.18333000"
        },
        {
          "name": "Schnürpflingen",
          "latitude": "48.27280000",
          "longitude": "9.99292000"
        },
        {
          "name": "Schömberg",
          "latitude": "48.78713000",
          "longitude": "8.64495000"
        },
        {
          "name": "Schonach im Schwarzwald",
          "latitude": "48.14229000",
          "longitude": "8.20289000"
        },
        {
          "name": "Schönaich",
          "latitude": "48.65871000",
          "longitude": "9.06012000"
        },
        {
          "name": "Schönau",
          "latitude": "49.43665000",
          "longitude": "8.80880000"
        },
        {
          "name": "Schönau im Schwarzwald",
          "latitude": "47.78623000",
          "longitude": "7.89445000"
        },
        {
          "name": "Schönwald",
          "latitude": "48.10549000",
          "longitude": "8.20387000"
        },
        {
          "name": "Schopfheim",
          "latitude": "47.65105000",
          "longitude": "7.82089000"
        },
        {
          "name": "Schopfloch",
          "latitude": "48.45477000",
          "longitude": "8.55131000"
        },
        {
          "name": "Schorndorf",
          "latitude": "48.80537000",
          "longitude": "9.52721000"
        },
        {
          "name": "Schramberg",
          "latitude": "48.22399000",
          "longitude": "8.38583000"
        },
        {
          "name": "Schriesheim",
          "latitude": "49.47372000",
          "longitude": "8.66360000"
        },
        {
          "name": "Schrozberg",
          "latitude": "49.34528000",
          "longitude": "9.97944000"
        },
        {
          "name": "Schuttertal",
          "latitude": "48.26667000",
          "longitude": "7.95000000"
        },
        {
          "name": "Schutterwald",
          "latitude": "48.45000000",
          "longitude": "7.88333000"
        },
        {
          "name": "Schwäbisch Gmünd",
          "latitude": "48.79947000",
          "longitude": "9.79809000"
        },
        {
          "name": "Schwäbisch Hall",
          "latitude": "49.11127000",
          "longitude": "9.73908000"
        },
        {
          "name": "Schwaigern",
          "latitude": "49.14494000",
          "longitude": "9.05525000"
        },
        {
          "name": "Schwaikheim",
          "latitude": "48.87733000",
          "longitude": "9.34958000"
        },
        {
          "name": "Schwanau",
          "latitude": "48.36669000",
          "longitude": "7.76244000"
        },
        {
          "name": "Schwarzach",
          "latitude": "48.74738000",
          "longitude": "8.03738000"
        },
        {
          "name": "Schwendi",
          "latitude": "48.17424000",
          "longitude": "9.97541000"
        },
        {
          "name": "Schwenningen",
          "latitude": "48.10000000",
          "longitude": "9.00000000"
        },
        {
          "name": "Schwetzingen",
          "latitude": "49.38217000",
          "longitude": "8.58230000"
        },
        {
          "name": "Schwieberdingen",
          "latitude": "48.87644000",
          "longitude": "9.07439000"
        },
        {
          "name": "Schwörstadt",
          "latitude": "47.59314000",
          "longitude": "7.87840000"
        },
        {
          "name": "Seckach",
          "latitude": "49.44222000",
          "longitude": "9.33417000"
        },
        {
          "name": "Seebach",
          "latitude": "48.57621000",
          "longitude": "8.17048000"
        },
        {
          "name": "Seedorf",
          "latitude": "48.24908000",
          "longitude": "8.48993000"
        },
        {
          "name": "Seelbach",
          "latitude": "48.31055000",
          "longitude": "7.94069000"
        },
        {
          "name": "Seitingen-Oberflacht",
          "latitude": "48.01667000",
          "longitude": "8.71667000"
        },
        {
          "name": "Sersheim",
          "latitude": "48.96667000",
          "longitude": "9.01667000"
        },
        {
          "name": "Sexau",
          "latitude": "48.10209000",
          "longitude": "7.90757000"
        },
        {
          "name": "Sickenhausen",
          "latitude": "48.53252000",
          "longitude": "9.18114000"
        },
        {
          "name": "Siegelsbach",
          "latitude": "49.26972000",
          "longitude": "9.08972000"
        },
        {
          "name": "Sigmaringen",
          "latitude": "48.08829000",
          "longitude": "9.23033000"
        },
        {
          "name": "Sigmaringendorf",
          "latitude": "48.06586000",
          "longitude": "9.26208000"
        },
        {
          "name": "Simmersfeld",
          "latitude": "48.61667000",
          "longitude": "8.51667000"
        },
        {
          "name": "Simmozheim",
          "latitude": "48.75127000",
          "longitude": "8.81142000"
        },
        {
          "name": "Sindelfingen",
          "latitude": "48.70000000",
          "longitude": "9.01667000"
        },
        {
          "name": "Singen",
          "latitude": "47.75935000",
          "longitude": "8.84030000"
        },
        {
          "name": "Sinsheim",
          "latitude": "49.25290000",
          "longitude": "8.87867000"
        },
        {
          "name": "Sinzheim",
          "latitude": "48.76667000",
          "longitude": "8.16667000"
        },
        {
          "name": "Sipplingen",
          "latitude": "47.79678000",
          "longitude": "9.09737000"
        },
        {
          "name": "Sölden",
          "latitude": "47.93333000",
          "longitude": "7.81667000"
        },
        {
          "name": "Sontheim an der Brenz",
          "latitude": "48.55235000",
          "longitude": "10.29097000"
        },
        {
          "name": "Spaichingen",
          "latitude": "48.07477000",
          "longitude": "8.73508000"
        },
        {
          "name": "Spechbach",
          "latitude": "49.34639000",
          "longitude": "8.88333000"
        },
        {
          "name": "Spiegelberg",
          "latitude": "49.04083000",
          "longitude": "9.44444000"
        },
        {
          "name": "Spraitbach",
          "latitude": "48.88065000",
          "longitude": "9.76217000"
        },
        {
          "name": "Staig",
          "latitude": "48.29998000",
          "longitude": "9.99138000"
        },
        {
          "name": "Staufen",
          "latitude": "47.75686000",
          "longitude": "8.21078000"
        },
        {
          "name": "Stegen",
          "latitude": "47.98333000",
          "longitude": "7.96667000"
        },