{
  "code": "DM",
  "states": [
    {
      "name": "Saint Andrew Parish",
      "state_code": "02",
      "latitude": null,
      "longitude": null,
      "cities": [
        {
          "name": "Calibishie",
          "latitude": "15.59297000",
          "longitude": "-61.34901000"
        },
        {
          "name": "Marigot",
          "latitude": "15.53886000",
          "longitude": "-61.28375000"
        },
        {
          "name": "Wesley",
          "latitude": "15.56667000",
          "longitude": "-61.31667000"
        },
        {
          "name": "Woodford Hill",
          "latitude": "15.58093000",
          "longitude": "-61.33149000"
        }
      ]
    },
    {
      "name": "Saint David Parish",
      "state_code": "03",
      "latitude": null,
      "longitude": null,
      "cities": [
        {
          "name": "Castle Bruce",
          "latitude": "15.44397000",
          "longitude": "-61.25723000"
        },
        {
          "name": "Rosalie",
          "latitude": "15.36667000",
          "longitude": "-61.26667000"
        }
      ]
    },
    {
      "name": "Saint George Parish",
      "state_code": "04",
      "latitude": null,
      "longitude": null,
      "cities": [
        {
          "name": "Roseau",
          "latitude": "15.30174000",
          "longitude": "-61.38808000"
        }
      ]
    },
    {
      "name": "Saint John Parish",
      "state_code": "05",
      "latitude": null,
      "longitude": null,
      "cities": [
        {
          "name": "Portsmouth",
          "latitude": "15.58333000",
          "longitude": "-61.46667000"
        }
      ]
    },
    {
      "name": "Saint Joseph Parish",
      "state_code": "06",
      "latitude": "39.02227120",
      "longitude": "-94.71765040",
      "cities": [
        {
          "name": "Saint Joseph",
          "latitude": "15.40000000",
          "longitude": "-61.43333000"
        },
        {
          "name": "Salisbury",
          "latitude": "15.43689000",
          "longitude": "-61.43637000"
        }
      ]
    },
    {
      "name": "Saint Luke Parish",
      "state_code": "07",
      "latitude": "42.10513630",
      "longitude": "-80.05707220",
      "cities": [
        {
          "name": "Pointe Michel",
          "latitude": "15.25976000",
          "longitude": "-61.37452000"
        }
      ]
    },
    {
      "name": "Saint Mark Parish",
      "state_code": "08",
      "latitude": null,
      "longitude": null,
      "cities": [
        {
          "name": "Soufrière",
          "latitude": "15.23374000",
          "longitude": "-61.35881000"
        }
      ]
    },
    {
      "name": "Saint Patrick Parish",
      "state_code": "09",
      "latitude": null,
      "longitude": null,
      "cities": [
        {
          "name": "Berekua",
          "latitude": "15.23333000",
          "longitude": "-61.31667000"
        },
        {
          "name": "La Plaine",
          "latitude": "15.32768000",
          "longitude": "-61.24753000"
        }
      ]
    },
    {
      "name": "Saint Paul Parish",
      "state_code": "10",
      "latitude": "38.86146000",
      "longitude": "-90.74356190",
      "cities": [
        {
          "name": "Mahaut",
          "latitude": "15.36357000",
          "longitude": "-61.39701000"
        },
        {
          "name": "Pont Cassé",
          "latitude": "15.36667000",
          "longitude": "-61.35000000"
        }
      ]
    },
    {
      "name": "Saint Peter Parish",
      "state_code": "11",
      "latitude": "40.45241940",
      "longitude": "-80.00850560",
      "cities": [
        {
          "name": "Colihaut",
          "latitude": "15.48478000",
          "longitude": "-61.46215000"
        }
      ]
    }
  ]
}