{"code":"EG","states":[{"name":"Alexandria Governorate","state_code":"ALX","latitude":"30.87605680","longitude":"29.74260400","cities":[{"name":"Alexandria","latitude":"31.20176000","longitude":"29.91582000"}]},{"name":"Aswan Governorate","state_code":"ASN","latitude":"23.69664980","longitude":"32.71813750","cities":[{"name":"Abu Simbel","latitude":"22.34570000","longitude":"31.61624000"},{"name":"Aswan","latitude":"24.09082000","longitude":"32.89942000"},{"name":"Idfū","latitude":"24.97916000","longitude":"32.87722000"},{"name":"Kawm Umbū","latitude":"24.47669000","longitude":"32.94626000"}]},{"name":"Asyut Governorate","state_code":"AST","latitude":"27.21338310","longitude":"31.44561790","cities":[{"name":"Abnūb","latitude":"27.26960000","longitude":"31.15105000"},{"name":"Abū Tīj","latitude":"27.04411000","longitude":"31.31897000"},{"name":"Al Badārī","latitude":"26.99257000","longitude":"31.41554000"},{"name":"Al Qūşīyah","latitude":"27.44020000","longitude":"30.81841000"},{"name":"Asyūţ","latitude":"27.18096000","longitude":"31.18368000"},{"name":"Dayrūţ","latitude":"27.55602000","longitude":"30.80764000"},{"name":"Manfalūţ","latitude":"27.31040000","longitude":"30.97004000"}]},{"name":"Beheira Governorate","state_code":"BH","latitude":"30.84809860","longitude":"30.34355060","cities":[{"name":"Abū al Maţāmīr","latitude":"30.91018000","longitude":"30.17438000"},{"name":"Ad Dilinjāt","latitude":"30.82796000","longitude":"30.53552000"},{"name":"Damanhūr","latitude":"31.03408000","longitude":"30.46823000"},{"name":"Ḩawsh ‘Īsá","latitude":"30.91280000","longitude":"30.29019000"},{"name":"Idkū","latitude":"31.30730000","longitude":"30.29810000"},{"name":"Kafr ad Dawwār","latitude":"31.13379000","longitude":"30.12969000"},{"name":"Kawm Ḩamādah","latitude":"30.76128000","longitude":"30.69972000"},{"name":"Rosetta","latitude":"31.39951000","longitude":"30.41718000"}]},{"name":"Beni Suef Governorate","state_code":"BNS","latitude":"28.89388370","longitude":"31.44561790","cities":[{"name":"Al Fashn","latitude":"28.82431000","longitude":"30.89948000"},{"name":"Banī Suwayf","latitude":"29.07441000","longitude":"31.09785000"},{"name":"Būsh","latitude":"29.14816000","longitude":"31.12733000"},{"name":"Sumusţā as Sulţānī","latitude":"28.91667000","longitude":"30.85000000"}]},{"name":"Cairo Governorate","state_code":"C","latitude":"29.95375640","longitude":"31.53700030","cities":[{"name":"Cairo","latitude":"30.06263000","longitude":"31.24967000"},{"name":"Ḩalwān","latitude":"29.84144000","longitude":"31.30084000"},{"name":"New Cairo","latitude":"30.03000000","longitude":"31.47000000"}]},{"name":"Dakahlia Governorate","state_code":"DK","latitude":"31.16560440","longitude":"31.49131820","cities":[{"name":"‘Izbat al Burj","latitude":"31.50840000","longitude":"31.84106000"},{"name":"Ajā","latitude":"30.94162000","longitude":"31.29039000"},{"name":"Al Jammālīyah","latitude":"31.18065000","longitude":"31.86497000"},{"name":"Al Manşūrah","latitude":"31.03637000","longitude":"31.38069000"},{"name":"Al Manzalah","latitude":"31.15823000","longitude":"31.93600000"},{"name":"Al Maţarīyah","latitude":"31.18287000","longitude":"32.03108000"},{"name":"Bilqās","latitude":"31.21452000","longitude":"31.35798000"},{"name":"Dikirnis","latitude":"31.08898000","longitude":"31.59478000"},{"name":"Minyat an Naşr","latitude":"31.12624000","longitude":"31.64313000"},{"name":"Shirbīn","latitude":"31.19688000","longitude":"31.52430000"},{"name":"Ţalkhā","latitude":"31.05390000","longitude":"31.37787000"}]},{"name":"Damietta Governorate","state_code":"DT","latitude":"31.36257990","longitude":"31.67393710","cities":[{"name":"Az Zarqā","latitude":"31.20864000","longitude":"31.63528000"},{"name":"Damietta","latitude":"31.41648000","longitude":"31.81332000"},{"name":"Fāraskūr","latitude":"31.32977000","longitude":"31.71507000"}]},{"name":"Faiyum Governorate","state_code":"FYM","latitude":"29.30840210","longitude":"30.84284970","cities":[{"name":"Al Fayyūm","latitude":"29.30995000","longitude":"30.84180000"},{"name":"Al Wāsiţah","latitude":"29.33778000","longitude":"31.20556000"},{"name":"Ibshawāy","latitude":"29.35896000","longitude":"30.68061000"},{"name":"Iţsā","latitude":"29.23760000","longitude":"30.78944000"},{"name":"Ţāmiyah","latitude":"29.47639000","longitude":"30.96119000"}]},{"name":"Gharbia Governorate","state_code":"GH","latitude":"30.87535560","longitude":"31.03351000","cities":[{"name":"Al Maḩallah al Kubrá","latitude":"30.97063000","longitude":"31.16690000"},{"name":"Basyūn","latitude":"30.93976000","longitude":"30.81338000"},{"name":"Kafr az Zayyāt","latitude":"30.82480000","longitude":"30.81805000"},{"name":"Quţūr","latitude":"30.97225000","longitude":"30.95614000"},{"name":"Samannūd","latitude":"30.96160000","longitude":"31.24069000"},{"name":"Tanda","latitude":"30.78847000","longitude":"31.00192000"},{"name":"Zefta","latitude":"30.71420000","longitude":"31.24425000"}]},{"name":"Giza Governorate","state_code":"GZ","latitude":"28.76662160","longitude":"29.23207840","cities":[{"name":"Al ‘Ayyāţ","latitude":"29.61972000","longitude":"31.25750000"},{"name":"Al Bawīţī","latitude":"28.34919000","longitude":"28.86591000"},{"name":"Al Ḩawāmidīyah","latitude":"29.90000000","longitude":"31.25000000"},{"name":"Aş Şaff","latitude":"29.56472000","longitude":"31.28111000"},{"name":"Awsīm","latitude":"30.12303000","longitude":"31.13571000"},{"name":"Giza","latitude":"30.00808000","longitude":"31.21093000"},{"name":"Madīnat Sittah Uktūbar","latitude":"29.81667000","longitude":"31.05000000"}]},{"name":"Ismailia Governorate","state_code":"IS","latitude":"30.58309340","longitude":"32.26538870","cities":[{"name":"Ismailia","latitude":"30.60427000","longitude":"32.27225000"}]},{"name":"Kafr el-Sheikh Governorate","state_code":"KFS","latitude":"31.30854440","longitude":"30.80394740","cities":[{"name":"Al Ḩāmūl","latitude":"31.31146000","longitude":"31.14766000"},{"name":"Disūq","latitude":"31.13259000","longitude":"30.64784000"},{"name":"Fuwwah","latitude":"31.20365000","longitude":"30.54908000"},{"name":"Kafr ash Shaykh","latitude":"31.11174000","longitude":"30.93991000"},{"name":"Markaz Disūq","latitude":"31.14590000","longitude":"30.71609000"},{"name":"Munshāt ‘Alī Āghā","latitude":"31.15791000","longitude":"30.70177000"},{"name":"Sīdī Sālim","latitude":"31.27133000","longitude":"30.78617000"}]},{"name":"Luxor Governorate","state_code":"LX","latitude":"25.39444440","longitude":"32.49200880","cities":[{"name":"Luxor","latitude":"25.69893000","longitude":"32.64210000"},{"name":"Markaz al Uqşur","latitude":"25.62986000","longitude":"32.59017000"}]},{"name":"Matrouh Governorate","state_code":"MT","latitude":"29.56963500","longitude":"26.41938900","cities":[{"name":"Al ‘Alamayn","latitude":"30.83007000","longitude":"28.95502000"},{"name":"Mersa Matruh","latitude":"31.35290000","longitude":"27.23725000"},{"name":"Siwa Oasis","latitude":"29.20320000","longitude":"25.51965000"}]},{"name":"Minya Governorate","state_code":"MN","latitude":"28.28472900","longitude":"30.52790960","cities":[{"name":"Abū Qurqāş","latitude":"27.93120000","longitude":"30.83841000"},{"name":"Al Minyā","latitude":"28.10988000","longitude":"30.75030000"},{"name":"Banī Mazār","latitude":"28.50360000","longitude":"30.80040000"},{"name":"Dayr Mawās","latitude":"27.64176000","longitude":"30.84662000"},{"name":"Mallawī","latitude":"27.73140000","longitude":"30.84165000"},{"name":"Maţāy","latitude":"28.41899000","longitude":"30.77924000"},{"name":"Samālūţ","latitude":"28.31214000","longitude":"30.71007000"}]},{"name":"Monufia Governorate","state_code":"MNF","latitude":"30.59724550","longitude":"30.98763210","cities":[{"name":"Al Bājūr","latitude":"30.43046000","longitude":"31.03679000"},{"name":"Ash Shuhadā’","latitude":"30.59683000","longitude":"30.89931000"},{"name":"Ashmūn","latitude":"30.29735000","longitude":"30.97641000"},{"name":"Munūf","latitude":"30.46597000","longitude":"30.93199000"},{"name":"Quwaysinā","latitude":"30.56482000","longitude":"31.15777000"},{"name":"Shibīn al Kawm","latitude":"30.55258000","longitude":"31.00904000"},{"name":"Talā","latitude":"30.67980000","longitude":"30.94364000"}]},{"name":"New Valley Governorate","state_code":"WAD","latitude":"24.54556380","longitude":"27.17353160","cities":[{"name":"Al Khārijah","latitude":"25.45141000","longitude":"30.54635000"},{"name":"Qaşr al Farāfirah","latitude":"27.05680000","longitude":"27.96979000"}]},{"name":"North Sinai Governorate","state_code":"SIN","latitude":"30.28236500","longitude":"33.61757700","cities":[{"name":"Arish","latitude":"31.13159000","longitude":"33.79844000"}]},{"name":"Port Said Governorate","state_code":"PTS","latitude":"31.07586060","longitude":"32.26538870","cities":[{"name":"Port Said","latitude":"31.25654000","longitude":"32.28411000"}]},{"name":"Qalyubia Governorate","state_code":"KB","latitude":"30.32923680","longitude":"31.21684660","cities":[{"name":"Al Khānkah","latitude":"30.21035000","longitude":"31.36812000"},{"name":"Al Qanāţir al Khayrīyah","latitude":"30.19327000","longitude":"31.13703000"},{"name":"Banhā","latitude":"30.45977000","longitude":"31.18420000"},{"name":"Qalyūb","latitude":"30.17922000","longitude":"31.20560000"},{"name":"Shibīn al Qanāṭir","latitude":"30.31269000","longitude":"31.32018000"},{"name":"Toukh","latitude":"30.35487000","longitude":"31.20105000"}]},{"name":"Qena Governorate","state_code":"KN","latitude":"26.23460330","longitude":"32.98883190","cities":[{"name":"Dishnā","latitude":"26.12467000","longitude":"32.47598000"},{"name":"Farshūţ","latitude":"26.05494000","longitude":"32.16329000"},{"name":"Isnā","latitude":"25.29336000","longitude":"32.55402000"},{"name":"Kousa","latitude":"25.91407000","longitude":"32.76362000"},{"name":"Naja' Ḥammādī","latitude":"26.04949000","longitude":"32.24142000"},{"name":"Qinā","latitude":"26.16418000","longitude":"32.72671000"}]},{"name":"Red Sea Governorate","state_code":"BA","latitude":"24.68263160","longitude":"34.15319470","cities":[{"name":"Al Quşayr","latitude":"26.10426000","longitude":"34.27793000"},{"name":"El Gouna","latitude":"27.39417000","longitude":"33.67825000"},{"name":"Hurghada","latitude":"27.25738000","longitude":"33.81291000"},{"name":"Makadi Bay","latitude":"26.99123000","longitude":"33.89952000"},{"name":"Marsa Alam","latitude":"25.06305000","longitude":"34.89005000"},{"name":"Ras Gharib","latitude":"28.35831000","longitude":"33.07829000"},{"name":"Safaga","latitude":"26.74906000","longitude":"33.93891000"}]},{"name":"Sohag Governorate","state_code":"SHG","latitude":"26.69383400","longitude":"32.17460500","cities":[{"name":"Akhmīm","latitude":"26.56217000","longitude":"31.74503000"},{"name":"Al Balyanā","latitude":"26.23568000","longitude":"32.00347000"},{"name":"Al Manshāh","latitude":"26.47686000","longitude":"31.80350000"},{"name":"Jirjā","latitude":"26.33826000","longitude":"31.89161000"},{"name":"Juhaynah","latitude":"26.67319000","longitude":"31.49760000"},{"name":"Markaz Jirjā","latitude":"26.30683000","longitude":"31.84574000"},{"name":"Markaz Sūhāj","latitude":"26.53948000","longitude":"31.67524000"},{"name":"Sohag","latitude":"26.55695000","longitude":"31.69478000"},{"name":"Ţahţā","latitude":"26.76930000","longitude":"31.50214000"}]},{"name":"South Sinai Governorate","state_code":"JS","latitude":"29.31018280","longitude":"34.15319470","cities":[{"name":"Dahab","latitude":"28.48208000","longitude":"34.49505000"},{"name":"El-Tor","latitude":"28.24168000","longitude":"33.62220000"},{"name":"Nuwaybi‘a","latitude":"29.04681000","longitude":"34.66340000"},{"name":"Saint Catherine","latitude":"28.56191000","longitude":"33.94934000"},{"name":"Sharm el-Sheikh","latitude":"27.91582000","longitude":"34.32995000"}]},{"name":"Suez Governorate","state_code":"SUZ","latitude":"29.36822550","longitude":"32.17460500","cities":[{"name":"Ain Sukhna","latitude":"29.60018000","longitude":"32.31671000"},{"name":"Suez","latitude":"29.97371000","longitude":"32.52627000"}]}]}