{
  "code": "IN",
  "states": [
    {
      "name": "Andaman and Nicobar Islands",
      "state_code": "AN",
      "latitude": "11.74008670",
      "longitude": "92.65864010",
      "cities": [
        {
          "name": "Bamboo Flat",
          "latitude": "11.70000000",
          "longitude": "92.71667000"
        },
        {
          "name": "Nicobar",
          "latitude": "7.03002000",
          "longitude": "93.79028000"
        },
        {
          "name": "Port Blair",
          "latitude": "11.66613000",
          "longitude": "92.74635000"
        },
        {
          "name": "South Andaman",
          "latitude": "10.75776000",
          "longitude": "92.52136000"
        }
      ]
    },
    {
      "name": "Andhra Pradesh",
      "state_code": "AP",
      "latitude": "15.91289980",
      "longitude": "79.73998750",
      "cities": [
        {
          "name": "Addanki",
          "latitude": "15.81061000",
          "longitude": "79.97338000"
        },
        {
          "name": "Adoni",
          "latitude": "15.62788000",
          "longitude": "77.27495000"
        },
        {
          "name": "Akasahebpet",
          "latitude": "17.50455000",
          "longitude": "82.56597000"
        },
        {
          "name": "Akividu",
          "latitude": "16.58225000",
          "longitude": "81.38112000"
        },
        {
          "name": "Akkarampalle",
          "latitude": "13.65000000",
          "longitude": "79.42000000"
        },
        {
          "name": "Amalapuram",
          "latitude": "16.57868000",
          "longitude": "82.00609000"
        },
        {
          "name": "Amudalavalasa",
          "latitude": "18.41025000",
          "longitude": "83.90295000"
        },
        {
          "name": "Anakapalle",
          "latitude": "17.69134000",
          "longitude": "83.00395000"
        },
        {
          "name": "Anantapur",
          "latitude": "14.55000000",
          "longitude": "77.41667000"
        },
        {
          "name": "Atmakur",
          "latitude": "15.88109000",
          "longitude": "78.58704000"
        },
        {
          "name": "Attili",
          "latitude": "16.70000000",
          "longitude": "81.60000000"
        },
        {
          "name": "Avanigadda",
          "latitude": "16.02148000",
          "longitude": "80.91808000"
        },
        {
          "name": "Badvel",
          "latitude": "14.74510000",
          "longitude": "79.06288000"
        },
        {
          "name": "Banganapalle",
          "latitude": "15.31771000",
          "longitude": "78.22669000"
        },
        {
          "name": "Bapatla",
          "latitude": "15.90422000",
          "longitude": "80.46743000"
        },
        {
          "name": "Betamcherla",
          "latitude": "15.45144000",
          "longitude": "78.14797000"
        },
        {
          "name": "Bhattiprolu",
          "latitude": "16.10260000",
          "longitude": "80.78074000"
        },
        {
          "name": "Bhimavaram",
          "latitude": "16.54078000",
          "longitude": "81.52322000"
        },
        {
          "name": "Bhimunipatnam",
          "latitude": "17.89017000",
          "longitude": "83.45203000"
        },
        {
          "name": "Bobbili",
          "latitude": "18.57366000",
          "longitude": "83.35925000"
        },
        {
          "name": "Challapalle",
          "latitude": "16.11756000",
          "longitude": "80.93139000"
        },
        {
          "name": "Chemmumiahpet",
          "latitude": "15.89794000",
          "longitude": "79.32129000"
        },
        {
          "name": "Chilakalurupet",
          "latitude": "16.08987000",
          "longitude": "80.16705000"
        },
        {
          "name": "Chinnachowk",
          "latitude": "14.47516000",
          "longitude": "78.83540000"
        },
        {
          "name": "Chipurupalle",
          "latitude": "18.31142000",
          "longitude": "83.56846000"
        },
        {
          "name": "Chirala",
          "latitude": "15.82385000",
          "longitude": "80.35219000"
        },
        {
          "name": "Chittoor",
          "latitude": "13.41667000",
          "longitude": "79.00000000"
        },
        {
          "name": "Chodavaram",
          "latitude": "17.82884000",
          "longitude": "82.93526000"
        },
        {
          "name": "Cuddapah",
          "latitude": "14.41667000",
          "longitude": "78.75000000"
        },
        {
          "name": "Cumbum",
          "latitude": "15.58171000",
          "longitude": "79.11059000"
        },
        {
          "name": "Darsi",
          "latitude": "15.76978000",
          "longitude": "79.67939000"
        },
        {
          "name": "Dharmavaram",
          "latitude": "14.41435000",
          "longitude": "77.72035000"
        },
        {
          "name": "Dhone",
          "latitude": "15.39520000",
          "longitude": "77.87150000"
        },
        {
          "name": "Diguvametta",
          "latitude": "15.39507000",
          "longitude": "78.82930000"
        },
        {
          "name": "East Godavari",
          "latitude": "17.83333000",
          "longitude": "81.83333000"
        },
        {
          "name": "Elamanchili",
          "latitude": "17.54907000",
          "longitude": "82.85749000"
        },
        {
          "name": "Ellore",
          "latitude": "16.71311000",
          "longitude": "81.10437000"
        },
        {
          "name": "Emmiganur",
          "latitude": "15.77203000",
          "longitude": "77.48345000"
        },
        {
          "name": "Erraguntla",
          "latitude": "14.63853000",
          "longitude": "78.53974000"
        },
        {
          "name": "Etikoppaka",
          "latitude": "17.50000000",
          "longitude": "82.73333000"
        },
        {
          "name": "Gajuwaka",
          "latitude": "17.70000000",
          "longitude": "83.21667000"
        },
        {
          "name": "Ganguvada",
          "latitude": "18.66667000",
          "longitude": "84.11667000"
        },
        {
          "name": "Gannavaram",
          "latitude": "16.54092000",
          "longitude": "80.80213000"
        },
        {
          "name": "Giddalur",
          "latitude": "15.37439000",
          "longitude": "78.92609000"
        },
        {
          "name": "Gokavaram",
          "latitude": "17.25823000",
          "longitude": "81.84985000"
        },
        {
          "name": "Gorantla",
          "latitude": "13.98411000",
          "longitude": "77.77224000"
        },
        {
          "name": "Govindapuram,Chilakaluripet,Guntur",
          "latitude": "16.15477000",
          "longitude": "80.10279000"
        },
        {
          "name": "Gudivada",
          "latitude": "16.43547000",
          "longitude": "80.99555000"
        },
        {
          "name": "Gudlavalleru",
          "latitude": "16.35000000",
          "longitude": "81.05000000"
        },
        {
          "name": "Gudur",
          "latitude": "14.15093000",
          "longitude": "79.85210000"
        },
        {
          "name": "Guntakal Junction",
          "latitude": "15.17112000",
          "longitude": "77.36244000"
        },
        {
          "name": "Guntur",
          "latitude": "16.29974000",
          "longitude": "80.45729000"
        },
        {
          "name": "Hindupur",
          "latitude": "13.82807000",
          "longitude": "77.49143000"
        },
        {
          "name": "Ichchapuram",
          "latitude": "19.11393000",
          "longitude": "84.68721000"
        },
        {
          "name": "Jaggayyapeta",
          "latitude": "16.89380000",
          "longitude": "80.09807000"
        },
        {
          "name": "Jammalamadugu",
          "latitude": "14.84677000",
          "longitude": "78.38314000"
        },
        {
          "name": "Kadiri",
          "latitude": "14.11168000",
          "longitude": "78.15982000"
        },
        {
          "name": "Kaikalur",
          "latitude": "16.55154000",
          "longitude": "81.21400000"
        },
        {
          "name": "Kakinada",
          "latitude": "16.96036000",
          "longitude": "82.23809000"
        },
        {
          "name": "Kalyandurg",
          "latitude": "14.54519000",
          "longitude": "77.10552000"
        },
        {
          "name": "Kamalapuram",
          "latitude": "14.59830000",
          "longitude": "78.66948000"
        },
        {
          "name": "Kandukur",
          "latitude": "15.21542000",
          "longitude": "79.90390000"
        },
        {
          "name": "Kanigiri",
          "latitude": "15.40555000",
          "longitude": "79.50694000"
        },
        {
          "name": "Kankipadu",
          "latitude": "16.43530000",
          "longitude": "80.76715000"
        },
        {
          "name": "Kanuru",
          "latitude": "16.28584000",
          "longitude": "81.25464000"
        },
        {
          "name": "Kavali",
          "latitude": "14.91630000",
          "longitude": "79.99449000"
        },
        {
          "name": "Kolanukonda",
          "latitude": "16.45392000",
          "longitude": "80.61046000"
        },
        {
          "name": "Kondapalle",
          "latitude": "16.61989000",
          "longitude": "80.54244000"
        },
        {
          "name": "Korukollu",
          "latitude": "16.50000000",
          "longitude": "81.25000000"
        },
        {
          "name": "Kosigi",
          "latitude": "15.85510000",
          "longitude": "77.24463000"
        },
        {
          "name": "Kovvur",
          "latitude": "17.01620000",
          "longitude": "81.72934000"
        },
        {
          "name": "Krishna",
          "latitude": "16.66667000",
          "longitude": "81.00000000"
        },
        {
          "name": "Kuppam",
          "latitude": "12.74931000",
          "longitude": "78.34189000"
        },
        {
          "name": "Kurnool",
          "latitude": "15.58333000",
          "longitude": "78.33333000"
        },
        {
          "name": "Macherla",
          "latitude": "16.47635000",
          "longitude": "79.43533000"
        },
        {
          "name": "Machilipatnam",
          "latitude": "16.18747000",
          "longitude": "81.13888000"
        },
        {
          "name": "Madanapalle",
          "latitude": "13.55030000",
          "longitude": "78.50288000"
        },
        {
          "name": "Madugula",
          "latitude": "17.91589000",
          "longitude": "82.81578000"
        },
        {
          "name": "Mandapeta",
          "latitude": "16.86254000",
          "longitude": "81.92921000"
        },
        {
          "name": "Mandasa",
          "latitude": "18.86830000",
          "longitude": "84.46296000"
        },
        {
          "name": "Mangalagiri",
          "latitude": "16.43083000",
          "longitude": "80.56815000"
        },
        {
          "name": "Markapur",
          "latitude": "15.73534000",
          "longitude": "79.26848000"
        },
        {
          "name": "Nagari",
          "latitude": "13.32139000",
          "longitude": "79.58557000"
        },
        {
          "name": "Nagireddipalli",
          "latitude": "14.27005000",
          "longitude": "79.10131000"
        },
        {
          "name": "Nandigama",
          "latitude": "16.77170000",
          "longitude": "80.28596000"
        },
        {
          "name": "Nandikotkur",
          "latitude": "15.85668000",
          "longitude": "78.26569000"
        },
        {
          "name": "Nandyal",
          "latitude": "15.47799000",
          "longitude": "78.48360000"
        },
        {
          "name": "Narasannapeta",
          "latitude": "18.41428000",
          "longitude": "84.04463000"
        },
        {
          "name": "Narasapur",
          "latitude": "16.43425000",
          "longitude": "81.69845000"
        },
        {
          "name": "Narasaraopet",
          "latitude": "16.23488000",
          "longitude": "80.04927000"
        },
        {
          "name": "Narasingapuram",
          "latitude": "13.60759000",
          "longitude": "79.31652000"
        },
        {
          "name": "Narayanavanam",
          "latitude": "13.42565000",
          "longitude": "79.58881000"
        },
        {
          "name": "Narsipatnam",
          "latitude": "17.66709000",
          "longitude": "82.61245000"
        },
        {
          "name": "Nayudupet",
          "latitude": "13.90742000",
          "longitude": "79.89465000"
        },
        {
          "name": "Nellore",
          "latitude": "14.08333000",
          "longitude": "79.58333000"
        },
        {
          "name": "Nidadavole",
          "latitude": "16.90572000",
          "longitude": "81.67222000"
        },
        {
          "name": "Nuzvid",
          "latitude": "16.78854000",
          "longitude": "80.84593000"
        },
        {
          "name": "Ongole",
          "latitude": "15.50357000",
          "longitude": "80.04454000"
        },
        {
          "name": "Pakala",
          "latitude": "13.44903000",
          "longitude": "79.11493000"
        },
        {
          "name": "Palakollu",
          "latitude": "16.51670000",
          "longitude": "81.73000000"
        },
        {
          "name": "Palasa",
          "latitude": "18.77257000",
          "longitude": "84.41012000"
        },
        {
          "name": "Palkonda",
          "latitude": "18.60374000",
          "longitude": "83.75568000"
        },
        {
          "name": "Pallevada",
          "latitude": "16.57790000",
          "longitude": "81.29463000"
        },
        {
          "name": "Palmaner",
          "latitude": "13.20000000",
          "longitude": "78.74725000"
        },
        {
          "name": "Parlakimidi",
          "latitude": "18.78113000",
          "longitude": "84.08836000"
        },
        {
          "name": "Parvatipuram",
          "latitude": "18.78392000",
          "longitude": "83.42569000"
        },
        {
          "name": "Pavuluru",
          "latitude": "15.85292000",
          "longitude": "80.16468000"
        },
        {
          "name": "Pedana",
          "latitude": "16.25582000",
          "longitude": "81.14378000"
        },
        {
          "name": "pedda nakkalapalem",
          "latitude": "15.86680000",
          "longitude": "80.16202000"
        },
        {
          "name": "Peddapuram",
          "latitude": "17.07701000",
          "longitude": "82.13836000"
        },
        {
          "name": "Penugonda",
          "latitude": "16.65363000",
          "longitude": "81.74550000"
        },
        {
          "name": "Penukonda",
          "latitude": "14.08286000",
          "longitude": "77.59473000"
        },
        {
          "name": "Phirangipuram",
          "latitude": "16.29078000",
          "longitude": "80.26233000"
        },
        {
          "name": "Pippara",
          "latitude": "16.71667000",
          "longitude": "81.55000000"
        },
        {
          "name": "Pithapuram",
          "latitude": "17.11680000",
          "longitude": "82.25284000"
        },
        {
          "name": "Polavaram",
          "latitude": "17.24754000",
          "longitude": "81.64372000"
        },
        {
          "name": "Ponnur",
          "latitude": "16.07114000",
          "longitude": "80.54944000"
        },
        {
          "name": "Ponnuru",
          "latitude": "16.06547000",
          "longitude": "80.55203000"
        },
        {
          "name": "Prakasam",
          "latitude": "15.50000000",
          "longitude": "79.50000000"
        },
        {
          "name": "Proddatur",
          "latitude": "14.75020000",
          "longitude": "78.54813000"
        },
        {
          "name": "Pulivendla",
          "latitude": "14.42139000",
          "longitude": "78.22502000"
        },
        {
          "name": "Punganuru",
          "latitude": "13.36672000",
          "longitude": "78.57186000"
        },
        {
          "name": "Puttaparthi",
          "latitude": "14.16520000",
          "longitude": "77.81170000"
        },
        {
          "name": "Puttur",
          "latitude": "13.44189000",
          "longitude": "79.55314000"
        },
        {
          "name": "Rajahmundry",
          "latitude": "17.00517000",
          "longitude": "81.77784000"
        },
        {
          "name": "Ramachandrapuram",
          "latitude": "16.83636000",
          "longitude": "82.02871000"
        },
        {
          "name": "Ramanayyapeta",
          "latitude": "16.94516000",
          "longitude": "82.23850000"
        },
        {
          "name": "Ramapuram",
          "latitude": "15.28749000",
          "longitude": "77.86722000"
        },
        {
          "name": "Rampachodavaram",
          "latitude": "17.44088000",
          "longitude": "81.77558000"
        },
        {
          "name": "Rayachoti",
          "latitude": "14.05723000",
          "longitude": "78.75056000"
        },
        {
          "name": "Rayadrug",
          "latitude": "14.69971000",
          "longitude": "76.85241000"
        },
        {
          "name": "Razam",
          "latitude": "18.44909000",
          "longitude": "83.65957000"
        },
        {
          "name": "Razampeta",
          "latitude": "14.19544000",
          "longitude": "79.15896000"
        },
        {
          "name": "Razole",
          "latitude": "16.47608000",
          "longitude": "81.83912000"
        },
        {
          "name": "Renigunta",
          "latitude": "13.65143000",
          "longitude": "79.51256000"
        },
        {
          "name": "Repalle",
          "latitude": "16.01840000",
          "longitude": "80.82958000"
        },
        {
          "name": "Salur",
          "latitude": "18.51716000",
          "longitude": "83.20548000"
        },
        {
          "name": "Samalkot",
          "latitude": "17.05675000",
          "longitude": "82.17639000"
        },
        {
          "name": "Sattenapalle",
          "latitude": "16.39381000",
          "longitude": "80.15221000"
        },
        {
          "name": "Singarayakonda",
          "latitude": "15.23046000",
          "longitude": "80.02794000"
        },
        {
          "name": "Sompeta",
          "latitude": "18.94419000",
          "longitude": "84.58449000"
        },
        {
          "name": "Srikakulam",
          "latitude": "18.29890000",
          "longitude": "83.89751000"
        },
        {
          "name": "Srisailain",
          "latitude": "16.07217000",
          "longitude": "78.86816000"
        },
        {
          "name": "Suluru",
          "latitude": "13.70000000",
          "longitude": "80.01667000"
        },
        {
          "name": "Tadepalle",
          "latitude": "16.48333000",
          "longitude": "80.60000000"
        },
        {
          "name": "Tadepallegudem",
          "latitude": "16.81467000",
          "longitude": "81.52717000"
        },
        {
          "name": "Tadpatri",
          "latitude": "14.90832000",
          "longitude": "78.01031000"
        },
        {
          "name": "Tanuku",
          "latitude": "16.75438000",
          "longitude": "81.68143000"
        },
        {
          "name": "Tekkali",
          "latitude": "18.60570000",
          "longitude": "84.23546000"
        },
        {
          "name": "Tirumala",
          "latitude": "13.68333000",
          "longitude": "79.35000000"
        },
        {
          "name": "Tirupati",
          "latitude": "13.63551000",
          "longitude": "79.41989000"
        },
        {
          "name": "Tuni",
          "latitude": "17.35905000",
          "longitude": "82.54607000"
        },
        {
          "name": "Uravakonda",
          "latitude": "14.94348000",
          "longitude": "77.25494000"
        },
        {
          "name": "vadlamuru",
          "latitude": "17.09545000",
          "longitude": "82.16565000"
        },
        {
          "name": "Vadlapudi",
          "latitude": "14.31119000",
          "longitude": "79.80430000"
        },
        {
          "name": "Venkatagiri",
          "latitude": "13.96005000",
          "longitude": "79.58032000"
        },
        {
          "name": "Vepagunta",
          "latitude": "17.77844000",
          "longitude": "83.21577000"
        },
        {
          "name": "Vetapalem",
          "latitude": "15.78502000",
          "longitude": "80.30663000"
        },
        {
          "name": "Vijayawada",
          "latitude": "16.50745000",
          "longitude": "80.64660000"
        },
        {
          "name": "Vinukonda",
          "latitude": "16.05310000",
          "longitude": "79.73964000"
        },
        {
          "name": "Visakhapatnam",
          "latitude": "17.68009000",
          "longitude": "83.20161000"
        },
        {
          "name": "Vizianagaram",
          "latitude": "18.11692000",
          "longitude": "83.41148000"
        },
        {
          "name": "Vizianagaram District",
          "latitude": "18.41102000",
          "longitude": "83.37677000"
        },
        {
          "name": "Vuyyuru",
          "latitude": "16.36307000",
          "longitude": "80.84406000"
        },
        {
          "name": "West Godavari",
          "latitude": "17.00000000",
          "longitude": "81.16667000"
        },
        {
          "name": "Yanam",
          "latitude": "16.73308000",
          "longitude": "82.21364000"
        },
        {
          "name": "Yanamalakuduru",
          "latitude": "16.48531000",
          "longitude": "80.66746000"
        },
        {
          "name": "Yarada",
          "latitude": "17.65872000",
          "longitude": "83.27419000"
        }
      ]
    },
    {
      "name": "Arunachal Pradesh",
      "state_code": "AR",
      "latitude": "28.21799940",
      "longitude": "94.72775280",
      "cities": [
        {
          "name": "Along",
          "latitude": "28.16951000",
          "longitude": "94.80060000"
        },
        {
          "name": "Anjaw",
          "latitude": "28.06549000",
          "longitude": "96.82878000"
        },
        {
          "name": "Basar",
          "latitude": "27.99008000",
          "longitude": "94.69451000"
        },
        {
          "name": "Bomdila",
          "latitude": "27.26475000",
          "longitude": "92.42472000"
        },
        {
          "name": "Changlang",
          "latitude": "27.36265000",
          "longitude": "96.34518000"
        },
        {
          "name": "Dibang Valley",
          "latitude": "28.70000000",
          "longitude": "95.70000000"
        },
        {
          "name": "East Kameng",
          "latitude": "27.30000000",
          "longitude": "93.05000000"
        },
        {
          "name": "East Siang",
          "latitude": "28.12379000",
          "longitude": "95.16339000"
        },
        {
          "name": "Hayuliang",
          "latitude": "28.07301000",
          "longitude": "96.54305000"
        },
        {
          "name": "Itanagar",
          "latitude": "27.08694000",
          "longitude": "93.60987000"
        },
        {
          "name": "Khonsa",
          "latitude": "27.01667000",
          "longitude": "95.56667000"
        },
        {
          "name": "Kurung Kumey",
          "latitude": "27.99983000",
          "longitude": "93.39240000"
        },
        {
          "name": "Lohit District",
          "latitude": "27.84012000",
          "longitude": "96.19521000"
        },
        {
          "name": "Lower Dibang Valley",
          "latitude": "28.37258000",
          "longitude": "95.88040000"
        },
        {
          "name": "Lower Subansiri",
          "latitude": "27.62554000",
          "longitude": "93.93908000"
        },
        {
          "name": "Margherita",
          "latitude": "27.28482000",
          "longitude": "95.66796000"
        },
        {
          "name": "Naharlagun",
          "latitude": "27.10467000",
          "longitude": "93.69518000"
        },
        {
          "name": "Pasighat",
          "latitude": "28.06631000",
          "longitude": "95.32678000"
        },
        {
          "name": "Tawang",
          "latitude": "27.57417000",
          "longitude": "91.92437000"
        },
        {
          "name": "Tezu",
          "latitude": "27.91256000",
          "longitude": "96.12882000"
        },
        {
          "name": "Tirap",
          "latitude": "27.01917000",
          "longitude": "95.51788000"
        },
        {
          "name": "Upper Siang",
          "latitude": "28.83355000",
          "longitude": "94.91806000"
        },
        {
          "name": "Upper Subansiri",
          "latitude": "28.30000000",
          "longitude": "94.00000000"
        },
        {
          "name": "West Kameng",
          "latitude": "27.40000000",
          "longitude": "92.35000000"
        },
        {
          "name": "West Siang",
          "latitude": "28.40000000",
          "longitude": "94.55000000"
        },
        {
          "name": "Ziro",
          "latitude": "27.59497000",
          "longitude": "93.83854000"
        }
      ]
    },
    {
      "name": "Assam",
      "state_code": "AS",
      "latitude": "26.20060430",
      "longitude": "92.93757390",
      "cities": [
        {
          "name": "Abhayapuri",
          "latitude": "26.32255000",
          "longitude": "90.68526000"
        },
        {
          "name": "Amguri",
          "latitude": "26.81482000",
          "longitude": "94.52614000"
        },
        {
          "name": "Badarpur",
          "latitude": "24.86852000",
          "longitude": "92.59606000"
        },
        {
          "name": "Baksa",
          "latitude": "26.69804000",
          "longitude": "91.15142000"
        },
        {
          "name": "Barpathar",
          "latitude": "26.28709000",
          "longitude": "93.88844000"
        },
        {
          "name": "Barpeta",
          "latitude": "26.47104000",
          "longitude": "91.03080000"
        },
        {
          "name": "Barpeta Road",
          "latitude": "26.50284000",
          "longitude": "90.96937000"
        },
        {
          "name": "Basugaon",
          "latitude": "26.46742000",
          "longitude": "90.41951000"
        },
        {
          "name": "Bihpuriagaon",
          "latitude": "27.01718000",
          "longitude": "93.91673000"
        },
        {
          "name": "Bijni",
          "latitude": "26.49588000",
          "longitude": "90.70298000"
        },
        {
          "name": "Bilasipara",
          "latitude": "26.23285000",
          "longitude": "90.23410000"
        },
        {
          "name": "Bokajan",
          "latitude": "26.02131000",
          "longitude": "93.77945000"
        },
        {
          "name": "Bokakhat",
          "latitude": "26.64018000",
          "longitude": "93.60052000"
        },
        {
          "name": "Bongaigaon",
          "latitude": "26.46030000",
          "longitude": "90.64640000"
        },
        {
          "name": "Cachar",
          "latitude": "24.78213000",
          "longitude": "92.85771000"
        },
        {
          "name": "Chabua",
          "latitude": "27.48253000",
          "longitude": "95.17451000"
        },
        {
          "name": "Chapar",
          "latitude": "26.27266000",
          "longitude": "90.44556000"
        },
        {
          "name": "Chirang",
          "latitude": "26.52527000",
          "longitude": "90.49066000"
        },
        {
          "name": "Darrang",
          "latitude": "26.51195000",
          "longitude": "92.16843000"
        },
        {
          "name": "Dergaon",
          "latitude": "26.70000000",
          "longitude": "93.96667000"
        },
        {
          "name": "Dhekiajuli",
          "latitude": "26.70367000",
          "longitude": "92.47808000"
        },
        {
          "name": "Dhemaji",
          "latitude": "27.60910000",
          "longitude": "94.79420000"
        },
        {
          "name": "Dhing",
          "latitude": "26.46793000",
          "longitude": "92.47336000"
        },
        {
          "name": "Dhubri",
          "latitude": "26.06749000",
          "longitude": "90.02238000"
        },
        {
          "name": "Dibrugarh",
          "latitude": "27.50000000",
          "longitude": "95.00000000"
        },
        {
          "name": "Digboi",
          "latitude": "27.39321000",
          "longitude": "95.61839000"
        },
        {
          "name": "Dima Hasao District",
          "latitude": "25.50000000",
          "longitude": "93.00000000"
        },
        {
          "name": "Diphu",
          "latitude": "25.84341000",
          "longitude": "93.43116000"
        },
        {
          "name": "Dispur",
          "latitude": "26.13564000",
          "longitude": "91.80069000"
        },
        {
          "name": "Duliagaon",
          "latitude": "27.37227000",
          "longitude": "95.30754000"
        },
        {
          "name": "Dum Duma",
          "latitude": "27.56884000",
          "longitude": "95.55664000"
        },
        {
          "name": "Gauripur",
          "latitude": "26.08334000",
          "longitude": "89.96118000"
        },
        {
          "name": "Goalpara",
          "latitude": "26.12791000",
          "longitude": "90.60974000"
        },
        {
          "name": "Gohpur",
          "latitude": "26.88184000",
          "longitude": "93.61560000"
        },
        {
          "name": "Golaghat",
          "latitude": "26.40920000",
          "longitude": "93.91193000"
        },
        {
          "name": "Golakganj",
          "latitude": "26.10216000",
          "longitude": "89.82275000"
        },
        {
          "name": "Goshaingaon",
          "latitude": "26.43946000",
          "longitude": "89.96307000"
        },
        {
          "name": "Guwahati",
          "latitude": "26.18440000",
          "longitude": "91.74580000"
        },
        {
          "name": "Haflong",
          "latitude": "25.16478000",
          "longitude": "93.01744000"
        },
        {
          "name": "Hailakandi",
          "latitude": "24.50170000",
          "longitude": "92.60069000"
        },
        {
          "name": "Hajo",
          "latitude": "26.24520000",
          "longitude": "91.52525000"
        },
        {
          "name": "Hojai",
          "latitude": "26.00281000",
          "longitude": "92.85605000"
        },
        {
          "name": "Howli",
          "latitude": "26.42237000",
          "longitude": "90.98004000"
        },
        {
          "name": "Jogighopa",
          "latitude": "26.22646000",
          "longitude": "90.57247000"
        },
        {
          "name": "Jorhat",
          "latitude": "26.80000000",
          "longitude": "94.26000000"
        },
        {
          "name": "Kamrup",
          "latitude": "26.22322000",
          "longitude": "91.65344000"
        },
        {
          "name": "Kamrup Metropolitan",
          "latitude": "26.05375000",
          "longitude": "92.00763000"
        },
        {
          "name": "Karbi Anglong",
          "latitude": "26.00000000",
          "longitude": "93.50000000"
        },
        {
          "name": "Karimganj",
          "latitude": "24.60000000",
          "longitude": "92.40000000"
        },
        {
          "name": "Kharupatia",
          "latitude": "26.51839000",
          "longitude": "92.14722000"
        },
        {
          "name": "Kokrajhar",
          "latitude": "26.60000000",
          "longitude": "90.20000000"
        },
        {
          "name": "Lakhimpur",
          "latitude": "27.35000000",
          "longitude": "94.25000000"
        },
        {
          "name": "Lakhipur",
          "latitude": "24.79281000",
          "longitude": "93.00910000"
        },
        {
          "name": "Lala",
          "latitude": "24.55418000",
          "longitude": "92.61592000"
        },
        {
          "name": "Lumding Railway Colony",
          "latitude": "25.74903000",
          "longitude": "93.16998000"
        },
        {
          "name": "Mahur",
          "latitude": "25.18305000",
          "longitude": "93.11342000"
        },
        {
          "name": "Maibong",
          "latitude": "25.30125000",
          "longitude": "93.13811000"
        },
        {
          "name": "Makum",
          "latitude": "27.48652000",
          "longitude": "95.43646000"
        },
        {
          "name": "Mangaldai",
          "latitude": "26.44212000",
          "longitude": "92.03047000"
        },
        {
          "name": "Mariani",
          "latitude": "26.65725000",
          "longitude": "94.31529000"
        },
        {
          "name": "Moranha",
          "latitude": "27.18735000",
          "longitude": "94.91557000"
        },
        {
          "name": "Morigaon",
          "latitude": "26.25213000",
          "longitude": "92.34238000"
        },
        {
          "name": "Nagaon",
          "latitude": "26.35037000",
          "longitude": "92.69225000"
        },
        {
          "name": "Nahorkatiya",
          "latitude": "27.28912000",
          "longitude": "95.34180000"
        },
        {
          "name": "Nalbari",
          "latitude": "26.50000000",
          "longitude": "91.40000000"
        },
        {
          "name": "Namrup",
          "latitude": "27.19395000",
          "longitude": "95.31929000"
        },
        {
          "name": "Nazira",
          "latitude": "26.91649000",
          "longitude": "94.73611000"
        },
        {
          "name": "North Guwahati",
          "latitude": "26.19749000",
          "longitude": "91.72020000"
        },
        {
          "name": "North Lakhimpur",
          "latitude": "27.23517000",
          "longitude": "94.10357000"
        },
        {
          "name": "Numaligarh",
          "latitude": "26.62249000",
          "longitude": "93.72225000"
        },
        {
          "name": "Palasbari",
          "latitude": "26.12388000",
          "longitude": "91.53974000"
        },
        {
          "name": "Raha",
          "latitude": "26.23333000",
          "longitude": "92.51667000"
        },
        {
          "name": "Rangapara",
          "latitude": "26.83772000",
          "longitude": "92.66876000"
        },
        {
          "name": "Rangia",
          "latitude": "26.44931000",
          "longitude": "91.61356000"
        },
        {
          "name": "Sapatgram",
          "latitude": "26.33732000",
          "longitude": "90.12360000"
        },
        {
          "name": "Sarupathar",
          "latitude": "26.20600000",
          "longitude": "96.81000000"
        },
        {
          "name": "Sibsagar",
          "latitude": "26.98427000",
          "longitude": "94.63784000"
        },
        {
          "name": "Silapathar",
          "latitude": "27.59441000",
          "longitude": "94.72402000"
        },
        {
          "name": "Silchar",
          "latitude": "24.82733000",
          "longitude": "92.79787000"
        },
        {
          "name": "Soalkuchi",
          "latitude": "26.16806000",
          "longitude": "91.57111000"
        },
        {
          "name": "Sonari",
          "latitude": "27.02462000",
          "longitude": "95.01629000"
        },
        {
          "name": "Sonitpur",
          "latitude": "26.76748000",
          "longitude": "92.96425000"
        },
        {
          "name": "Sorbhog",
          "latitude": "26.48612000",
          "longitude": "90.88590000"
        },
        {
          "name": "Tezpur",
          "latitude": "26.63333000",
          "longitude": "92.80000000"
        },
        {
          "name": "Tinsukia",
          "latitude": "27.60000000",
          "longitude": "95.60000000"
        },
        {
          "name": "Titabar",
          "latitude": "26.60140000",
          "longitude": "94.20386000"
        },
        {
          "name": "Udalguri",
          "latitude": "26.75367000",
          "longitude": "92.10215000"
        }
      ]
    },
    {
      "name": "Bihar",
      "state_code": "BR",
      "latitude": "25.09607420",
      "longitude": "85.31311940",
      "cities": [
        {
          "name": "Amarpur",
          "latitude": "25.03967000",
          "longitude": "86.90247000"
        },
        {
          "name": "Araria",
          "latitude": "26.20000000",
          "longitude": "87.40000000"
        },
        {
          "name": "Arrah",
          "latitude": "25.55629000",
          "longitude": "84.66335000"
        },
        {
          "name": "Arwal",
          "latitude": "25.16158000",
          "longitude": "84.69040000"
        },
        {
          "name": "Asarganj",
          "latitude": "25.15046000",
          "longitude": "86.68639000"
        },
        {
          "name": "Aurangabad",
          "latitude": "24.75204000",
          "longitude": "84.37420000"
        },
        {
          "name": "Bagaha",
          "latitude": "27.09918000",
          "longitude": "84.09003000"
        },
        {
          "name": "Bahadurganj",
          "latitude": "26.26172000",
          "longitude": "87.82443000"
        },
        {
          "name": "Bairagnia",
          "latitude": "26.74063000",
          "longitude": "85.27323000"
        },
        {
          "name": "Baisi",
          "latitude": "25.86302000",
          "longitude": "87.74487000"
        },
        {
          "name": "Bakhtiyarpur",
          "latitude": "25.46179000",
          "longitude": "85.53179000"
        },
        {
          "name": "Bangaon",
          "latitude": "25.86728000",
          "longitude": "86.51152000"
        },
        {
          "name": "Banka",
          "latitude": "24.89214000",
          "longitude": "86.98425000"
        },
        {
          "name": "Banmankhi",
          "latitude": "25.88857000",
          "longitude": "87.19421000"
        },
        {
          "name": "Bar Bigha",
          "latitude": "25.21855000",
          "longitude": "85.73320000"
        },
        {
          "name": "Barauli",
          "latitude": "26.38109000",
          "longitude": "84.58648000"
        },
        {
          "name": "Barh",
          "latitude": "25.48339000",
          "longitude": "85.70928000"
        },
        {
          "name": "Barhiya",
          "latitude": "25.28814000",
          "longitude": "86.02055000"
        },
        {
          "name": "Bariarpur",
          "latitude": "25.28791000",
          "longitude": "86.57643000"
        },
        {
          "name": "Baruni",
          "latitude": "25.47509000",
          "longitude": "85.96813000"
        },
        {
          "name": "Begusarai",
          "latitude": "25.41853000",
          "longitude": "86.13389000"
        },
        {
          "name": "Belsand",
          "latitude": "26.44365000",
          "longitude": "85.40076000"
        },
        {
          "name": "Bettiah",
          "latitude": "26.80229000",
          "longitude": "84.50311000"
        },
        {
          "name": "Bhabhua",
          "latitude": "25.04049000",
          "longitude": "83.60749000"
        },
        {
          "name": "Bhagalpur",
          "latitude": "25.29023000",
          "longitude": "87.06665000"
        },
        {
          "name": "Bhagirathpur",
          "latitude": "26.26950000",
          "longitude": "86.06346000"
        },
        {
          "name": "Bhawanipur",
          "latitude": "26.45352000",
          "longitude": "87.02744000"
        },
        {
          "name": "Bhojpur",
          "latitude": "25.30886000",
          "longitude": "84.44504000"
        },
        {
          "name": "Bihar Sharif",
          "latitude": "25.20084000",
          "longitude": "85.52389000"
        },
        {
          "name": "Bihariganj",
          "latitude": "25.73415000",
          "longitude": "86.98837000"
        },
        {
          "name": "Bikramganj",
          "latitude": "25.21073000",
          "longitude": "84.25508000"
        },
        {
          "name": "Birpur",
          "latitude": "26.50823000",
          "longitude": "87.01194000"
        },
        {
          "name": "Buddh Gaya",
          "latitude": "24.69808000",
          "longitude": "84.98690000"
        },
        {
          "name": "Buxar",
          "latitude": "25.50000000",
          "longitude": "84.10000000"
        },
        {
          "name": "Chakia",
          "latitude": "26.41598000",
          "longitude": "85.04665000"
        },
        {
          "name": "Chapra",
          "latitude": "25.78031000",
          "longitude": "84.74709000"
        },
        {
          "name": "Chhatapur",
          "latitude": "26.21965000",
          "longitude": "87.00479000"
        },
        {
          "name": "Colgong",
          "latitude": "25.26328000",
          "longitude": "87.23264000"
        },
        {
          "name": "Dalsingh Sarai",
          "latitude": "25.66795000",
          "longitude": "85.83636000"
        },
        {
          "name": "Darbhanga",
          "latitude": "26.00000000",
          "longitude": "86.00000000"
        },
        {
          "name": "Daudnagar",
          "latitude": "25.03473000",
          "longitude": "84.40095000"
        },
        {
          "name": "Dehri",
          "latitude": "24.90247000",
          "longitude": "84.18217000"
        },
        {
          "name": "Dhaka",
          "latitude": "26.67479000",
          "longitude": "85.16698000"
        },
        {
          "name": "Dighwara",
          "latitude": "25.74434000",
          "longitude": "85.01003000"
        },
        {
          "name": "Dinapore",
          "latitude": "25.63705000",
          "longitude": "85.04794000"
        },
        {
          "name": "Dumra",
          "latitude": "26.56708000",
          "longitude": "85.52040000"
        },
        {
          "name": "Dumraon",
          "latitude": "25.55265000",
          "longitude": "84.15149000"
        },
        {
          "name": "Fatwa",
          "latitude": "25.50958000",
          "longitude": "85.30504000"
        },
        {
          "name": "Forbesganj",
          "latitude": "26.30253000",
          "longitude": "87.26556000"
        },
        {
          "name": "Gaya",
          "latitude": "24.79686000",
          "longitude": "85.00385000"
        },
        {
          "name": "Ghoga",
          "latitude": "25.21738000",
          "longitude": "87.15710000"
        },
        {
          "name": "Gopalganj",
          "latitude": "26.50000000",
          "longitude": "84.33333000"
        },
        {
          "name": "Hajipur",
          "latitude": "25.68544000",
          "longitude": "85.20981000"
        },
        {
          "name": "Hilsa",
          "latitude": "25.31642000",
          "longitude": "85.28234000"
        },
        {
          "name": "Hisua",
          "latitude": "24.83360000",
          "longitude": "85.41729000"
        },
        {
          "name": "Islampur",
          "latitude": "25.14075000",
          "longitude": "85.20587000"
        },
        {
          "name": "Jagdispur",
          "latitude": "25.46811000",
          "longitude": "84.41939000"
        },
        {
          "name": "Jahanabad",
          "latitude": "25.21368000",
          "longitude": "84.98710000"
        },
        {
          "name": "Jamalpur",
          "latitude": "25.31258000",
          "longitude": "86.48888000"
        },
        {
          "name": "Jamui",
          "latitude": "24.92082000",
          "longitude": "86.17538000"
        },
        {
          "name": "Jaynagar",
          "latitude": "26.59048000",
          "longitude": "86.13791000"
        },
        {
          "name": "Jehanabad",
          "latitude": "25.20701000",
          "longitude": "84.99573000"
        },
        {
          "name": "Jha-Jha",
          "latitude": "24.77107000",
          "longitude": "86.37888000"
        },
        {
          "name": "Jhanjharpur",
          "latitude": "26.26467000",
          "longitude": "86.27993000"
        },
        {
          "name": "Jogbani",
          "latitude": "26.39905000",
          "longitude": "87.26525000"
        },
        {
          "name": "Kaimur District",
          "latitude": "25.05077000",
          "longitude": "83.58261000"
        },
        {
          "name": "Kasba",
          "latitude": "25.85643000",
          "longitude": "87.53836000"
        },
        {
          "name": "Katihar",
          "latitude": "25.50000000",
          "longitude": "87.60000000"
        },
        {
          "name": "Khagaria",
          "latitude": "25.50220000",
          "longitude": "86.46708000"
        },
        {
          "name": "Khagaul",
          "latitude": "25.57898000",
          "longitude": "85.04564000"
        },
        {
          "name": "Kharagpur",
          "latitude": "25.12446000",
          "longitude": "86.55578000"
        },
        {
          "name": "Khusropur",
          "latitude": "25.48174000",
          "longitude": "85.38492000"
        },
        {
          "name": "Kishanganj",
          "latitude": "26.30000000",
          "longitude": "88.00000000"
        },
        {
          "name": "Koath",
          "latitude": "25.32643000",
          "longitude": "84.25983000"
        },
        {
          "name": "Koelwar",
          "latitude": "25.58055000",
          "longitude": "84.79751000"
        },
        {
          "name": "Lakhisarai",
          "latitude": "25.20000000",
          "longitude": "86.20000000"
        },
        {
          "name": "Lalganj",
          "latitude": "25.86894000",
          "longitude": "85.17394000"
        },
        {
          "name": "Luckeesarai",
          "latitude": "25.17650000",
          "longitude": "86.09470000"
        },
        {
          "name": "Madhepura",
          "latitude": "25.80000000",
          "longitude": "87.00000000"
        },
        {
          "name": "Madhipura",
          "latitude": "25.92127000",
          "longitude": "86.79271000"
        },
        {
          "name": "Madhubani",
          "latitude": "26.35367000",
          "longitude": "86.07169000"
        },
        {
          "name": "Maharajgani",
          "latitude": "26.11017000",
          "longitude": "84.50365000"
        },
        {
          "name": "Mairwa",
          "latitude": "26.23218000",
          "longitude": "84.16349000"
        },
        {
          "name": "Maner",
          "latitude": "25.64602000",
          "longitude": "84.87291000"
        },
        {
          "name": "Manihari",
          "latitude": "25.33891000",
          "longitude": "87.61998000"
        },
        {
          "name": "Marhaura",
          "latitude": "25.97349000",
          "longitude": "84.86796000"
        },
        {
          "name": "Masaurhi Buzurg",
          "latitude": "25.35417000",
          "longitude": "85.03195000"
        },
        {
          "name": "Mohiuddinnagar",
          "latitude": "25.57374000",
          "longitude": "85.66944000"
        },
        {
          "name": "Mokameh",
          "latitude": "25.39662000",
          "longitude": "85.92190000"
        },
        {
          "name": "Monghyr",
          "latitude": "25.37459000",
          "longitude": "86.47455000"
        },
        {
          "name": "Mothihari",
          "latitude": "26.64862000",
          "longitude": "84.91656000"
        },
        {
          "name": "Munger",
          "latitude": "25.36099000",
          "longitude": "86.46515000"
        },
        {
          "name": "Murliganj",
          "latitude": "25.89690000",
          "longitude": "86.99577000"
        },
        {
          "name": "Muzaffarpur",
          "latitude": "26.16667000",
          "longitude": "85.41667000"
        },
        {
          "name": "Nabinagar",
          "latitude": "24.60681000",
          "longitude": "84.12624000"
        },
        {
          "name": "Nalanda",
          "latitude": "25.25000000",
          "longitude": "85.58333000"
        },
        {
          "name": "Nasriganj",
          "latitude": "25.05140000",
          "longitude": "84.32839000"
        },
        {
          "name": "Naugachhia",
          "latitude": "25.38807000",
          "longitude": "87.09906000"
        },
        {
          "name": "Nawada",
          "latitude": "24.75000000",
          "longitude": "85.50000000"
        },
        {
          "name": "Nirmali",
          "latitude": "26.31397000",
          "longitude": "86.58537000"
        },
        {
          "name": "Pashchim Champaran",
          "latitude": "27.00000000",
          "longitude": "84.50000000"
        },
        {
          "name": "Patna",
          "latitude": "25.41667000",
          "longitude": "85.16667000"
        },
        {
          "name": "Piro",
          "latitude": "25.33218000",
          "longitude": "84.40454000"
        },
        {
          "name": "Pupri",
          "latitude": "26.47079000",
          "longitude": "85.70311000"
        },
        {
          "name": "Purba Champaran",
          "latitude": "26.58333000",
          "longitude": "84.83333000"
        },
        {
          "name": "Purnia",
          "latitude": "25.81614000",
          "longitude": "87.40708000"
        },
        {
          "name": "Rafiganj",
          "latitude": "24.81757000",
          "longitude": "84.63445000"
        },
        {
          "name": "Raghunathpur",
          "latitude": "25.64492000",
          "longitude": "87.91762000"
        },
        {
          "name": "Rajgir",
          "latitude": "25.02828000",
          "longitude": "85.42079000"
        },
        {
          "name": "Ramnagar",
          "latitude": "27.16371000",
          "longitude": "84.32342000"
        },
        {
          "name": "Raxaul",
          "latitude": "26.97982000",
          "longitude": "84.85065000"
        },
        {
          "name": "Revelganj",
          "latitude": "25.78976000",
          "longitude": "84.63596000"
        },
        {
          "name": "Rohtas",
          "latitude": "24.97941000",
          "longitude": "84.02774000"
        },
        {
          "name": "Rusera",
          "latitude": "25.75355000",
          "longitude": "86.02597000"
        },
        {
          "name": "Sagauli",
          "latitude": "26.76390000",
          "longitude": "84.74341000"
        },
        {
          "name": "Saharsa",
          "latitude": "25.87498000",
          "longitude": "86.59611000"
        },
        {
          "name": "Samastipur",
          "latitude": "25.75000000",
          "longitude": "85.91667000"
        },
        {
          "name": "Saran",
          "latitude": "25.91667000",
          "longitude": "84.75000000"
        },
        {
          "name": "Shahbazpur",
          "latitude": "26.30511000",
          "longitude": "87.28865000"
        },
        {
          "name": "Shahpur",
          "latitude": "25.60293000",
          "longitude": "84.40412000"
        },
        {
          "name": "Sheikhpura",
          "latitude": "25.13073000",
          "longitude": "85.78176000"
        },
        {
          "name": "Sheohar",
          "latitude": "26.50000000",
          "longitude": "85.30000000"
        },
        {
          "name": "Sherghati",
          "latitude": "24.55950000",
          "longitude": "84.79162000"
        },
        {
          "name": "Silao",
          "latitude": "25.08358000",
          "longitude": "85.42804000"
        },
        {
          "name": "Sitamarhi",
          "latitude": "26.66667000",
          "longitude": "85.50000000"
        },
        {
          "name": "Siwan",
          "latitude": "26.22096000",
          "longitude": "84.35609000"
        },
        {
          "name": "Supaul",
          "latitude": "26.25000000",
          "longitude": "86.80000000"
        },
        {
          "name": "Teghra",
          "latitude": "25.49043000",
          "longitude": "85.94001000"
        },
        {
          "name": "Tekari",
          "latitude": "24.94253000",
          "longitude": "84.84265000"
        },
        {
          "name": "Thakurganj",
          "latitude": "26.42742000",
          "longitude": "88.13112000"
        },
        {
          "name": "Vaishali",
          "latitude": "25.75000000",
          "longitude": "85.41667000"
        },
        {
          "name": "Waris Aliganj",
          "latitude": "25.01720000",
          "longitude": "85.64047000"
        }
      ]
    },
    {
      "name": "Chandigarh",
      "state_code": "CH",
      "latitude": "30.73331480",
      "longitude": "76.77941790",
      "cities": [
        {
          "name": "Chandigarh",
          "latitude": "30.73629000",
          "longitude": "76.78840000"
        }
      ]
    },
    {
      "name": "Chhattisgarh",
      "state_code": "CT",
      "latitude": "21.27865670",
      "longitude": "81.86614420",
      "cities": [
        {
          "name": "Akaltara",
          "latitude": "22.02463000",
          "longitude": "82.42641000"
        },
        {
          "name": "Ambagarh Chauki",
          "latitude": "20.77644000",
          "longitude": "80.74608000"
        },
        {
          "name": "Ambikapur",
          "latitude": "23.11892000",
          "longitude": "83.19537000"
        },
        {
          "name": "Arang",
          "latitude": "21.19639000",
          "longitude": "81.96912000"
        },
        {
          "name": "Baikunthpur",
          "latitude": "23.26206000",
          "longitude": "82.56051000"
        },
        {
          "name": "Balod",
          "latitude": "20.73081000",
          "longitude": "81.20578000"
        },
        {
          "name": "Baloda",
          "latitude": "22.13890000",
          "longitude": "82.48171000"
        },
        {
          "name": "Baloda Bazar",
          "latitude": "21.65678000",
          "longitude": "82.16062000"
        },
        {
          "name": "Basna",
          "latitude": "21.27885000",
          "longitude": "82.82670000"
        },
        {
          "name": "Bastar",
          "latitude": "19.26794000",
          "longitude": "81.73828000"
        },
        {
          "name": "Bemetara",
          "latitude": "21.71556000",
          "longitude": "81.53423000"
        },
        {
          "name": "Bhanpuri",
          "latitude": "21.09190000",
          "longitude": "80.93218000"
        },
        {
          "name": "Bhatapara",
          "latitude": "21.73500000",
          "longitude": "81.94711000"
        },
        {
          "name": "Bhatgaon",
          "latitude": "21.15000000",
          "longitude": "81.70000000"
        },
        {
          "name": "Bhilai",
          "latitude": "21.20919000",
          "longitude": "81.42850000"
        },
        {
          "name": "Bijapur",
          "latitude": "18.84322000",
          "longitude": "80.77610000"
        },
        {
          "name": "Bilaspur",
          "latitude": "22.38333000",
          "longitude": "82.13333000"
        },
        {
          "name": "Champa",
          "latitude": "22.03532000",
          "longitude": "82.64234000"
        },
        {
          "name": "Chhuikhadan",
          "latitude": "21.52316000",
          "longitude": "80.99788000"
        },
        {
          "name": "Deori",
          "latitude": "21.45000000",
          "longitude": "82.61667000"
        },
        {
          "name": "Dhamtari",
          "latitude": "20.70718000",
          "longitude": "81.54874000"
        },
        {
          "name": "Dongargaon",
          "latitude": "20.97172000",
          "longitude": "80.85077000"
        },
        {
          "name": "Dongargarh",
          "latitude": "21.18893000",
          "longitude": "80.75459000"
        },
        {
          "name": "Durg",
          "latitude": "21.15000000",
          "longitude": "81.40000000"
        },
        {
          "name": "Gandai",
          "latitude": "21.66667000",
          "longitude": "81.10013000"
        },
        {
          "name": "Gariaband",
          "latitude": "20.63323000",
          "longitude": "82.06221000"
        },
        {
          "name": "Gaurela",
          "latitude": "22.75449000",
          "longitude": "81.90107000"
        },
        {
          "name": "Gharghoda",
          "latitude": "22.17427000",
          "longitude": "83.35170000"
        },
        {
          "name": "Gidam",
          "latitude": "18.97431000",
          "longitude": "81.39894000"
        },
        {
          "name": "Jagdalpur",
          "latitude": "19.08136000",
          "longitude": "82.02131000"
        },
        {
          "name": "Janjgir",
          "latitude": "22.00922000",
          "longitude": "82.57780000"
        },
        {
          "name": "Janjgir-Champa",
          "latitude": "21.90000000",
          "longitude": "82.70000000"
        },
        {
          "name": "Jashpur",
          "latitude": "22.78495000",
          "longitude": "83.84573000"
        },
        {
          "name": "Jashpurnagar",
          "latitude": "22.88783000",
          "longitude": "84.13864000"
        },
        {
          "name": "Junagarh",
          "latitude": "19.85993000",
          "longitude": "82.93385000"
        },
        {
          "name": "Kabeerdham",
          "latitude": "22.10000000",
          "longitude": "81.20000000"
        },
        {
          "name": "Kanker",
          "latitude": "20.27193000",
          "longitude": "81.49177000"
        },
        {
          "name": "Katghora",
          "latitude": "22.50247000",
          "longitude": "82.54279000"
        },
        {
          "name": "Kawardha",
          "latitude": "22.00853000",
          "longitude": "81.23148000"
        },
        {
          "name": "Khairagarh",
          "latitude": "21.41859000",
          "longitude": "80.97942000"
        },
        {
          "name": "Khamharia",
          "latitude": "20.97600000",
          "longitude": "82.25116000"
        },
        {
          "name": "Kharod",
          "latitude": "21.74420000",
          "longitude": "82.57880000"
        },
        {
          "name": "Kharsia",
          "latitude": "21.98953000",
          "longitude": "83.10476000"
        },
        {
          "name": "Kirandul",
          "latitude": "18.63649000",
          "longitude": "81.25827000"
        },
        {
          "name": "Kondagaon",
          "latitude": "19.59083000",
          "longitude": "81.66400000"
        },
        {
          "name": "Korba",
          "latitude": "22.50000000",
          "longitude": "82.60000000"
        },
        {
          "name": "Koriya",
          "latitude": "23.48326000",
          "longitude": "82.15037000"
        },
        {
          "name": "Kota",
          "latitude": "22.29507000",
          "longitude": "82.02366000"
        },
        {
          "name": "Kotaparh",
          "latitude": "19.14256000",
          "longitude": "82.32536000"
        },
        {
          "name": "Kumhari",
          "latitude": "21.26667000",
          "longitude": "81.51667000"
        },
        {
          "name": "Kurud",
          "latitude": "20.83073000",
          "longitude": "81.72212000"
        },
        {
          "name": "Lormi",
          "latitude": "22.27434000",
          "longitude": "81.70181000"
        },
        {
          "name": "Mahasamund",
          "latitude": "21.20000000",
          "longitude": "82.50000000"
        },
        {
          "name": "Mungeli",
          "latitude": "22.06566000",
          "longitude": "81.68543000"
        },
        {
          "name": "Narayanpur",
          "latitude": "19.60426000",
          "longitude": "81.08119000"
        },
        {
          "name": "Narharpur",
          "latitude": "20.44892000",
          "longitude": "81.62004000"
        },
        {
          "name": "Pandaria",
          "latitude": "22.22495000",
          "longitude": "81.40994000"
        },
        {
          "name": "Pandatarai",
          "latitude": "22.18714000",
          "longitude": "81.32815000"
        },
        {
          "name": "Pasan",
          "latitude": "22.84412000",
          "longitude": "82.19823000"
        },
        {
          "name": "Patan",
          "latitude": "21.03333000",
          "longitude": "81.53333000"
        },
        {
          "name": "Pathalgaon",
          "latitude": "22.55656000",
          "longitude": "83.46355000"
        },
        {
          "name": "Pendra",
          "latitude": "22.77548000",
          "longitude": "81.95968000"
        },
        {
          "name": "Pithora",
          "latitude": "21.25021000",
          "longitude": "82.51707000"
        },
        {
          "name": "Raigarh",
          "latitude": "22.08582000",
          "longitude": "83.30603000"
        },
        {
          "name": "Raipur",
          "latitude": "21.25621000",
          "longitude": "81.69022000"
        },
        {
          "name": "Raj Nandgaon",
          "latitude": "21.16667000",
          "longitude": "81.00000000"
        },
        {
          "name": "Raj-Nandgaon",
          "latitude": "21.09687000",
          "longitude": "81.02890000"
        },
        {
          "name": "Ramanuj Ganj",
          "latitude": "23.80637000",
          "longitude": "83.69981000"
        },
        {
          "name": "Ratanpur",
          "latitude": "22.28660000",
          "longitude": "82.16823000"
        },
        {
          "name": "Sakti",
          "latitude": "22.02662000",
          "longitude": "82.96091000"
        },
        {
          "name": "Saraipali",
          "latitude": "21.31530000",
          "longitude": "83.00629000"
        },
        {
          "name": "Sarangarh",
          "latitude": "21.58614000",
          "longitude": "83.07850000"
        },
        {
          "name": "Seorinarayan",
          "latitude": "21.72055000",
          "longitude": "82.59344000"
        },
        {
          "name": "Simga",
          "latitude": "21.62810000",
          "longitude": "81.70376000"
        },
        {
          "name": "Surguja",
          "latitude": "22.89624000",
          "longitude": "83.09631000"
        },
        {
          "name": "Takhatpur",
          "latitude": "22.12915000",
          "longitude": "81.86959000"
        },
        {
          "name": "Umarkot",
          "latitude": "19.66529000",
          "longitude": "82.20629000"
        },
        {
          "name": "Uttar Bastar Kanker",
          "latitude": "20.20000000",
          "longitude": "81.10000000"
        }
      ]
    },
    {
      "name": "Dadra and Nagar Haveli and Daman and Diu",
      "state_code": "DH",
      "latitude": "20.39737360",
      "longitude": "72.83279910",
      "cities": [
        {
          "name": "Amli",
          "latitude": "20.28333000",
          "longitude": "73.01667000"
        },
        {
          "name": "Dadra",
          "latitude": "20.32504000",
          "longitude": "72.96618000"
        },
        {
          "name": "Dadra & Nagar Haveli",
          "latitude": "20.20651000",
          "longitude": "73.00811000"
        },
        {
          "name": "Daman",
          "latitude": "20.41431000",
          "longitude": "72.83236000"
        },
        {
          "name": "Daman District",
          "latitude": "20.41667000",
          "longitude": "72.88333000"
        },
        {
          "name": "Diu",
          "latitude": "20.72081000",
          "longitude": "70.93989000"
        },
        {
          "name": "Silvassa",
          "latitude": "20.27386000",
          "longitude": "72.99673000"
        }
      ]
    },
    {
      "name": "Delhi",
      "state_code": "DL",
      "latitude": "28.70405920",
      "longitude": "77.10249020",
      "cities": [
        {
          "name": "Alipur",
          "latitude": "28.79862000",
          "longitude": "77.13314000"
        },
        {
          "name": "Bawana",
          "latitude": "28.79820000",
          "longitude": "77.03431000"
        },
        {
          "name": "Central Delhi",
          "latitude": "28.64857000",
          "longitude": "77.21895000"
        },
        {
          "name": "Delhi",
          "latitude": "28.65195000",
          "longitude": "77.23149000"
        },
        {
          "name": "Deoli",
          "latitude": "28.50254000",
          "longitude": "77.23117000"
        },
        {
          "name": "East Delhi",
          "latitude": "28.66242000",
          "longitude": "77.29122000"
        },
        {
          "name": "Karol Bagh",
          "latitude": "28.65136000",
          "longitude": "77.19072000"
        },
        {
          "name": "Najafgarh",
          "latitude": "28.60922000",
          "longitude": "76.97982000"
        },
        {
          "name": "Nangloi Jat",
          "latitude": "28.67957000",
          "longitude": "77.06799000"
        },
        {
          "name": "Narela",
          "latitude": "28.85267000",
          "longitude": "77.09288000"
        },
        {
          "name": "New Delhi",
          "latitude": "28.63576000",
          "longitude": "77.22445000"
        },
        {
          "name": "North Delhi",
          "latitude": "28.66920000",
          "longitude": "77.22273000"
        },
        {
          "name": "North East Delhi",
          "latitude": "28.68690000",
          "longitude": "77.30195000"
        },
        {
          "name": "North West Delhi",
          "latitude": "28.70113000",
          "longitude": "77.10154000"
        },
        {
          "name": "Pitampura",
          "latitude": "28.68964000",
          "longitude": "77.13126000"
        },
        {
          "name": "Rohini",
          "latitude": "28.74322000",
          "longitude": "77.06778000"
        },
        {
          "name": "South Delhi",
          "latitude": "28.53009000",
          "longitude": "77.25174000"
        },
        {
          "name": "South West Delhi",
          "latitude": "28.58060000",
          "longitude": "77.06720000"
        },
        {
          "name": "West Delhi",
          "latitude": "28.65655000",
          "longitude": "77.10068000"
        }
      ]
    },
    {
      "name": "Goa",
      "state_code": "GA",
      "latitude": "15.29932650",
      "longitude": "74.12399600",
      "cities": [
        {
          "name": "Aldona",
          "latitude": "15.59337000",
          "longitude": "73.87482000"
        },
        {
          "name": "Arambol",
          "latitude": "15.68681000",
          "longitude": "73.70449000"
        },
        {
          "name": "Baga",
          "latitude": "15.56517000",
          "longitude": "73.75517000"
        },
        {
          "name": "Bambolim",
          "latitude": "15.46361000",
          "longitude": "73.85310000"
        },
        {
          "name": "Bandora",
          "latitude": "15.40823000",
          "longitude": "73.98129000"
        },
        {
          "name": "Benaulim",
          "latitude": "15.26435000",
          "longitude": "73.92812000"
        },
        {
          "name": "Calangute",
          "latitude": "15.54390000",
          "longitude": "73.75530000"
        },
        {
          "name": "Candolim",
          "latitude": "15.51807000",
          "longitude": "73.76259000"
        },
        {
          "name": "Carapur",
          "latitude": "15.56588000",
          "longitude": "73.98713000"
        },
        {
          "name": "Cavelossim",
          "latitude": "15.17255000",
          "longitude": "73.94194000"
        },
        {
          "name": "Chicalim",
          "latitude": "15.39835000",
          "longitude": "73.84216000"
        },
        {
          "name": "Chinchinim",
          "latitude": "15.21447000",
          "longitude": "73.97555000"
        },
        {
          "name": "Colovale",
          "latitude": "15.63522000",
          "longitude": "73.82426000"
        },
        {
          "name": "Colva",
          "latitude": "15.27976000",
          "longitude": "73.92285000"
        },
        {
          "name": "Cortalim",
          "latitude": "15.40247000",
          "longitude": "73.90881000"
        },
        {
          "name": "Cuncolim",
          "latitude": "15.17730000",
          "longitude": "73.99392000"
        },
        {
          "name": "Curchorem",
          "latitude": "15.26349000",
          "longitude": "74.10875000"
        },
        {
          "name": "Curti",
          "latitude": "15.41667000",
          "longitude": "74.01667000"
        },
        {
          "name": "Davorlim",
          "latitude": "15.27221000",
          "longitude": "73.99242000"
        },
        {
          "name": "Dicholi",
          "latitude": "15.59319000",
          "longitude": "73.94571000"
        },
        {
          "name": "Goa Velha",
          "latitude": "15.44384000",
          "longitude": "73.88572000"
        },
        {
          "name": "Guirim",
          "latitude": "15.57552000",
          "longitude": "73.80722000"
        },
        {
          "name": "Jua",
          "latitude": "15.53070000",
          "longitude": "73.95047000"
        },
        {
          "name": "Kankon",
          "latitude": "15.02698000",
          "longitude": "74.04617000"
        },
        {
          "name": "Madgaon",
          "latitude": "15.27501000",
          "longitude": "73.95786000"
        },
        {
          "name": "Mapuca",
          "latitude": "15.59154000",
          "longitude": "73.80898000"
        },
        {
          "name": "Morjim",
          "latitude": "15.63097000",
          "longitude": "73.73903000"
        },
        {
          "name": "Mormugao",
          "latitude": "15.38914000",
          "longitude": "73.81491000"
        },
        {
          "name": "Navelim",
          "latitude": "15.53333000",
          "longitude": "73.98333000"
        },
        {
          "name": "North Goa",
          "latitude": "15.53397000",
          "longitude": "73.96408000"
        },
        {
          "name": "Palle",
          "latitude": "15.46667000",
          "longitude": "74.08333000"
        },
        {
          "name": "Panaji",
          "latitude": "15.49574000",
          "longitude": "73.82624000"
        },
        {
          "name": "Pernem",
          "latitude": "15.72300000",
          "longitude": "73.79511000"
        },
        {
          "name": "Ponda",
          "latitude": "15.40341000",
          "longitude": "74.01519000"
        },
        {
          "name": "Quepem",
          "latitude": "15.21280000",
          "longitude": "74.07720000"
        },
        {
          "name": "Queula",
          "latitude": "15.39011000",
          "longitude": "73.98557000"
        },
        {
          "name": "Raia",
          "latitude": "15.30499000",
          "longitude": "73.97096000"
        },
        {
          "name": "Saligao",
          "latitude": "15.55359000",
          "longitude": "73.79036000"
        },
        {
          "name": "Sancoale",
          "latitude": "15.37794000",
          "longitude": "73.90352000"
        },
        {
          "name": "Sanguem",
          "latitude": "15.22901000",
          "longitude": "74.15149000"
        },
        {
          "name": "Sanquelim",
          "latitude": "15.56422000",
          "longitude": "74.00799000"
        },
        {
          "name": "Sanvordem",
          "latitude": "15.26269000",
          "longitude": "74.11965000"
        },
        {
          "name": "Serula",
          "latitude": "15.54774000",
          "longitude": "73.84329000"
        },
        {
          "name": "Solim",
          "latitude": "15.61521000",
          "longitude": "73.76740000"
        },
        {
          "name": "South Goa",
          "latitude": "15.20425000",
          "longitude": "74.16733000"
        },
        {
          "name": "Taleigao",
          "latitude": "15.46915000",
          "longitude": "73.83285000"
        },
        {
          "name": "Vagator",
          "latitude": "15.59766000",
          "longitude": "73.74496000"
        },
        {
          "name": "Valpoy",
          "latitude": "15.53239000",
          "longitude": "74.13671000"
        },
        {
          "name": "Varca",
          "latitude": "15.23237000",
          "longitude": "73.94311000"
        },
        {
          "name": "Vasco da Gama",
          "latitude": "15.39585000",
          "longitude": "73.81568000"
        }
      ]
    },
    {
      "name": "Gujarat",
      "state_code": "GJ",
      "latitude": "22.25865200",
      "longitude": "71.19238050",
      "cities": [
        {
          "name": "Abrama",
          "latitude": "20.85865000",
          "longitude": "72.90648000"
        },
        {
          "name": "Adalaj",
          "latitude": "23.16453000",
          "longitude": "72.58107000"
        },
        {
          "name": "Agol",
          "latitude": "23.15000000",
          "longitude": "72.26666667"
        },
        {
          "name": "Ahmedabad",
          "latitude": "23.02579000",
          "longitude": "72.58727000"
        },
        {
          "name": "Ahwa",
          "latitude": "20.75718000",
          "longitude": "73.68626000"
        },
        {
          "name": "Akrund",
          "latitude": "23.28333333",
          "longitude": "73.11666667"
        },
        {
          "name": "Amod",
          "latitude": "21.99317000",
          "longitude": "72.87047000"
        },
        {
          "name": "Amod,",
          "latitude": "21.99100000",
          "longitude": "72.87100000"
        },
        {
          "name": "Amreli",
          "latitude": "21.50789000",
          "longitude": "71.18323000"
        },
        {
          "name": "Amroli",
          "latitude": "21.25084000",
          "longitude": "72.83878000"
        },
        {
          "name": "Anand",
          "latitude": "22.40000000",
          "longitude": "72.75000000"
        },
        {
          "name": "Anjar",
          "latitude": "23.11316000",
          "longitude": "70.02671000"
        },
        {
          "name": "Ankleshwar",
          "latitude": "21.63236000",
          "longitude": "72.99001000"
        },
        {
          "name": "Babra",
          "latitude": "21.84577000",
          "longitude": "71.30544000"
        },
        {
          "name": "Bagasara",
          "latitude": "21.48333333",
          "longitude": "70.95000000"
        },
        {
          "name": "Bagasra",
          "latitude": "21.48719000",
          "longitude": "70.95516000"
        },
        {
          "name": "Bakharla",
          "latitude": "21.73151700",
          "longitude": "69.63529600"
        },
        {
          "name": "Balagam",
          "latitude": "21.36666667",
          "longitude": "70.10000000"
        },
        {
          "name": "Balasinor",
          "latitude": "22.95589100",
          "longitude": "73.33649900"
        },
        {
          "name": "Balisana",
          "latitude": "23.81643600",
          "longitude": "72.25753600"
        },
        {
          "name": "Bamanbore",
          "latitude": "22.41666667",
          "longitude": "71.01666667"
        },
        {
          "name": "Banas Kantha",
          "latitude": "24.25000000",
          "longitude": "72.50000000"
        },
        {
          "name": "Bandia",
          "latitude": "23.39604000",
          "longitude": "69.01155000"
        },
        {
          "name": "Bantva",
          "latitude": "21.48815000",
          "longitude": "70.07576000"
        },
        {
          "name": "Bardoli",
          "latitude": "21.12297000",
          "longitude": "73.11151000"
        },
        {
          "name": "Bedi",
          "latitude": "22.50143000",
          "longitude": "70.04363000"
        },
        {
          "name": "Bhachau",
          "latitude": "23.29858000",
          "longitude": "70.34279000"
        },
        {
          "name": "Bhadran",
          "latitude": "22.35930000",
          "longitude": "72.90050000"
        },
        {
          "name": "Bhandu",
          "latitude": "23.70000000",
          "longitude": "72.36666667"
        },
        {
          "name": "Bhanvad",
          "latitude": "21.93053000",
          "longitude": "69.78081000"
        },
        {
          "name": "Bharuch",
          "latitude": "21.69482000",
          "longitude": "72.98050000"
        },
        {
          "name": "Bhatha",
          "latitude": "21.18333333",
          "longitude": "72.76666667"
        },
        {
          "name": "Bhavnagar",
          "latitude": "21.76287000",
          "longitude": "72.15331000"
        },
        {
          "name": "Bhayavadar",
          "latitude": "21.85523000",
          "longitude": "70.24791000"
        },
        {
          "name": "Bhildi",
          "latitude": "24.18333333",
          "longitude": "72.03333333"
        },
        {
          "name": "Bhojpur Dharampur",
          "latitude": "23.25000000",
          "longitude": "69.67000000"
        },
        {
          "name": "Bhuj",
          "latitude": "23.25397000",
          "longitude": "69.66928000"
        },
        {
          "name": "Bilimora",
          "latitude": "20.76957000",
          "longitude": "72.96134000"
        },
        {
          "name": "Bilkha",
          "latitude": "21.44150000",
          "longitude": "70.60063000"
        },
        {
          "name": "Borsad",
          "latitude": "22.40788000",
          "longitude": "72.89817000"
        },
        {
          "name": "Botad",
          "latitude": "22.16917000",
          "longitude": "71.66671000"
        },
        {
          "name": "Chaklasi",
          "latitude": "22.65320000",
          "longitude": "72.94497000"
        },
        {
          "name": "Chalala",
          "latitude": "21.41073000",
          "longitude": "71.16621000"
        },
        {
          "name": "Chaloda",
          "latitude": "22.80000000",
          "longitude": "72.45000000"
        },
        {
          "name": "Champaner",
          "latitude": "22.48590000",
          "longitude": "73.53710000"
        },
        {
          "name": "Chanasma",
          "latitude": "23.71472000",
          "longitude": "72.11279000"
        },
        {
          "name": "Chhala",
          "latitude": "23.30779000",
          "longitude": "72.77404000"
        },
        {
          "name": "Chhota Udepur",
          "latitude": "22.30401000",
          "longitude": "74.01580000"
        },
        {
          "name": "Chikhli",
          "latitude": "20.75751000",
          "longitude": "73.06268000"
        },
        {
          "name": "Chotila",
          "latitude": "22.42347000",
          "longitude": "71.19641000"
        },
        {
          "name": "Chuda",
          "latitude": "22.48333333",
          "longitude": "71.68333333"
        },
        {
          "name": "Dabhoda",
          "latitude": "23.16666667",
          "longitude": "72.73333333"
        },
        {
          "name": "Dabhoi",
          "latitude": "22.18333000",
          "longitude": "73.43333000"
        },
        {
          "name": "Dahegam",
          "latitude": "23.16903000",
          "longitude": "72.82161000"
        },
        {
          "name": "Dahod",
          "latitude": "22.52000000",
          "longitude": "74.15000000"
        },
        {
          "name": "Dakor",
          "latitude": "22.75268000",
          "longitude": "73.14967000"
        },
        {
          "name": "Damnagar",
          "latitude": "21.69232000",
          "longitude": "71.51747000"
        },
        {
          "name": "Dandi",
          "latitude": "21.32988000",
          "longitude": "72.62484000"
        },
        {
          "name": "Dangs (India)",
          "latitude": "20.75000000",
          "longitude": "73.75000000"
        },
        {
          "name": "Danta",
          "latitude": "24.18861111",
          "longitude": "72.76583333"
        },
        {
          "name": "Dayapar",
          "latitude": "23.63371000",
          "longitude": "68.90192000"
        },
        {
          "name": "Delvada",
          "latitude": "20.77544000",
          "longitude": "71.04646000"
        },
        {
          "name": "Delwada",
          "latitude": "20.78330000",
          "longitude": "71.05000000"
        },
        {
          "name": "Detroj",
          "latitude": "23.33333333",
          "longitude": "72.18333333"
        },
        {
          "name": "Devbhumi Dwarka",
          "latitude": "22.20253000",
          "longitude": "69.65498000"
        },
        {
          "name": "Devgadh Bariya",
          "latitude": "22.70517000",
          "longitude": "73.90882000"
        },
        {
          "name": "Dhandhuka",
          "latitude": "22.38185000",
          "longitude": "71.98664000"
        },
        {
          "name": "Dhanera",
          "latitude": "24.50967000",
          "longitude": "72.02343000"
        },
        {
          "name": "Dhansura",
          "latitude": "23.35000000",
          "longitude": "73.20000000"
        },
        {
          "name": "Dharampur",
          "latitude": "20.53693000",
          "longitude": "73.17368000"
        },
        {
          "name": "Dharasana",
          "latitude": "20.68333333",
          "longitude": "72.91666667"
        },
        {
          "name": "Dhari",
          "latitude": "21.32855000",
          "longitude": "71.02645000"
        },
        {
          "name": "Dhasa",
          "latitude": "21.80000000",
          "longitude": "71.51666667"
        },
        {
          "name": "Dhola",
          "latitude": "21.88129000",
          "longitude": "71.77269000"
        },
        {
          "name": "Dholera",
          "latitude": "22.24800000",
          "longitude": "72.19500000"
        },
        {
          "name": "Dholka",
          "latitude": "22.72732000",
          "longitude": "72.44128000"
        },
        {
          "name": "Dhoraji",
          "latitude": "21.73359000",
          "longitude": "70.45004000"
        },
        {
          "name": "Dhrangadhra",
          "latitude": "22.99167000",
          "longitude": "71.46793000"
        },
        {
          "name": "Dhrol",
          "latitude": "22.56700000",
          "longitude": "70.41769000"
        },
        {
          "name": "Dhuwaran",
          "latitude": "22.23779000",
          "longitude": "72.75910000"
        },
        {
          "name": "Disa",
          "latitude": "24.25612000",
          "longitude": "72.17928000"
        },
        {
          "name": "Dohad",
          "latitude": "22.90000000",
          "longitude": "74.00000000"
        },
        {
          "name": "Dumkhal",
          "latitude": "21.73960000",
          "longitude": "73.84490000"
        },
        {
          "name": "Dungarpur",
          "latitude": "21.28777000",
          "longitude": "71.75560000"
        },
        {
          "name": "Dwarka",
          "latitude": "22.23944000",
          "longitude": "68.96778000"
        },
        {
          "name": "Gadhada",
          "latitude": "21.96957000",
          "longitude": "71.57828000"
        },
        {
          "name": "Gandevi",
          "latitude": "20.81214000",
          "longitude": "72.99811000"
        },
        {
          "name": "Gandhidham",
          "latitude": "23.08333000",
          "longitude": "70.13333000"
        },
        {
          "name": "Gandhinagar",
          "latitude": "23.21667000",
          "longitude": "72.68333000"
        },
        {
          "name": "Gariadhar",
          "latitude": "21.53889000",
          "longitude": "71.57737000"
        },
        {
          "name": "Ghodasar",
          "latitude": "24.45000000",
          "longitude": "71.85000000"
        },
        {
          "name": "Ghogha",
          "latitude": "21.68813000",
          "longitude": "72.27630000"
        },
        {
          "name": "Gir Somnath",
          "latitude": "20.91287000",
          "longitude": "70.36710000"
        },
        {
          "name": "Godhra",
          "latitude": "22.77547000",
          "longitude": "73.61488000"
        },
        {
          "name": "Gondal",
          "latitude": "21.96074000",
          "longitude": "70.80255000"
        },
        {
          "name": "Gorwa",
          "latitude": "22.33010000",
          "longitude": "73.16110000"
        },
        {
          "name": "Halenda",
          "latitude": "22.08818500",
          "longitude": "71.05171000"
        },
        {
          "name": "Halol",
          "latitude": "22.50321000",
          "longitude": "73.47242000"
        },
        {
          "name": "Halvad",
          "latitude": "23.01516000",
          "longitude": "71.18029000"
        },
        {
          "name": "Hansot",
          "latitude": "21.58496000",
          "longitude": "72.80764000"
        },
        {
          "name": "Harij",
          "latitude": "23.69356000",
          "longitude": "71.90700000"
        },
        {
          "name": "Harsol",
          "latitude": "23.36000000",
          "longitude": "73.02000000"
        },
        {
          "name": "Hathuran",
          "latitude": "21.50000000",
          "longitude": "72.97000000"
        },
        {
          "name": "Himatnagar",
          "latitude": "23.59893000",
          "longitude": "72.96602000"
        },
        {
          "name": "Idar",
          "latitude": "23.83000000",
          "longitude": "73.00000000"
        },
        {
          "name": "Jakhau",
          "latitude": "23.21861111",
          "longitude": "68.71694444"
        },
        {
          "name": "Jalalpore",
          "latitude": "20.94910000",
          "longitude": "72.91360000"
        },
        {
          "name": "Jalalpur",
          "latitude": "20.94896000",
          "longitude": "72.89829000"
        },
        {
          "name": "Jalia",
          "latitude": "21.80000000",
          "longitude": "70.25000000"
        },
        {
          "name": "Jambuda",
          "latitude": "22.51666667",
          "longitude": "70.21666667"
        },
        {
          "name": "Jambusar",
          "latitude": "22.05236000",
          "longitude": "72.80074000"
        },
        {
          "name": "Jamnagar",
          "latitude": "22.47292000",
          "longitude": "70.06673000"
        },
        {
          "name": "Jarod,",
          "latitude": "22.43300000",
          "longitude": "73.33300000"
        },
        {
          "name": "Jasdan",
          "latitude": "22.03709000",
          "longitude": "71.20794000"
        },
        {
          "name": "Jetalpur",
          "latitude": "22.88333333",
          "longitude": "72.60000000"
        },
        {
          "name": "Jetalsar",
          "latitude": "21.70891000",
          "longitude": "70.57695000"
        },
        {
          "name": "Jetpur",
          "latitude": "21.75482000",
          "longitude": "70.62347000"
        },
        {
          "name": "Jetpur (Navagadh)",
          "latitude": "21.75482000",
          "longitude": "70.62347000"
        },
        {
          "name": "Jhalod",
          "latitude": "23.10027778",
          "longitude": "74.15611111"
        },
        {
          "name": "Jhulasan",
          "latitude": "23.32860000",
          "longitude": "72.47314000"
        },
        {
          "name": "Jodhpur",
          "latitude": "21.90174000",
          "longitude": "70.03270000"
        },
        {
          "name": "Jodhpur (Ahmedabad)",
          "latitude": "21.88000000",
          "longitude": "70.03000000"
        },
        {
          "name": "Jodia",
          "latitude": "22.71667000",
          "longitude": "70.28333000"
        },
        {
          "name": "Jodiya Bandar",
          "latitude": "22.71667000",
          "longitude": "70.28333000"
        },
        {
          "name": "Junagadh",
          "latitude": "21.25000000",
          "longitude": "70.33333000"
        },
        {
          "name": "Kachchh",
          "latitude": "23.58333000",
          "longitude": "70.00000000"
        },
        {
          "name": "Kachholi",
          "latitude": "20.83333333",
          "longitude": "72.96666667"
        },
        {
          "name": "Kadi",
          "latitude": "23.29908000",
          "longitude": "72.33362000"
        },
        {
          "name": "Kadod",
          "latitude": "21.21717000",
          "longitude": "73.21972000"
        },
        {
          "name": "Kalavad",
          "latitude": "22.20789000",
          "longitude": "70.38343000"
        },
        {
          "name": "Kalol",
          "latitude": "22.60777000",
          "longitude": "73.46272000"
        },
        {
          "name": "Kandla",
          "latitude": "23.03333000",
          "longitude": "70.21667000"
        },
        {
          "name": "Kandla port",
          "latitude": "23.03000000",
          "longitude": "70.22000000"
        },
        {
          "name": "Kanodar",
          "latitude": "24.08932000",
          "longitude": "72.39354000"
        },
        {
          "name": "Kapadvanj",
          "latitude": "23.02302000",
          "longitude": "73.07113000"
        },
        {
          "name": "Karamsad",
          "latitude": "22.54243000",
          "longitude": "72.90392000"
        },
        {
          "name": "Kariana",
          "latitude": "21.88333333",
          "longitude": "71.35000000"
        },
        {
          "name": "Karjan",
          "latitude": "22.05304167",
          "longitude": "73.12351389"
        },
        {
          "name": "Kathor",
          "latitude": "21.28854000",
          "longitude": "72.94070000"
        },
        {
          "name": "Katpur",
          "latitude": "21.05869000",
          "longitude": "71.79457000"
        },
        {
          "name": "Kavant",
          "latitude": "22.09282000",
          "longitude": "74.05078000"
        },
        {
          "name": "Kawant",
          "latitude": "22.09282000",
          "longitude": "74.05078000"
        },
        {
          "name": "Kayavarohan",
          "latitude": "22.06700000",
          "longitude": "73.25000000"
        },
        {
          "name": "Kerwada",
          "latitude": "21.90000000",
          "longitude": "72.85000000"
        },
        {
          "name": "Keshod",
          "latitude": "21.30328000",
          "longitude": "70.24861000"
        },
        {
          "name": "Khambhalia",
          "latitude": "22.20000000",
          "longitude": "69.65000000"
        },
        {
          "name": "Khambhat",
          "latitude": "22.31744000",
          "longitude": "72.61916000"
        },
        {
          "name": "Khavda",
          "latitude": "23.85000000",
          "longitude": "69.72000000"
        },
        {
          "name": "Kheda",
          "latitude": "22.75000000",
          "longitude": "72.83333000"
        },
        {
          "name": "Khedbrahma",
          "latitude": "24.02990000",
          "longitude": "73.04632000"
        },
        {
          "name": "Khedoi",
          "latitude": "23.05927778",
          "longitude": "69.91895556"
        },
        {
          "name": "Kherali",
          "latitude": "22.68333333",
          "longitude": "71.60000000"
        },
        {
          "name": "Kheralu",
          "latitude": "23.88534000",
          "longitude": "72.61869000"
        },
        {
          "name": "Kodinar",
          "latitude": "20.79393000",
          "longitude": "70.70216000"
        },
        {
          "name": "Kosamba",
          "latitude": "21.46202000",
          "longitude": "72.95842000"
        },
        {
          "name": "Kothara",
          "latitude": "23.13300000",
          "longitude": "68.93200000"
        },
        {
          "name": "Kotharia",
          "latitude": "22.23000000",
          "longitude": "70.81000000"
        },
        {
          "name": "Kukarmunda",
          "latitude": "21.51666667",
          "longitude": "74.13333333"
        },
        {
          "name": "Kukma",
          "latitude": "23.21782200",
          "longitude": "69.77792200"
        },
        {
          "name": "Kundla",
          "latitude": "21.34222000",
          "longitude": "71.30633000"
        },
        {
          "name": "Kutch district",
          "latitude": "23.91500000",
          "longitude": "70.36700000"
        },
        {
          "name": "Kutiyana",
          "latitude": "21.62410000",
          "longitude": "69.98494000"
        },
        {
          "name": "Ladol",
          "latitude": "23.61666667",
          "longitude": "72.73333333"
        },
        {
          "name": "Lakhpat",
          "latitude": "23.82611111",
          "longitude": "68.77694444"
        },
        {
          "name": "Lakhtar",
          "latitude": "22.85683000",
          "longitude": "71.78844000"
        },
        {
          "name": "Lalpur",
          "latitude": "22.19073000",
          "longitude": "69.96351000"
        },
        {
          "name": "Langhnaj",
          "latitude": "23.45000000",
          "longitude": "72.48333333"
        },
        {
          "name": "Lathi",
          "latitude": "21.72310000",
          "longitude": "71.38843000"
        },
        {
          "name": "Limbdi",
          "latitude": "22.56507000",
          "longitude": "71.81076000"
        },
        {
          "name": "Limkheda",
          "latitude": "22.81666667",
          "longitude": "73.98333333"
        },
        {
          "name": "Lunavada",
          "latitude": "23.12841000",
          "longitude": "73.61043000"
        },
        {
          "name": "Madhavpur Ghed",
          "latitude": "21.29929167",
          "longitude": "70.02513889"
        },
        {
          "name": "Madhi",
          "latitude": "22.10000000",
          "longitude": "69.10000000"
        },
        {
          "name": "Mahemdavad",
          "latitude": "22.82359000",
          "longitude": "72.75551000"
        },
        {
          "name": "Mahesana",
          "latitude": "23.66667000",
          "longitude": "72.50000000"
        },
        {
          "name": "Mahisa",
          "latitude": "22.85000000",
          "longitude": "73.05000000"
        },
        {
          "name": "Mahudha",
          "latitude": "22.82082000",
          "longitude": "72.94032000"
        },
        {
          "name": "Mahuva",
          "latitude": "21.08330000",
          "longitude": "71.80000000"
        },
        {
          "name": "Mahuva (Surat)",
          "latitude": "21.02000000",
          "longitude": "73.15000000"
        },
        {
          "name": "Malpur",
          "latitude": "23.36035000",
          "longitude": "73.46595000"
        },
        {
          "name": "Manavadar",
          "latitude": "21.49813000",
          "longitude": "70.13775000"
        },
        {
          "name": "Mandal",
          "latitude": "23.28865000",
          "longitude": "71.91854000"
        },
        {
          "name": "Mandvi",
          "latitude": "22.83282000",
          "longitude": "69.35237000"
        },
        {
          "name": "Mandvi (Surat)",
          "latitude": "21.25526000",
          "longitude": "73.30412000"
        },
        {
          "name": "Mangrol",
          "latitude": "21.12268000",
          "longitude": "70.11484000"
        },
        {
          "name": "Mangrol (Junagadh)",
          "latitude": "21.12000000",
          "longitude": "70.12000000"
        },
        {
          "name": "Mansa",
          "latitude": "23.42564000",
          "longitude": "72.65739000"
        },
        {
          "name": "Meghraj",
          "latitude": "23.49805000",
          "longitude": "73.51352000"
        },
        {
          "name": "Mehsana",
          "latitude": "23.60000000",
          "longitude": "72.40000000"
        },
        {
          "name": "Mendarda",
          "latitude": "21.32112000",
          "longitude": "70.44078000"
        },
        {
          "name": "Mithapur",
          "latitude": "22.41000000",
          "longitude": "69.00000000"
        },
        {
          "name": "Modasa",
          "latitude": "23.46253000",
          "longitude": "73.29857000"
        },
        {
          "name": "Morbi",
          "latitude": "22.81731000",
          "longitude": "70.83770000"
        },
        {
          "name": "Morva (Hadaf)",
          "latitude": "22.90469000",
          "longitude": "73.83912000"
        },
        {
          "name": "Morwa",
          "latitude": "22.90469000",
          "longitude": "73.83912000"
        },
        {
          "name": "Mundra",
          "latitude": "22.83918000",
          "longitude": "69.72190000"
        },
        {
          "name": "Nadiad",
          "latitude": "22.69385000",
          "longitude": "72.86157000"
        },
        {
          "name": "Nadiad,",
          "latitude": "22.70000000",
          "longitude": "72.87000000"
        },
        {
          "name": "Nagwa",
          "latitude": "25.69621000",
          "longitude": "84.23590000"
        },
        {
          "name": "Naldhara",
          "latitude": "20.96666667",
          "longitude": "73.16666667"
        },
        {
          "name": "Naliya",
          "latitude": "23.26058000",
          "longitude": "68.82655000"
        },
        {
          "name": "Nargol",
          "latitude": "20.23300000",
          "longitude": "72.75000000"
        },
        {
          "name": "Narmada",
          "latitude": "21.87377000",
          "longitude": "73.49527000"
        },
        {
          "name": "Naroda",
          "latitude": "23.07041000",
          "longitude": "72.65702000"
        },
        {
          "name": "Navsari",
          "latitude": "20.95000000",
          "longitude": "72.92000000"
        },
        {
          "name": "Nikora",
          "latitude": "21.78586000",
          "longitude": "73.13968000"
        },
        {
          "name": "Nizar",
          "latitude": "21.47727000",
          "longitude": "74.19595000"
        },
        {
          "name": "Odadar",
          "latitude": "21.56666667",
          "longitude": "69.66666667"
        },
        {
          "name": "Okha",
          "latitude": "22.46756000",
          "longitude": "69.07002000"
        },
        {
          "name": "Olpad",
          "latitude": "21.33649000",
          "longitude": "72.75161000"
        },
        {
          "name": "Paddhari",
          "latitude": "22.43654000",
          "longitude": "70.60162000"
        },
        {
          "name": "Padra",
          "latitude": "22.23980000",
          "longitude": "73.08451000"
        },