{"code":"JP","states":[{"name":"Aichi Prefecture","state_code":"23","latitude":"35.01825050","longitude":"137.29238930","cities":[{"name":"Aisai-shi","latitude":"35.17234000","longitude":"136.69478000"},{"name":"Ama-gun","latitude":"35.17174000","longitude":"136.82308000"},{"name":"Anjō-shi","latitude":"34.94341000","longitude":"137.07165000"},{"name":"Chiryū","latitude":"35.00000000","longitude":"137.03333000"},{"name":"Chiryū-shi","latitude":"34.99862000","longitude":"137.05000000"},{"name":"Chita","latitude":"35.00267000","longitude":"136.86420000"},{"name":"Chita-shi","latitude":"34.97048000","longitude":"136.86490000"},{"name":"Gamagōri","latitude":"34.83333000","longitude":"137.23333000"},{"name":"Gamagōri-shi","latitude":"34.82759000","longitude":"137.22752000"},{"name":"Handa","latitude":"34.88333000","longitude":"136.93333000"},{"name":"Handa-shi","latitude":"34.89903000","longitude":"136.92660000"},{"name":"Hekinan","latitude":"34.88333000","longitude":"136.98333000"},{"name":"Hekinan-shi","latitude":"34.87955000","longitude":"136.99155000"},{"name":"Ichinomiya","latitude":"35.30000000","longitude":"136.80000000"},{"name":"Ichinomiya-shi","latitude":"35.31037000","longitude":"136.79237000"},{"name":"Inazawa","latitude":"35.25000000","longitude":"136.78333000"},{"name":"Inazawa-shi","latitude":"35.24814000","longitude":"136.77979000"},{"name":"Inuyama","latitude":"35.37995000","longitude":"136.94295000"},{"name":"Inuyama-shi","latitude":"35.36232000","longitude":"136.98072000"},{"name":"Ishiki","latitude":"34.80000000","longitude":"137.01667000"},{"name":"Iwakura","latitude":"35.28333000","longitude":"136.86667000"},{"name":"Iwakura-shi","latitude":"35.27927000","longitude":"136.86885000"},{"name":"Kanie","latitude":"35.13333000","longitude":"136.80000000"},{"name":"Kariya","latitude":"34.98333000","longitude":"136.98333000"},{"name":"Kariya-shi","latitude":"35.01098000","longitude":"137.00166000"},{"name":"Kasugai","latitude":"35.24762000","longitude":"136.97229000"},{"name":"Kasugai-shi","latitude":"35.24762000","longitude":"136.97226000"},{"name":"Kitanagoya","latitude":"35.24702000","longitude":"136.87832000"},{"name":"Kitanagoya-shi","latitude":"35.24640000","longitude":"136.87293000"},{"name":"Kiyosu-shi","latitude":"35.21325000","longitude":"136.84771000"},{"name":"Komaki","latitude":"35.28333000","longitude":"136.91667000"},{"name":"Komaki-shi","latitude":"35.29103000","longitude":"136.91196000"},{"name":"Kōnan","latitude":"35.33165000","longitude":"136.87042000"},{"name":"Kōnan-shi","latitude":"35.33137000","longitude":"136.87077000"},{"name":"Kozakai-chō","latitude":"34.80000000","longitude":"137.35889000"},{"name":"Kuroda","latitude":"35.35000000","longitude":"136.78333000"},{"name":"Miyoshi-shi","latitude":"35.09480000","longitude":"137.08870000"},{"name":"Nagakute-shi","latitude":"35.18335000","longitude":"137.04895000"},{"name":"Nagoya","latitude":"35.18147000","longitude":"136.90641000"},{"name":"Nishio","latitude":"34.86667000","longitude":"137.05000000"},{"name":"Nishio-shi","latitude":"34.86223000","longitude":"137.05433000"},{"name":"Nisshin-shi","latitude":"35.13114000","longitude":"137.03934000"},{"name":"Ōbu","latitude":"35.01756000","longitude":"136.94947000"},{"name":"Ōbu-shi","latitude":"35.01920000","longitude":"136.95424000"},{"name":"Okazaki-shi","latitude":"34.95245000","longitude":"137.25783000"},{"name":"Owariasahi-shi","latitude":"35.21652000","longitude":"137.03542000"},{"name":"Seto","latitude":"35.23333000","longitude":"137.10000000"},{"name":"Seto-shi","latitude":"35.22340000","longitude":"137.08414000"},{"name":"Shinshiro","latitude":"34.90000000","longitude":"137.50000000"},{"name":"Shinshiro-shi","latitude":"34.96073000","longitude":"137.54360000"},{"name":"Sobue","latitude":"35.25000000","longitude":"136.71667000"},{"name":"Tahara","latitude":"34.66667000","longitude":"137.26667000"},{"name":"Tahara-shi","latitude":"34.64140000","longitude":"137.18314000"},{"name":"Takahama","latitude":"34.91667000","longitude":"136.98333000"},{"name":"Takahama-shi","latitude":"34.93337000","longitude":"136.99490000"},{"name":"Taketoyo","latitude":"34.85000000","longitude":"136.91667000"},{"name":"Tōkai-shi","latitude":"35.02676000","longitude":"136.89846000"},{"name":"Tokoname","latitude":"34.88333000","longitude":"136.85000000"},{"name":"Tokoname-shi","latitude":"34.88929000","longitude":"136.85299000"},{"name":"Toyoake","latitude":"35.03800000","longitude":"136.99931000"},{"name":"Toyoake-shi","latitude":"35.06248000","longitude":"137.00887000"},{"name":"Toyohama","latitude":"34.70933000","longitude":"136.93425000"},{"name":"Toyohashi","latitude":"34.76667000","longitude":"137.38333000"},{"name":"Toyohashi-shi","latitude":"34.74050000","longitude":"137.40714000"},{"name":"Toyokawa","latitude":"34.81667000","longitude":"137.40000000"},{"name":"Toyokawa-shi","latitude":"34.85032000","longitude":"137.36175000"},{"name":"Toyota-shi","latitude":"35.08700000","longitude":"137.15000000"},{"name":"Tsushima","latitude":"35.16667000","longitude":"136.71667000"},{"name":"Tsushima-shi","latitude":"35.17718000","longitude":"136.74168000"},{"name":"Yatomi-shi","latitude":"35.10938000","longitude":"136.72451000"}]},{"name":"Akita Prefecture","state_code":"05","latitude":"40.13762930","longitude":"140.33434100","cities":[{"name":"Akita","latitude":"39.71667000","longitude":"140.11667000"},{"name":"Akita Shi","latitude":"39.71043000","longitude":"140.23207000"},{"name":"Daisen","latitude":"39.44116000","longitude":"140.48961000"},{"name":"Daisen-shi","latitude":"39.53710000","longitude":"140.44139000"},{"name":"Hanawa","latitude":"40.18361000","longitude":"140.78722000"},{"name":"Kakunodatemachi","latitude":"39.58926000","longitude":"140.56724000"},{"name":"Katagami","latitude":"39.87869000","longitude":"139.99767000"},{"name":"Katagami-shi","latitude":"39.87209000","longitude":"140.04910000"},{"name":"Kazuno Shi","latitude":"40.21035000","longitude":"140.83030000"},{"name":"Kitaakita-shi","latitude":"40.23446000","longitude":"140.39978000"},{"name":"Nikaho-shi","latitude":"39.19677000","longitude":"139.97305000"},{"name":"Noshiro","latitude":"40.20838000","longitude":"140.02740000"},{"name":"Noshiro Shi","latitude":"40.20289000","longitude":"140.14486000"},{"name":"Ōdate","latitude":"40.27178000","longitude":"140.55756000"},{"name":"Ōdate-shi","latitude":"40.30000000","longitude":"140.55000000"},{"name":"Oga","latitude":"39.87100000","longitude":"139.84926000"},{"name":"Oga-shi","latitude":"39.93793000","longitude":"139.83611000"},{"name":"Ōmagari","latitude":"39.45000000","longitude":"140.48333000"},{"name":"Semboku-shi","latitude":"39.75709000","longitude":"140.66998000"},{"name":"Takanosu","latitude":"40.22268000","longitude":"140.36611000"},{"name":"Tennō","latitude":"39.90000000","longitude":"139.96667000"},{"name":"Yokote","latitude":"39.31691000","longitude":"140.55034000"},{"name":"Yokote-shi","latitude":"39.28369000","longitude":"140.54432000"},{"name":"Yurihonjō","latitude":"39.38950000","longitude":"140.05813000"},{"name":"Yurihonjō-shi","latitude":"39.29336000","longitude":"140.16498000"},{"name":"Yuzawa","latitude":"39.16667000","longitude":"140.50000000"},{"name":"Yuzawa-shi","latitude":"39.03658000","longitude":"140.54267000"}]},{"name":"Aomori Prefecture","state_code":"02","latitude":"40.76570770","longitude":"140.91758790","cities":[{"name":"Aomori","latitude":"40.81667000","longitude":"140.73333000"},{"name":"Aomori Shi","latitude":"40.77001000","longitude":"140.75423000"},{"name":"Goshogawara","latitude":"40.80444000","longitude":"140.44139000"},{"name":"Goshogawara Shi","latitude":"40.91657000","longitude":"140.46998000"},{"name":"Hachinohe","latitude":"40.50000000","longitude":"141.50000000"},{"name":"Hachinohe Shi","latitude":"40.47389000","longitude":"141.48125000"},{"name":"Hirakawa","latitude":"40.58728000","longitude":"140.57107000"},{"name":"Hirakawa Shi","latitude":"40.51832000","longitude":"140.70048000"},{"name":"Hirosaki","latitude":"40.59306000","longitude":"140.47250000"},{"name":"Hirosaki Shi","latitude":"40.60512000","longitude":"140.38460000"},{"name":"Kuroishi","latitude":"40.64581000","longitude":"140.58354000"},{"name":"Kuroishi Shi","latitude":"40.61709000","longitude":"140.70467000"},{"name":"Misawa","latitude":"40.68682000","longitude":"141.38969000"},{"name":"Misawa Shi","latitude":"40.74647000","longitude":"141.38124000"},{"name":"Mutsu","latitude":"41.28944000","longitude":"141.21694000"},{"name":"Mutsu-shi","latitude":"41.29090000","longitude":"141.03327000"},{"name":"Namioka","latitude":"40.71069000","longitude":"140.59048000"},{"name":"Shimokizukuri","latitude":"40.81609000","longitude":"140.37539000"},{"name":"Towada Shi","latitude":"40.56736000","longitude":"141.05794000"},{"name":"Tsugaru","latitude":"40.80357000","longitude":"140.40299000"},{"name":"Tsugaru Shi","latitude":"40.86988000","longitude":"140.34963000"}]},{"name":"Chiba Prefecture","state_code":"12","latitude":"35.33541550","longitude":"140.18325160","cities":[{"name":"Abiko","latitude":"35.86667000","longitude":"140.01667000"},{"name":"Abiko-shi","latitude":"35.86947000","longitude":"140.06510000"},{"name":"Asahi-shi","latitude":"35.73443000","longitude":"140.65549000"},{"name":"Chiba","latitude":"35.60000000","longitude":"140.11667000"},{"name":"Chōshi-shi","latitude":"35.74303000","longitude":"140.77552000"},{"name":"Funabashi-shi","latitude":"35.69455000","longitude":"139.98255000"},{"name":"Futtsu","latitude":"35.31080000","longitude":"139.81877000"},{"name":"Hasaki","latitude":"35.73333000","longitude":"140.83333000"},{"name":"Honchō","latitude":"35.70129000","longitude":"139.98648000"},{"name":"Ichihara","latitude":"35.51667000","longitude":"140.08333000"},{"name":"Ichihara Shi","latitude":"35.42484000","longitude":"140.13725000"},{"name":"Ichikawa Shi","latitude":"35.71865000","longitude":"139.93294000"},{"name":"Inzai-shi","latitude":"35.81207000","longitude":"140.14098000"},{"name":"Isumi","latitude":"35.23005000","longitude":"140.40492000"},{"name":"Isumi Shi","latitude":"35.27777000","longitude":"140.34335000"},{"name":"Kamagaya Shi","latitude":"35.77289000","longitude":"139.99883000"},{"name":"Kamogawa","latitude":"35.09690000","longitude":"140.10030000"},{"name":"Kamogawa-shi","latitude":"35.10000000","longitude":"140.10000000"},{"name":"Kashiwa","latitude":"35.86224000","longitude":"139.97732000"},{"name":"Kashiwa Shi","latitude":"35.86017000","longitude":"139.99386000"},{"name":"Katori-shi","latitude":"35.88333000","longitude":"140.51667000"},{"name":"Katsuura","latitude":"35.14621000","longitude":"140.31507000"},{"name":"Katsuura-shi","latitude":"35.17535000","longitude":"140.26760000"},{"name":"Kimitsu","latitude":"35.35043000","longitude":"139.87029000"},{"name":"Kisarazu","latitude":"35.38329000","longitude":"139.93254000"},{"name":"Kisarazu Shi","latitude":"35.36981000","longitude":"139.98749000"},{"name":"Matsudo Shi","latitude":"35.79574000","longitude":"139.92908000"},{"name":"Minamibōsō Shi","latitude":"35.03657000","longitude":"139.92847000"},{"name":"Mobara","latitude":"35.42583000","longitude":"140.29608000"},{"name":"Mobara Shi","latitude":"35.44981000","longitude":"140.30163000"},{"name":"Nagareyama","latitude":"35.85630000","longitude":"139.90266000"},{"name":"Nagareyama-shi","latitude":"35.85631000","longitude":"139.90266000"},{"name":"Narashino-shi","latitude":"35.68091000","longitude":"140.03418000"},{"name":"Narita","latitude":"35.78333000","longitude":"140.31667000"},{"name":"Narita-shi","latitude":"35.81547000","longitude":"140.35757000"},{"name":"Narutō","latitude":"35.60000000","longitude":"140.41667000"},{"name":"Noda","latitude":"35.94897000","longitude":"139.86793000"},{"name":"Noda-shi","latitude":"35.98516000","longitude":"139.86215000"},{"name":"Ōami","latitude":"35.51667000","longitude":"140.31667000"},{"name":"Ōamishirasato-shi","latitude":"35.51279000","longitude":"140.34295000"},{"name":"Ōhara","latitude":"35.24761000","longitude":"140.39289000"},{"name":"Omigawa","latitude":"35.85000000","longitude":"140.61667000"},{"name":"Sakura","latitude":"35.71667000","longitude":"140.23333000"},{"name":"Sakura-shi","latitude":"35.70619000","longitude":"140.21326000"},{"name":"Sambu-gun","latitude":"35.68843000","longitude":"140.45346000"},{"name":"Sanmu","latitude":"35.62756000","longitude":"140.41762000"},{"name":"Sanmu-shi","latitude":"35.62397000","longitude":"140.42079000"},{"name":"Sawara","latitude":"35.88333000","longitude":"140.50000000"},{"name":"Shiroi","latitude":"35.80000000","longitude":"140.06667000"},{"name":"Shiroi-shi","latitude":"35.80164000","longitude":"140.06005000"},{"name":"Shisui","latitude":"35.71667000","longitude":"140.26667000"},{"name":"Sodegaura-shi","latitude":"35.41642000","longitude":"140.01771000"},{"name":"Sōsa-shi","latitude":"35.69983000","longitude":"140.55366000"},{"name":"Tateyama","latitude":"34.98333000","longitude":"139.86667000"},{"name":"Tateyama-shi","latitude":"34.97156000","longitude":"139.86163000"},{"name":"Tōgane","latitude":"35.55000000","longitude":"140.36667000"},{"name":"Tōgane-shi","latitude":"35.56517000","longitude":"140.36707000"},{"name":"Tomisato-shi","latitude":"35.72024000","longitude":"140.34080000"},{"name":"Urayasu-shi","latitude":"35.64250000","longitude":"139.90192000"},{"name":"Yachimata","latitude":"35.65000000","longitude":"140.31667000"},{"name":"Yachimata-shi","latitude":"35.64241000","longitude":"140.29686000"},{"name":"Yachiyo-shi","latitude":"35.73921000","longitude":"140.10502000"},{"name":"Yōkaichiba","latitude":"35.70000000","longitude":"140.55000000"},{"name":"Yotsukaidō","latitude":"35.65000000","longitude":"140.16667000"},{"name":"Yotsukaidō-shi","latitude":"35.67167000","longitude":"140.17912000"}]},{"name":"Ehime Prefecture","state_code":"38","latitude":"33.60253060","longitude":"132.78575830","cities":[{"name":"Hōjō","latitude":"33.97661000","longitude":"132.77767000"},{"name":"Imabari-shi","latitude":"34.06667000","longitude":"132.99791000"},{"name":"Iyo","latitude":"33.75139000","longitude":"132.70139000"},{"name":"Iyo-shi","latitude":"33.68493000","longitude":"132.68909000"},{"name":"Kawanoechō","latitude":"34.01654000","longitude":"133.57844000"},{"name":"Kihoku-chō","latitude":"33.25592000","longitude":"132.68343000"},{"name":"Masaki-chō","latitude":"33.78757000","longitude":"132.71124000"},{"name":"Matsuyama-shi","latitude":"33.83568000","longitude":"132.76224000"},{"name":"Niihama","latitude":"33.96047000","longitude":"133.30522000"},{"name":"Niihama-shi","latitude":"33.90670000","longitude":"133.33250000"},{"name":"Ōzu","latitude":"33.50000000","longitude":"132.55000000"},{"name":"Ōzu-shi","latitude":"33.50619000","longitude":"132.54430000"},{"name":"Saijō","latitude":"33.91667000","longitude":"133.18333000"},{"name":"Saijō-shi","latitude":"33.86100000","longitude":"133.10832000"},{"name":"Seiyo-shi","latitude":"33.39408000","longitude":"132.63262000"},{"name":"Shikoku-chūō Shi","latitude":"33.93538000","longitude":"133.53622000"},{"name":"Tōon-shi","latitude":"33.79099000","longitude":"132.87234000"},{"name":"Uwajima","latitude":"33.22375000","longitude":"132.56001000"},{"name":"Uwajima-shi","latitude":"33.22325000","longitude":"132.56069000"},{"name":"Yawatahama-shi","latitude":"33.46302000","longitude":"132.42336000"}]},{"name":"Fukui Prefecture","state_code":"18","latitude":"35.89622700","longitude":"136.21115790","cities":[{"name":"Asahi","latitude":"35.97259000","longitude":"136.12455000"},{"name":"Awara-shi","latitude":"36.22777000","longitude":"136.25154000"},{"name":"Echizen-shi","latitude":"35.88946000","longitude":"136.17723000"},{"name":"Fukui-shi","latitude":"36.06667000","longitude":"136.21667000"},{"name":"Katsuyama","latitude":"36.06173000","longitude":"136.50101000"},{"name":"Katsuyama Shi","latitude":"36.08440000","longitude":"136.52178000"},{"name":"Maruoka","latitude":"36.15340000","longitude":"136.27029000"},{"name":"Mikuni","latitude":"36.21706000","longitude":"136.15185000"},{"name":"Obama","latitude":"35.49576000","longitude":"135.74604000"},{"name":"Obama-shi","latitude":"35.45000000","longitude":"135.70000000"},{"name":"Ōi-gun","latitude":"35.49238000","longitude":"135.49311000"},{"name":"Ono","latitude":"35.98106000","longitude":"136.48727000"},{"name":"Ōno-shi","latitude":"35.90837000","longitude":"136.61696000"},{"name":"Sabae","latitude":"35.94647000","longitude":"136.18498000"},{"name":"Sabae-shi","latitude":"35.95932000","longitude":"136.21835000"},{"name":"Sakai-shi","latitude":"36.16406000","longitude":"136.25544000"},{"name":"Takefu","latitude":"35.90393000","longitude":"136.16687000"},{"name":"Tsuruga","latitude":"35.64547000","longitude":"136.05580000"},{"name":"Tsuruga-shi","latitude":"35.63730000","longitude":"136.08068000"}]},{"name":"Fukuoka Prefecture","state_code":"40","latitude":"33.56625590","longitude":"130.71585700","cities":[{"name":"Amagi","latitude":"33.41804000","longitude":"130.65413000"},{"name":"Asakura Shi","latitude":"33.41684000","longitude":"130.74167000"},{"name":"Buzen","latitude":"33.61153000","longitude":"131.13002000"},{"name":"Buzen-shi","latitude":"33.56743000","longitude":"131.08578000"},{"name":"Chikugo Shi","latitude":"33.20748000","longitude":"130.49122000"},{"name":"Chikushino-shi","latitude":"33.49631000","longitude":"130.51560000"},{"name":"Dazaifu-shi","latitude":"33.50000000","longitude":"130.53333000"},{"name":"Fukuoka","latitude":"33.60000000","longitude":"130.41667000"},{"name":"Fukuoka-shi","latitude":"33.56894000","longitude":"130.35764000"},{"name":"Fukutsu Shi","latitude":"33.77982000","longitude":"130.49804000"},{"name":"Iizuka","latitude":"33.63654000","longitude":"130.68678000"},{"name":"Iizuka Shi","latitude":"33.61353000","longitude":"130.66098000"},{"name":"Itoshima-shi","latitude":"33.53317000","longitude":"130.17975000"},{"name":"Kama Shi","latitude":"33.53663000","longitude":"130.74028000"},{"name":"Kanda","latitude":"33.78333000","longitude":"130.98333000"},{"name":"Kasuga Shi","latitude":"33.52404000","longitude":"130.45641000"},{"name":"Kawasaki","latitude":"33.59993000","longitude":"130.81495000"},{"name":"Kitakyushu","latitude":"33.85181000","longitude":"130.85034000"},{"name":"Koga","latitude":"33.73333000","longitude":"130.46667000"},{"name":"Koga-shi","latitude":"33.72139000","longitude":"130.49947000"},{"name":"Kurume","latitude":"33.31667000","longitude":"130.51667000"},{"name":"Kurume Shi","latitude":"33.30358000","longitude":"130.56549000"},{"name":"Maebaru-chūō","latitude":"33.55916000","longitude":"130.20148000"},{"name":"Miyama Shi","latitude":"33.12369000","longitude":"130.49540000"},{"name":"Miyata","latitude":"33.70811000","longitude":"130.65297000"},{"name":"Miyawaka Shi","latitude":"33.71559000","longitude":"130.61506000"},{"name":"Munakata-shi","latitude":"33.80000000","longitude":"130.55000000"},{"name":"Nakama","latitude":"33.81688000","longitude":"130.70962000"},{"name":"Nakama Shi","latitude":"33.82081000","longitude":"130.70862000"},{"name":"Nishifukuma","latitude":"33.76627000","longitude":"130.47461000"},{"name":"Nōgata","latitude":"33.74051000","longitude":"130.72263000"},{"name":"Nōgata Shi","latitude":"33.75116000","longitude":"130.74592000"},{"name":"Ogōri-shi","latitude":"33.38333000","longitude":"130.56667000"},{"name":"Ōkawa","latitude":"33.20566000","longitude":"130.37527000"},{"name":"Ōkawa-shi","latitude":"33.20736000","longitude":"130.38253000"},{"name":"Ōmuta","latitude":"33.03333000","longitude":"130.45000000"},{"name":"Ōmuta Shi","latitude":"33.04616000","longitude":"130.46912000"},{"name":"Onga-gun","latitude":"33.85699000","longitude":"130.63626000"},{"name":"Ōnojō","latitude":"33.53567000","longitude":"130.47861000"},{"name":"Ōnojō Shi","latitude":"33.51302000","longitude":"130.47925000"},{"name":"Sasaguri","latitude":"33.61561000","longitude":"130.55105000"},{"name":"Setakamachi-takayanagi","latitude":"33.14858000","longitude":"130.46548000"},{"name":"Shiida","latitude":"33.65341000","longitude":"131.05797000"},{"name":"Shingū","latitude":"33.71399000","longitude":"130.43130000"},{"name":"Tagawa","latitude":"33.63333000","longitude":"130.80000000"},{"name":"Tagawa Shi","latitude":"33.63159000","longitude":"130.79966000"},{"name":"Tanushimarumachi-toyoki","latitude":"33.35000000","longitude":"130.68333000"},{"name":"Tsuiki","latitude":"33.67307000","longitude":"131.03776000"},{"name":"Ukiha Shi","latitude":"33.31184000","longitude":"130.79325000"},{"name":"Umi","latitude":"33.56826000","longitude":"130.51009000"},{"name":"Yame Shi","latitude":"33.23302000","longitude":"130.62775000"},{"name":"Yanagawa","latitude":"33.16667000","longitude":"130.40000000"},{"name":"Yanagawa Shi","latitude":"33.14932000","longitude":"130.40725000"},{"name":"Yoshitomi","latitude":"33.60247000","longitude":"131.17599000"},{"name":"Yukuhashi","latitude":"33.72873000","longitude":"130.98300000"},{"name":"Yukuhashi Shi","latitude":"33.71404000","longitude":"130.97108000"}]},{"name":"Fukushima Prefecture","state_code":"07","latitude":"37.38343730","longitude":"140.18325160","cities":[{"name":"Aizu-wakamatsu Shi","latitude":"37.45071000","longitude":"139.96814000"},{"name":"Date-shi","latitude":"37.81667000","longitude":"140.51667000"},{"name":"Fukushima","latitude":"37.75000000","longitude":"140.46667000"},{"name":"Fukushima Shi","latitude":"37.78643000","longitude":"140.38849000"},{"name":"Funehikimachi-funehiki","latitude":"37.44722000","longitude":"140.57710000"},{"name":"Hobaramachi","latitude":"37.81667000","longitude":"140.55000000"},{"name":"Inawashiro","latitude":"37.56667000","longitude":"140.11667000"},{"name":"Ishikawa","latitude":"37.15000000","longitude":"140.45000000"},{"name":"Iwaki","latitude":"37.05000000","longitude":"140.88333000"},{"name":"Iwaki-shi","latitude":"37.08333000","longitude":"140.83333000"},{"name":"Kitakata","latitude":"37.65000000","longitude":"139.86667000"},{"name":"Kitakata-shi","latitude":"37.68333000","longitude":"139.90000000"},{"name":"Kōriyama","latitude":"37.40000000","longitude":"140.38333000"},{"name":"Kōriyama Shi","latitude":"37.41277000","longitude":"140.29507000"},{"name":"Miharu","latitude":"37.43333000","longitude":"140.48333000"},{"name":"Minami-Sōma","latitude":"37.62908000","longitude":"140.97868000"},{"name":"Minamisōma Shi","latitude":"37.63108000","longitude":"140.92852000"},{"name":"Motomiya","latitude":"37.51391000","longitude":"140.40063000"},{"name":"Motomiya-shi","latitude":"37.51218000","longitude":"140.39841000"},{"name":"Namie","latitude":"37.48333000","longitude":"141.00000000"},{"name":"Nihommatsu","latitude":"37.58333000","longitude":"140.43333000"},{"name":"Nihonmatsu Shi","latitude":"37.58402000","longitude":"140.49543000"},{"name":"Shirakawa Shi","latitude":"37.12225000","longitude":"140.24963000"},{"name":"Sōma","latitude":"37.79283000","longitude":"140.92941000"},{"name":"Sōma Shi","latitude":"37.78193000","longitude":"140.87321000"},{"name":"Sukagawa","latitude":"37.28333000","longitude":"140.38333000"},{"name":"Sukagawa Shi","latitude":"37.29342000","longitude":"140.31691000"},{"name":"Tamura","latitude":"37.43055000","longitude":"140.60335000"},{"name":"Tamura-shi","latitude":"37.43793000","longitude":"140.57384000"},{"name":"Yanagawamachi-saiwaichō","latitude":"37.85000000","longitude":"140.60000000"}]},{"name":"Gifu Prefecture","state_code":"21","latitude":"35.74374910","longitude":"136.98051030","cities":[{"name":"Ena-shi","latitude":"35.44722000","longitude":"137.41810000"},{"name":"Gero","latitude":"35.80000000","longitude":"137.23333000"},{"name":"Gero-shi","latitude":"35.75000000","longitude":"137.25000000"},{"name":"Gifu-shi","latitude":"35.44826000","longitude":"136.76470000"},{"name":"Gōdo","latitude":"35.41667000","longitude":"136.60000000"},{"name":"Gujō","latitude":"35.73691000","longitude":"136.95852000"},{"name":"Gujō-shi","latitude":"35.83298000","longitude":"136.94561000"},{"name":"Hashima","latitude":"35.32900000","longitude":"136.68051000"},{"name":"Hashima-shi","latitude":"35.30740000","longitude":"136.70161000"},{"name":"Hida","latitude":"36.24483000","longitude":"137.17323000"},{"name":"Hida Shi","latitude":"36.33272000","longitude":"137.20568000"},{"name":"Kaizu-shi","latitude":"35.21381000","longitude":"136.62443000"},{"name":"Kakamigahara-shi","latitude":"35.40283000","longitude":"136.87829000"},{"name":"Kani-shi","latitude":"35.40589000","longitude":"137.06602000"},{"name":"Kasamatsuchō","latitude":"35.36667000","longitude":"136.76667000"},{"name":"Mino","latitude":"35.53333000","longitude":"136.91667000"},{"name":"Mino-shi","latitude":"35.57892000","longitude":"136.90120000"},{"name":"Minokamo","latitude":"35.48199000","longitude":"137.02166000"},{"name":"Minokamo-shi","latitude":"35.48386000","longitude":"137.02658000"},{"name":"Mitake","latitude":"35.41667000","longitude":"137.13333000"},{"name":"Mizuho-shi","latitude":"35.39663000","longitude":"136.67022000"},{"name":"Mizunami","latitude":"35.36667000","longitude":"137.25000000"},{"name":"Mizunami-shi","latitude":"35.38935000","longitude":"137.27360000"},{"name":"Motosu-shi","latitude":"35.65553000","longitude":"136.61991000"},{"name":"Nakatsugawa","latitude":"35.48333000","longitude":"137.50000000"},{"name":"Nakatsugawa-shi","latitude":"35.56656000","longitude":"137.47433000"},{"name":"Ōgaki-shi","latitude":"35.36485000","longitude":"136.60189000"},{"name":"Seki-shi","latitude":"35.48333000","longitude":"136.91667000"},{"name":"Tajimi","latitude":"35.31667000","longitude":"137.13333000"},{"name":"Tajimi-shi","latitude":"35.33401000","longitude":"137.11258000"},{"name":"Takayama Shi","latitude":"36.13181000","longitude":"137.28585000"},{"name":"Tarui","latitude":"35.36667000","longitude":"136.53333000"},{"name":"Toki","latitude":"35.35000000","longitude":"137.18333000"},{"name":"Toki-shi","latitude":"35.32418000","longitude":"137.20748000"},{"name":"Yamagata-shi","latitude":"35.59892000","longitude":"136.74311000"}]},{"name":"Gunma Prefecture","state_code":"10","latitude":"36.56053880","longitude":"138.87999720","cities":[{"name":"Agatsuma-gun","latitude":"36.57368000","longitude":"138.67243000"},{"name":"Annaka","latitude":"36.33011000","longitude":"138.89585000"},{"name":"Annaka Shi","latitude":"36.34079000","longitude":"138.77647000"},{"name":"Fujioka","latitude":"36.24624000","longitude":"139.07204000"},{"name":"Fujioka Shi","latitude":"36.19213000","longitude":"138.99918000"},{"name":"Isesaki","latitude":"36.31667000","longitude":"139.20000000"},{"name":"Isesaki Shi","latitude":"36.32126000","longitude":"139.21823000"},{"name":"Kanekomachi","latitude":"36.41097000","longitude":"138.99621000"},{"name":"Kiryū","latitude":"36.40000000","longitude":"139.33333000"},{"name":"Kiryū Shi","latitude":"36.45702000","longitude":"139.30962000"},{"name":"Maebashi","latitude":"36.40000000","longitude":"139.08333000"},{"name":"Maebashi Shi","latitude":"36.41432000","longitude":"139.13110000"},{"name":"Midori","latitude":"36.44492000","longitude":"139.28448000"},{"name":"Midori Shi","latitude":"36.53044000","longitude":"139.34728000"},{"name":"Nakanojōmachi","latitude":"36.58717000","longitude":"138.84083000"},{"name":"Numata","latitude":"36.63333000","longitude":"139.05000000"},{"name":"Numata Shi","latitude":"36.67371000","longitude":"139.18353000"},{"name":"Ōmamachō-ōmama","latitude":"36.43181000","longitude":"139.27534000"},{"name":"Ōta","latitude":"36.30000000","longitude":"139.36667000"},{"name":"Ōta-shi","latitude":"36.30000000","longitude":"139.36667000"},{"name":"Sakai-nakajima","latitude":"36.26667000","longitude":"139.25000000"},{"name":"Shibukawa","latitude":"36.48333000","longitude":"139.00000000"},{"name":"Shibukawa-shi","latitude":"36.50000000","longitude":"138.98333000"},{"name":"Takasaki","latitude":"36.33333000","longitude":"139.01667000"},{"name":"Takasaki Shi","latitude":"36.40538000","longitude":"138.89227000"},{"name":"Tamamura","latitude":"36.30000000","longitude":"139.11667000"},{"name":"Tatebayashi","latitude":"36.25000000","longitude":"139.53333000"},{"name":"Tatebayashi-shi","latitude":"36.24597000","longitude":"139.53533000"},{"name":"Tomioka","latitude":"36.25411000","longitude":"138.89813000"},{"name":"Tomioka-shi","latitude":"36.25000000","longitude":"138.88333000"},{"name":"Yoshii","latitude":"36.25000000","longitude":"138.98333000"}]},{"name":"Hiroshima Prefecture","state_code":"34","latitude":"34.88234080","longitude":"133.01948970","cities":[{"name":"Aki-takata Shi","latitude":"34.70248000","longitude":"132.67770000"},{"name":"Etajima-shi","latitude":"34.21989000","longitude":"132.44345000"},{"name":"Fuchū-shi","latitude":"34.56667000","longitude":"133.23333000"},{"name":"Fuchūchō","latitude":"34.57350000","longitude":"133.23513000"},{"name":"Fukuyama","latitude":"34.48333000","longitude":"133.36667000"},{"name":"Fukuyama Shi","latitude":"34.52342000","longitude":"133.33779000"},{"name":"Hatsukaichi","latitude":"34.35000000","longitude":"132.33333000"},{"name":"Hatsukaichi-shi","latitude":"34.35000000","longitude":"132.30000000"},{"name":"Higashihiroshima Shi","latitude":"34.44755000","longitude":"132.76116000"},{"name":"Hiroshima","latitude":"34.40000000","longitude":"132.45000000"},{"name":"Hiroshima-shi","latitude":"34.47942000","longitude":"132.45312000"},{"name":"Innoshima","latitude":"34.28333000","longitude":"133.18333000"},{"name":"Kannabechō-yahiro","latitude":"34.55808000","longitude":"133.41796000"},{"name":"Kure","latitude":"34.23222000","longitude":"132.56658000"},{"name":"Kure-shi","latitude":"34.22448000","longitude":"132.62914000"},{"name":"Mihara","latitude":"34.40000000","longitude":"133.08333000"},{"name":"Mihara Shi","latitude":"34.45817000","longitude":"133.00395000"},{"name":"Miyajima","latitude":"34.29907000","longitude":"132.32186000"},{"name":"Miyoshi","latitude":"34.80000000","longitude":"132.85000000"},{"name":"Miyoshi Shi","latitude":"34.79201000","longitude":"132.86435000"},{"name":"Ōno-hara","latitude":"34.28333000","longitude":"132.26667000"},{"name":"Onomichi","latitude":"34.41667000","longitude":"133.20000000"},{"name":"Onomichi-shi","latitude":"34.42630000","longitude":"133.16329000"},{"name":"Ōtake","latitude":"34.20754000","longitude":"132.22063000"},{"name":"Ōtake-shi","latitude":"34.25787000","longitude":"132.18756000"},{"name":"Shin’ichi","latitude":"34.55543000","longitude":"133.27297000"},{"name":"Shōbara","latitude":"34.85000000","longitude":"133.01667000"},{"name":"Shōbara-shi","latitude":"34.94831000","longitude":"133.06769000"},{"name":"Takehara","latitude":"34.33833000","longitude":"132.91667000"},{"name":"Takehara-shi","latitude":"34.35000000","longitude":"132.90000000"}]},{"name":"Hokkaidō Prefecture","state_code":"01","latitude":"43.22032660","longitude":"142.86347370","cities":[{"name":"Abashiri","latitude":"44.02127000","longitude":"144.26971000"},{"name":"Abashiri Shi","latitude":"43.98565000","longitude":"144.21051000"},{"name":"Akabira","latitude":"43.55139000","longitude":"142.05306000"},{"name":"Akabira-shi","latitude":"43.56790000","longitude":"142.06281000"},{"name":"Asahikawa","latitude":"43.77063000","longitude":"142.36489000"},{"name":"Ashibetsu","latitude":"43.50972000","longitude":"142.18556000"},{"name":"Ashibetsu-shi","latitude":"43.42542000","longitude":"142.20161000"},{"name":"Bibai","latitude":"43.32472000","longitude":"141.85861000"},{"name":"Chitose","latitude":"42.81944000","longitude":"141.65222000"},{"name":"Chitose Shi","latitude":"42.80048000","longitude":"141.50951000"},{"name":"Date","latitude":"42.46806000","longitude":"140.86806000"},{"name":"Date-shi","latitude":"42.49337000","longitude":"140.89142000"},{"name":"Ebetsu","latitude":"43.10806000","longitude":"141.55056000"},{"name":"Eniwa-shi","latitude":"42.88333000","longitude":"141.56667000"},{"name":"Fukagawa","latitude":"43.70806000","longitude":"142.03917000"},{"name":"Fukagawa-shi","latitude":"43.79334000","longitude":"142.09923000"},{"name":"Furano-shi","latitude":"43.28182000","longitude":"142.47349000"},{"name":"Hakodate","latitude":"41.77583000","longitude":"140.73667000"},{"name":"Hakodate Shi","latitude":"41.83754000","longitude":"140.92597000"},{"name":"Hokuto","latitude":"41.81626000","longitude":"140.63472000"},{"name":"Hokuto-shi","latitude":"41.86411000","longitude":"140.55424000"},{"name":"Honchō","latitude":"41.89440000","longitude":"140.69386000"},{"name":"Ishikari","latitude":"43.23972000","longitude":"141.35389000"},{"name":"Ishikari-shi","latitude":"43.46596000","longitude":"141.44298000"},{"name":"Iwamizawa","latitude":"43.20028000","longitude":"141.75972000"},{"name":"Iwamizawa-shi","latitude":"43.18086000","longitude":"141.79744000"},{"name":"Iwanai","latitude":"42.97444000","longitude":"140.50889000"},{"name":"Kamiiso","latitude":"41.82013000","longitude":"140.64482000"},{"name":"Kamikawa","latitude":"43.84000000","longitude":"142.77111000"},{"name":"Kitahiroshima","latitude":"42.97583000","longitude":"141.56722000"},{"name":"Kitahiroshima-shi","latitude":"42.98581000","longitude":"141.55678000"},{"name":"Kitami","latitude":"43.80306000","longitude":"143.89083000"},{"name":"Ktiami Shi","latitude":"43.85160000","longitude":"143.71520000"},{"name":"Kushiro","latitude":"42.97500000","longitude":"144.37472000"},{"name":"Kushiro Shi","latitude":"43.15910000","longitude":"144.06647000"},{"name":"Makubetsu","latitude":"45.37139000","longitude":"141.82111000"},{"name":"Mikasa","latitude":"43.25581000","longitude":"141.88818000"},{"name":"Mikasa-shi","latitude":"43.23976000","longitude":"141.99273000"},{"name":"Mombetsu","latitude":"44.35250000","longitude":"143.35250000"},{"name":"Monbetsu Shi","latitude":"44.20323000","longitude":"143.29293000"},{"name":"Motomachi","latitude":"43.82634000","longitude":"144.09638000"},{"name":"Muroran","latitude":"42.31722000","longitude":"140.98806000"},{"name":"Muroran-shi","latitude":"42.36659000","longitude":"140.98845000"},{"name":"Nayoro","latitude":"44.35056000","longitude":"142.45778000"},{"name":"Nayoro Shi","latitude":"44.33951000","longitude":"142.45932000"},{"name":"Nemuro","latitude":"43.32361000","longitude":"145.57500000"},{"name":"Nemuro-shi","latitude":"43.33333000","longitude":"145.61667000"},{"name":"Niseko Town","latitude":"42.77871000","longitude":"140.66903000"},{"name":"Noboribetsu","latitude":"42.45215000","longitude":"141.17914000"},{"name":"Noboribetsu-shi","latitude":"42.46565000","longitude":"141.07578000"},{"name":"Obihiro","latitude":"42.91722000","longitude":"143.20444000"},{"name":"Obihiro Shi","latitude":"42.75736000","longitude":"143.03061000"},{"name":"Otaru","latitude":"43.18944000","longitude":"141.00222000"},{"name":"Otaru-shi","latitude":"43.15628000","longitude":"141.02572000"},{"name":"Otofuke","latitude":"42.99167000","longitude":"143.20028000"},{"name":"Rebun Gun","latitude":"45.38263000","longitude":"141.02839000"},{"name":"Rishiri Gun","latitude":"45.18244000","longitude":"141.22859000"},{"name":"Rishiri Town","latitude":"45.15928000","longitude":"141.19629000"},{"name":"Rumoi","latitude":"43.93444000","longitude":"141.64278000"},{"name":"Rumoi-shi","latitude":"43.88560000","longitude":"141.75567000"},{"name":"Sapporo","latitude":"43.06667000","longitude":"141.35000000"},{"name":"Sapporo-shi","latitude":"43.06667000","longitude":"141.35000000"},{"name":"Shibetsu","latitude":"43.65899000","longitude":"145.13197000"},{"name":"Shibetsu Shi","latitude":"44.11522000","longitude":"142.54054000"},{"name":"Shimo-furano","latitude":"43.35000000","longitude":"142.38333000"},{"name":"Shiraoi","latitude":"42.55000000","longitude":"141.35000000"},{"name":"Shizunai-furukawachō","latitude":"42.33389000","longitude":"142.36694000"},{"name":"Sunagawa","latitude":"43.48639000","longitude":"141.90556000"},{"name":"Sunagawa-shi","latitude":"43.50328000","longitude":"141.93274000"},{"name":"Takikawa","latitude":"43.55278000","longitude":"141.90639000"},{"name":"Takikawa-shi","latitude":"43.60837000","longitude":"141.94988000"},{"name":"Tōbetsu","latitude":"43.21694000","longitude":"141.51694000"},{"name":"Tomakomai","latitude":"42.63694000","longitude":"141.60333000"},{"name":"Tomakomai Shi","latitude":"42.68226000","longitude":"141.57948000"},{"name":"Utashinai","latitude":"43.51667000","longitude":"142.05000000"},{"name":"Utashinai-shi","latitude":"43.49366000","longitude":"142.03878000"},{"name":"Wakkanai","latitude":"45.40944000","longitude":"141.67389000"},{"name":"Wakkanai Shi","latitude":"45.33243000","longitude":"141.82831000"},{"name":"Yoichi","latitude":"43.20389000","longitude":"140.77028000"},{"name":"Yūbari","latitude":"43.03778000","longitude":"141.95778000"},{"name":"Yūbari-shi","latitude":"43.04336000","longitude":"142.11065000"}]},{"name":"Hyōgo Prefecture","state_code":"28","latitude":"34.85795180","longitude":"134.54537870","cities":[{"name":"Aioi","latitude":"34.80361000","longitude":"134.46806000"},{"name":"Aioi Shi","latitude":"34.82719000","longitude":"134.46699000"},{"name":"Akashi","latitude":"34.65524000","longitude":"135.00687000"},{"name":"Akashi Shi","latitude":"34.68277000","longitude":"134.94029000"},{"name":"Amagasaki Shi","latitude":"34.73544000","longitude":"135.41181000"},{"name":"Asago-shi","latitude":"35.26249000","longitude":"134.82527000"},{"name":"Ashiya","latitude":"34.72807000","longitude":"135.30264000"},{"name":"Ashiya Shi","latitude":"34.74853000","longitude":"135.29759000"},{"name":"Awaji Shi","latitude":"34.49749000","longitude":"134.91331000"},{"name":"Fukura","latitude":"34.25765000","longitude":"134.71535000"},{"name":"Himeji","latitude":"34.81667000","longitude":"134.70000000"},{"name":"Himeji Shi","latitude":"34.90134000","longitude":"134.66316000"},{"name":"Itami","latitude":"34.78427000","longitude":"135.40126000"},{"name":"Itami Shi","latitude":"34.78675000","longitude":"135.40562000"},{"name":"Kakogawa Shi","latitude":"34.78472000","longitude":"134.84897000"},{"name":"Kakogawachō-honmachi","latitude":"34.76943000","longitude":"134.82905000"},{"name":"Kariya","latitude":"34.75136000","longitude":"134.38734000"},{"name":"Kasai Shi","latitude":"34.92476000","longitude":"134.85359000"},{"name":"Katō Shi","latitude":"34.92714000","longitude":"135.02134000"},{"name":"Kawanishi","latitude":"34.81667000","longitude":"135.41667000"},{"name":"Kawanishi Shi","latitude":"34.87955000","longitude":"135.40919000"},{"name":"Kobe","latitude":"34.69130000","longitude":"135.18300000"},{"name":"Miki","latitude":"34.80000000","longitude":"134.98333000"},{"name":"Miki Shi","latitude":"34.83553000","longitude":"135.05822000"},{"name":"Minamiawaji Shi","latitude":"34.27530000","longitude":"134.76465000"},{"name":"Nishinomiya Shi","latitude":"34.78194000","longitude":"135.30247000"},{"name":"Nishinomiya-hama","latitude":"34.71562000","longitude":"135.33199000"},{"name":"Nishiwaki","latitude":"34.98419000","longitude":"134.97407000"},{"name":"Nishiwaki-shi","latitude":"35.01098000","longitude":"134.99650000"},{"name":"Ono","latitude":"34.85000000","longitude":"134.93333000"},{"name":"Ono Shi","latitude":"34.85750000","longitude":"134.95129000"},{"name":"Sanda Shi","latitude":"34.95506000","longitude":"135.21660000"},{"name":"Sandachō","latitude":"34.88444000","longitude":"135.22694000"},{"name":"Sasayama","latitude":"35.06667000","longitude":"135.21667000"},{"name":"Sasayama-shi","latitude":"35.07523000","longitude":"135.23087000"},{"name":"Shirahamachō-usazakiminami","latitude":"34.78333000","longitude":"134.71667000"},{"name":"Shisō-shi","latitude":"35.15466000","longitude":"134.54337000"},{"name":"Sumoto","latitude":"34.34322000","longitude":"134.88911000"},{"name":"Sumoto Shi","latitude":"34.34533000","longitude":"134.85858000"},{"name":"Taka-gun","latitude":"35.08473000","longitude":"134.90474000"},{"name":"Takarazuka","latitude":"34.79936000","longitude":"135.35697000"},{"name":"Takarazuka Shi","latitude":"34.86008000","longitude":"135.33197000"},{"name":"Takasago Shi","latitude":"34.77796000","longitude":"134.78665000"},{"name":"Tanba-shi","latitude":"35.17715000","longitude":"135.04972000"},{"name":"Tatsuno-shi","latitude":"34.88804000","longitude":"134.51910000"},{"name":"Tatsunochō-tominaga","latitude":"34.86437000","longitude":"134.55200000"},{"name":"Toyooka","latitude":"35.54008000","longitude":"134.82038000"},{"name":"Toyooka-shi","latitude":"35.51384000","longitude":"134.82724000"},{"name":"Yabu","latitude":"35.40304000","longitude":"134.77118000"},{"name":"Yabu-shi","latitude":"35.38333000","longitude":"134.81667000"},{"name":"Yamazakichō-nakabirose","latitude":"35.00000000","longitude":"134.55000000"},{"name":"Yashiro","latitude":"34.91667000","longitude":"134.96667000"},{"name":"Yonedacho Sendo","latitude":"34.77560000","longitude":"134.82551000"}]},{"name":"Ibaraki Prefecture","state_code":"08","latitude":"36.21935710","longitude":"140.18325160","cities":[{"name":"Ami","latitude":"36.03333000","longitude":"140.20000000"},{"name":"Bandō","latitude":"36.06997000","longitude":"139.86705000"},{"name":"Bandō-shi","latitude":"36.06384000","longitude":"139.88787000"},{"name":"Chikusei","latitude":"36.31600000","longitude":"139.98238000"},{"name":"Chikusei-shi","latitude":"36.28938000","longitude":"139.98692000"},{"name":"Daigo","latitude":"36.76667000","longitude":"140.35000000"},{"name":"Edosaki","latitude":"35.95000000","longitude":"140.31667000"},{"name":"Fujishiro","latitude":"35.91667000","longitude":"140.11667000"},{"name":"Funaishikawa","latitude":"36.46667000","longitude":"140.56667000"},{"name":"Hitachi","latitude":"36.60000000","longitude":"140.65000000"},{"name":"Hitachi-Naka","latitude":"36.39659000","longitude":"140.53479000"},{"name":"Hitachi-ota","latitude":"36.55130000","longitude":"140.52821000"},{"name":"Hitachi-shi","latitude":"36.62492000","longitude":"140.61876000"},{"name":"Hitachinaka-shi","latitude":"36.39596000","longitude":"140.55789000"},{"name":"Hitachiōmiya-shi","latitude":"36.61371000","longitude":"140.33990000"},{"name":"Hitachiōta-shi","latitude":"36.64836000","longitude":"140.50536000"},{"name":"Hokota-shi","latitude":"36.17337000","longitude":"140.51993000"},{"name":"Inashiki","latitude":"35.95633000","longitude":"140.32356000"},{"name":"Inashiki-shi","latitude":"35.94563000","longitude":"140.36889000"},{"name":"Ishige","latitude":"36.11667000","longitude":"139.96667000"},{"name":"Ishioka","latitude":"36.18333000","longitude":"140.26667000"},{"name":"Ishioka-shi","latitude":"36.22776000","longitude":"140.21786000"},{"name":"Itako","latitude":"35.93333000","longitude":"140.55000000"},{"name":"Itako-shi","latitude":"35.96100000","longitude":"140.56210000"},{"name":"Iwai","latitude":"36.05000000","longitude":"139.90000000"},{"name":"Iwase","latitude":"36.35000000","longitude":"140.10000000"},{"name":"Jōsō-shi","latitude":"36.06409000","longitude":"139.96397000"},{"name":"Kamisu-shi","latitude":"35.85126000","longitude":"140.71171000"},{"name":"Kasama","latitude":"36.38333000","longitude":"140.26667000"},{"name":"Kasama-shi","latitude":"36.35651000","longitude":"140.26935000"},{"name":"Kashima-shi","latitude":"35.96536000","longitude":"140.64474000"},{"name":"Kasumigaura","latitude":"36.15326000","longitude":"140.24635000"},{"name":"Kasumigaura-shi","latitude":"36.10937000","longitude":"140.30205000"},{"name":"Katsuta","latitude":"36.38333000","longitude":"140.53333000"},{"name":"Kitaibaraki","latitude":"36.78671000","longitude":"140.74901000"},{"name":"Kitaibaraki-shi","latitude":"36.83987000","longitude":"140.68736000"},{"name":"Koga","latitude":"36.18333000","longitude":"139.71667000"},{"name":"Koga-shi","latitude":"36.17975000","longitude":"139.77534000"},{"name":"Makabe","latitude":"36.26667000","longitude":"140.10000000"},{"name":"Mito","latitude":"36.35000000","longitude":"140.45000000"},{"name":"Mito-shi","latitude":"36.37053000","longitude":"140.43559000"},{"name":"Mitsukaidō","latitude":"36.01667000","longitude":"139.98333000"},{"name":"Moriya","latitude":"35.93333000","longitude":"140.00000000"},{"name":"Moriya-shi","latitude":"35.95140000","longitude":"139.97539000"},{"name":"Naka","latitude":"36.05000000","longitude":"140.16667000"},{"name":"Naka-gun","latitude":"36.46934000","longitude":"140.47943000"},{"name":"Namegata","latitude":"36.00705000","longitude":"140.49623000"},{"name":"Namegata-shi","latitude":"36.06526000","longitude":"140.47173000"},{"name":"Ōarai","latitude":"36.31409000","longitude":"140.58389000"},{"name":"Okunoya","latitude":"36.28333000","longitude":"140.41667000"},{"name":"Omitama-shi","latitude":"36.20403000","longitude":"140.35980000"},{"name":"Ōmiya","latitude":"36.55000000","longitude":"140.41667000"},{"name":"Ryūgasaki","latitude":"35.90000000","longitude":"140.18333000"},{"name":"Ryūgasaki-shi","latitude":"35.92249000","longitude":"140.18527000"},{"name":"Sakai","latitude":"36.10000000","longitude":"139.80000000"},{"name":"Sakuragawa","latitude":"36.25052000","longitude":"140.11565000"},{"name":"Sakuragawa-shi","latitude":"36.32746000","longitude":"140.10792000"},{"name":"Shimodate","latitude":"36.30000000","longitude":"139.98333000"},{"name":"Shimotsuma-shi","latitude":"36.18743000","longitude":"139.96642000"},{"name":"Takahagi","latitude":"36.71667000","longitude":"140.71667000"},{"name":"Tomobe","latitude":"36.35000000","longitude":"140.30000000"},{"name":"Toride","latitude":"35.90000000","longitude":"140.08333000"},{"name":"Toride-shi","latitude":"35.91286000","longitude":"140.08009000"},{"name":"Tsuchiura-shi","latitude":"36.08333000","longitude":"140.20000000"},{"name":"Tsukuba","latitude":"36.20000000","longitude":"140.10000000"},{"name":"Tsukuba-shi","latitude":"36.10532000","longitude":"140.08174000"},{"name":"Tsukubamirai","latitude":"35.98411000","longitude":"140.00929000"},{"name":"Tsukubamirai-shi","latitude":"35.98201000","longitude":"140.03812000"},{"name":"Ushiku","latitude":"35.96667000","longitude":"140.13333000"},{"name":"Ushiku-shi","latitude":"35.97175000","longitude":"140.18578000"},{"name":"Yūki","latitude":"36.30000000","longitude":"139.88333000"},{"name":"Yūki-shi","latitude":"36.26127000","longitude":"139.86403000"}]},{"name":"Ishikawa Prefecture","state_code":"17","latitude":"36.32603170","longitude":"136.52896530","cities":[{"name":"Hakui","latitude":"36.88333000","longitude":"136.78333000"},{"name":"Hakui Shi","latitude":"36.91136000","longitude":"136.81626000"},{"name":"Hakusan Shi","latitude":"36.27558000","longitude":"136.66966000"},{"name":"Kaga Shi","latitude":"36.25503000","longitude":"136.37963000"},{"name":"Kahoku Shi","latitude":"36.74365000","longitude":"136.73273000"},{"name":"Kanazawa","latitude":"36.60000000","longitude":"136.61667000"},{"name":"Kanazawa-shi","latitude":"36.51919000","longitude":"136.70836000"},{"name":"Komatsu","latitude":"36.40263000","longitude":"136.45088000"},{"name":"Matsutō","latitude":"36.51667000","longitude":"136.56667000"},{"name":"Nanao Shi","latitude":"37.07844000","longitude":"136.92860000"},{"name":"Nomi Shi","latitude":"36.43593000","longitude":"136.54456000"},{"name":"Nonoichi","latitude":"36.53333000","longitude":"136.61667000"},{"name":"Nonoichi-shi","latitude":"36.52288000","longitude":"136.60589000"},{"name":"Suzu","latitude":"37.43459000","longitude":"137.26009000"},{"name":"Suzu Shi","latitude":"37.45533000","longitude":"137.22587000"},{"name":"Tsubata","latitude":"36.67012000","longitude":"136.74030000"},{"name":"Tsurugi-asahimachi","latitude":"36.45000000","longitude":"136.63333000"},{"name":"Wajima Shi","latitude":"37.33753000","longitude":"136.88757000"}]},{"name":"Iwate Prefecture","state_code":"03","latitude":"39.58329890","longitude":"141.25345740","cities":[{"name":"Hachimantai","latitude":"39.89979000","longitude":"141.12989000"},{"name":"Hachimantai Shi","latitude":"40.02390000","longitude":"140.99113000"},{"name":"Hanamaki","latitude":"39.38333000","longitude":"141.11667000"},{"name":"Hanamaki Shi","latitude":"39.44187000","longitude":"141.16751000"},{"name":"Ichinohe","latitude":"40.21965000","longitude":"141.28986000"},{"name":"Ichinoseki","latitude":"38.91667000","longitude":"141.13333000"},{"name":"Ichinoseki-shi","latitude":"38.91667000","longitude":"141.13333000"},{"name":"Iwate-gun","latitude":"39.97238000","longitude":"141.22719000"},{"name":"Kamaishi","latitude":"39.27694000","longitude":"141.86801000"},{"name":"Kamaishi-shi","latitude":"39.28748000","longitude":"141.79854000"},{"name":"Kitakami","latitude":"39.28333000","longitude":"141.11667000"},{"name":"Kitakami-shi","latitude":"39.30765000","longitude":"141.00795000"},{"name":"Kuji","latitude":"40.18778000","longitude":"141.76889000"},{"name":"Kuji-shi","latitude":"40.14364000","longitude":"141.65918000"},{"name":"Miyako","latitude":"39.64691000","longitude":"141.94057000"},{"name":"Miyako-shi","latitude":"39.65724000","longitude":"141.85144000"},{"name":"Mizusawa","latitude":"39.13333000","longitude":"141.13333000"},{"name":"Morioka","latitude":"39.70000000","longitude":"141.15000000"},{"name":"Morioka-shi","latitude":"39.74546000","longitude":"141.26915000"},{"name":"Ninohe","latitude":"40.29081000","longitude":"141.31334000"},{"name":"Ninohe Shi","latitude":"40.23798000","longitude":"141.19576000"},{"name":"Ōfunato","latitude":"39.07167000","longitude":"141.71667000"},{"name":"Ōfunato-shi","latitude":"39.06667000","longitude":"141.71667000"},{"name":"Ōshū","latitude":"39.13927000","longitude":"141.16850000"},{"name":"Ōshū-shi","latitude":"39.12962000","longitude":"141.09479000"},{"name":"Ōtsuchi","latitude":"39.36667000","longitude":"141.90000000"},{"name":"Rikuzentakata-shi","latitude":"39.04082000","longitude":"141.57703000"},{"name":"Shizukuishi","latitude":"39.69414000","longitude":"140.98442000"},{"name":"Takizawa-shi","latitude":"39.80000000","longitude":"141.06667000"},{"name":"Tōno","latitude":"39.31667000","longitude":"141.53333000"},{"name":"Tōno-shi","latitude":"39.36479000","longitude":"141.50922000"},{"name":"Yamada","latitude":"39.46667000","longitude":"141.95000000"}]},{"name":"Kagawa Prefecture","state_code":"37","latitude":"34.22259150","longitude":"134.01991520","cities":[{"name":"Higashikagawa Shi","latitude":"34.21158000","longitude":"134.33350000"},{"name":"Kan’onji Shi","latitude":"34.08457000","longitude":"133.67448000"},{"name":"Kan’onjichō","latitude":"34.12760000","longitude":"133.64598000"},{"name":"Marugame","latitude":"34.28333000","longitude":"133.78333000"},{"name":"Marugame Shi","latitude":"34.28560000","longitude":"133.81535000"},{"name":"Mitoyo Shi","latitude":"34.16176000","longitude":"133.72282000"},{"name":"Sakaide Shi","latitude":"34.32403000","longitude":"133.89222000"},{"name":"Sakaidechō","latitude":"34.32278000","longitude":"133.83560000"},{"name":"Sanuki-shi","latitude":"34.26615000","longitude":"134.20941000"},{"name":"Shido","latitude":"34.32333000","longitude":"134.17333000"},{"name":"Tadotsu","latitude":"34.27500000","longitude":"133.75000000"},{"name":"Takamatsu","latitude":"34.33333000","longitude":"134.05000000"},{"name":"Takamatsu Shi","latitude":"34.26852000","longitude":"134.05450000"},{"name":"Tonoshō","latitude":"34.48047000","longitude":"134.17017000"},{"name":"Zentsūji Shi","latitude":"34.22581000","longitude":"133.77692000"}]},{"name":"Kagoshima Prefecture","state_code":"46","latitude":"31.39119580","longitude":"130.87785860","cities":[{"name":"Aira Shi","latitude":"31.78460000","longitude":"130.60668000"},{"name":"Akune","latitude":"32.01667000","longitude":"130.20000000"},{"name":"Akune Shi","latitude":"32.02516000","longitude":"130.19768000"},{"name":"Amami","latitude":"28.37690000","longitude":"129.49379000"},{"name":"Amami Shi","latitude":"28.34542000","longitude":"129.50221000"},{"name":"Hamanoichi","latitude":"31.71667000","longitude":"130.73333000"},{"name":"Hioki","latitude":"31.58333000","longitude":"130.35000000"},{"name":"Hioki Shi","latitude":"31.59929000","longitude":"130.38208000"},{"name":"Ibusuki","latitude":"31.23333000","longitude":"130.65000000"},{"name":"Ibusuki Shi","latitude":"31.22962000","longitude":"130.58060000"},{"name":"Ichikikushikino Shi","latitude":"31.73281000","longitude":"130.28893000"},{"name":"Ijūin","latitude":"31.61667000","longitude":"130.40000000"},{"name":"Isa Shi","latitude":"32.05835000","longitude":"130.60104000"},{"name":"Izumi","latitude":"32.08333000","longitude":"130.36667000"},{"name":"Izumi Shi","latitude":"32.06412000","longitude":"130.36097000"},{"name":"Kagoshima","latitude":"31.56667000","longitude":"130.55000000"},{"name":"Kagoshima Shi","latitude":"31.58003000","longitude":"130.52806000"},{"name":"Kajiki","latitude":"31.73333000","longitude":"130.66667000"},{"name":"Kanoya","latitude":"31.38333000","longitude":"130.85000000"},{"name":"Kanoya Shi","latitude":"31.42664000","longitude":"130.86735000"},{"name":"Kaseda-shirakame","latitude":"31.41667000","longitude":"130.31667000"},{"name":"Kirishima Shi","latitude":"31.80558000","longitude":"130.78164000"},{"name":"Kokubu-matsuki","latitude":"31.73333000","longitude":"130.76667000"},{"name":"Koseda","latitude":"30.38796000","longitude":"130.64924000"},{"name":"Koshima","latitude":"30.23461000","longitude":"130.53517000"},{"name":"Kurio","latitude":"30.27123000","longitude":"130.42360000"},{"name":"Kushikino","latitude":"31.71667000","longitude":"130.26667000"},{"name":"Makurazaki","latitude":"31.26667000","longitude":"130.31667000"},{"name":"Makurazaki Shi","latitude":"31.29139000","longitude":"130.30681000"},{"name":"Minamikyushu Shi","latitude":"31.34038000","longitude":"130.43677000"},{"name":"Minamisatsuma Shi","latitude":"31.38793000","longitude":"130.26961000"},{"name":"Miyanoura","latitude":"30.42690000","longitude":"130.57151000"},{"name":"Nagata","latitude":"30.39516000","longitude":"130.42548000"},{"name":"Naze","latitude":"28.36667000","longitude":"129.48333000"},{"name":"Nishinoomote","latitude":"30.73333000","longitude":"131.00000000"},{"name":"Nishinoomote Shi","latitude":"30.70536000","longitude":"131.01521000"},{"name":"Ōkuchi-shinohara","latitude":"32.06779000","longitude":"130.62439000"},{"name":"Satsumasendai","latitude":"31.81667000","longitude":"130.30000000"},{"name":"Satsumasendai Shi","latitude":"31.82376000","longitude":"130.25899000"},{"name":"Shibushi","latitude":"31.47600000","longitude":"131.10114000"},{"name":"Shibushi-shi","latitude":"31.48333000","longitude":"131.10000000"},{"name":"Soo Shi","latitude":"31.65615000","longitude":"130.97470000"},{"name":"Sueyoshichō-ninokata","latitude":"31.65000000","longitude":"131.01667000"},{"name":"Tarumizu","latitude":"31.48333000","longitude":"130.70000000"},{"name":"Tarumizu Shi","latitude":"31.51583000","longitude":"130.76046000"},{"name":"Yudomari","latitude":"30.23470000","longitude":"130.47942000"}]},{"name":"Kanagawa Prefecture","state_code":"14","latitude":"35.49135350","longitude":"139.28414300","cities":[{"name":"Atsugi","latitude":"35.44272000","longitude":"139.36931000"},{"name":"Atsugi Shi","latitude":"35.46513000","longitude":"139.32707000"},{"name":"Ayase Shi","latitude":"35.43995000","longitude":"139.43089000"},{"name":"Chigasaki","latitude":"35.33638000","longitude":"139.40434000"},{"name":"Chigasaki Shi","latitude":"35.34429000","longitude":"139.40958000"},{"name":"Ebina Shi","latitude":"35.43762000","longitude":"139.39307000"},{"name":"Fujisawa","latitude":"35.34926000","longitude":"139.47666000"},{"name":"Fujisawa Shi","latitude":"35.36814000","longitude":"139.45899000"},{"name":"Hadano","latitude":"35.37111000","longitude":"139.22361000"},{"name":"Hadano-shi","latitude":"35.40000000","longitude":"139.20000000"},{"name":"Hakone","latitude":"35.18945000","longitude":"139.02649000"},{"name":"Hayama","latitude":"35.27651000","longitude":"139.57733000"},{"name":"Hiratsuka","latitude":"35.32785000","longitude":"139.33735000"},{"name":"Hiratsuka Shi","latitude":"35.35099000","longitude":"139.32013000"},{"name":"Isehara","latitude":"35.39932000","longitude":"139.31019000"},{"name":"Isehara Shi","latitude":"35.41011000","longitude":"139.29203000"},{"name":"Kamakura","latitude":"35.30889000","longitude":"139.55028000"},{"name":"Kamakura Shi","latitude":"35.33000000","longitude":"139.53798000"},{"name":"Kawasaki","latitude":"35.52056000","longitude":"139.71722000"},{"name":"Kawasaki-shi","latitude":"35.56996000","longitude":"139.62854000"},{"name":"Minamiashigara","latitude":"35.31947000","longitude":"139.10960000"},{"name":"Minamiashigara Shi","latitude":"35.30991000","longitude":"139.07016000"},{"name":"Minamirinkan","latitude":"35.49527000","longitude":"139.44279000"},{"name":"Miura","latitude":"35.14000000","longitude":"139.61917000"},{"name":"Miura Shi","latitude":"35.16754000","longitude":"139.64104000"},{"name":"Ninomiya","latitude":"35.30150000","longitude":"139.25581000"},{"name":"Odawara","latitude":"35.25556000","longitude":"139.15972000"},{"name":"Odawara-shi","latitude":"35.25000000","longitude":"139.13333000"},{"name":"Ōiso","latitude":"35.31558000","longitude":"139.31625000"},{"name":"Sagamihara-shi","latitude":"35.55000000","longitude":"139.35000000"},{"name":"Yamakita","latitude":"35.36344000","longitude":"139.07975000"},{"name":"Yamato-shi","latitude":"35.46934000","longitude":"139.46165000"},{"name":"Yokohama","latitude":"35.43333000","longitude":"139.65000000"},{"name":"Yokohama Shi","latitude":"35.46225000","longitude":"139.57645000"},{"name":"Yokosuka","latitude":"35.28361000","longitude":"139.66722000"},{"name":"Yokosuka Shi","latitude":"35.24985000","longitude":"139.66033000"},{"name":"Yugawara","latitude":"35.15000000","longitude":"139.06667000"},{"name":"Zama","latitude":"35.48790000","longitude":"139.39101000"},{"name":"Zama Shi","latitude":"35.48752000","longitude":"139.40925000"},{"name":"Zushi Shi","latitude":"35.29900000","longitude":"139.59125000"}]},{"name":"Kōchi Prefecture","state_code":"39","latitude":"33.28791610","longitude":"132.27592620","cities":[{"name":"Achi","latitude":"35.44388889","longitude":"137.74750000"},{"name":"Agematsu","latitude":"35.78388889","longitude":"137.69416667"},{"name":"Aki","latitude":"33.50250000","longitude":"133.90722222"},{"name":"Anan","latitude":"35.32361111","longitude":"137.81611111"},{"name":"Aoki","latitude":"36.37000000","longitude":"138.12861111"},{"name":"Asahi","latitude":"36.12361111","longitude":"137.86638889"},{"name":"Azumino","latitude":"36.30388889","longitude":"137.90555556"},{"name":"Chikuhoku","latitude":"36.42120000","longitude":"138.04011000"},{"name":"Chikuma","latitude":"36.50624000","longitude":"138.12352000"},{"name":"Chino","latitude":"35.99555556","longitude":"138.15888889"},{"name":"Fujimi","latitude":"35.91472222","longitude":"138.24083333"},{"name":"Geisei","latitude":"33.52694444","longitude":"133.80916667"},{"name":"Hakuba","latitude":"36.70000000","longitude":"137.86666667"},{"name":"Hara","latitude":"35.96444444","longitude":"138.21750000"},{"name":"Hidaka","latitude":"33.53472222","longitude":"133.37333333"},{"name":"Hiraya","latitude":"35.32333333","longitude":"137.63027778"},{"name":"Iida","latitude":"35.51472222","longitude":"137.82194444"},{"name":"Iijima","latitude":"35.67638889","longitude":"137.91944444"},{"name":"Iiyama","latitude":"36.85166667","longitude":"138.36555556"},{"name":"Iizuna","latitude":"36.75500000","longitude":"138.23555556"},{"name":"Ikeda","latitude":"36.42138889","longitude":"137.87472222"},{"name":"Ikusaka","latitude":"36.42527778","longitude":"137.92750000"},{"name":"Ina","latitude":"35.82750000","longitude":"137.95388889"},{"name":"Ino","latitude":"33.55000000","longitude":"133.43333333"},{"name":"Karuizawa","latitude":"36.34833333","longitude":"138.59694444"},{"name":"Kawakami","latitude":"35.97555556","longitude":"138.57833333"},{"name":"Kijimadaira","latitude":"36.85861111","longitude":"138.40666667"},{"name":"Kiso","latitude":"35.93638889","longitude":"137.78305556"},{"name":"Kitaaiki","latitude":"36.05916667","longitude":"138.55111111"},{"name":"Kitagawa","latitude":"33.44777778","longitude":"134.04222222"},{"name":"Kōchi","latitude":"33.55888889","longitude":"133.53138889"},{"name":"Komoro","latitude":"36.32750000","longitude":"138.42583333"},{"name":"Kōnan","latitude":"33.56416667","longitude":"133.70055556"},{"name":"Kuroshio","latitude":"33.02500000","longitude":"133.01083333"},{"name":"Matsukawa","latitude":"35.59722222","longitude":"137.90972222"},{"name":"Matsumoto","latitude":"36.23805556","longitude":"137.97194444"},{"name":"Mihara","latitude":"32.90611111","longitude":"132.84722222"},{"name":"Minamiaiki","latitude":"36.03611111","longitude":"138.54694444"},{"name":"Minamimaki","latitude":"36.02083333","longitude":"138.49222222"},{"name":"Minamiminowa","latitude":"35.87277778","longitude":"137.97527778"},{"name":"Minowa","latitude":"35.91500000","longitude":"137.98194444"},{"name":"Mitsushima","latitude":"35.27525100","longitude":"137.85213700"},{"name":"Miyada","latitude":"35.76888889","longitude":"137.94422222"},{"name":"Miyota","latitude":"36.32138889","longitude":"138.50888889"},{"name":"Motoyama","latitude":"35.16402778","longitude":"136.96361111"},{"name":"Muroto","latitude":"33.29000000","longitude":"134.15194444"},{"name":"Nagano","latitude":"36.64861111","longitude":"138.19277778"},{"name":"Nagawa","latitude":"36.25611111","longitude":"138.26777778"},{"name":"Nagiso","latitude":"35.60361111","longitude":"137.60888889"},{"name":"Nahari","latitude":"33.42416667","longitude":"134.02111111"},{"name":"Nakagawa","latitude":"35.63444444","longitude":"137.94611111"},{"name":"Nakajō","latitude":"36.61222222","longitude":"138.03652778"},{"name":"Nakamura","latitude":"32.99138889","longitude":"132.93375000"},{"name":"Nakano","latitude":"36.74194444","longitude":"138.36944444"},{"name":"Nakatosa","latitude":"33.32750000","longitude":"133.22833333"},{"name":"Nankoku","latitude":"33.57555556","longitude":"133.64138889"},{"name":"Neba","latitude":"35.25305556","longitude":"137.58111111"},{"name":"Niyodogawa","latitude":"33.57527778","longitude":"133.16833333"},{"name":"Nozawaonsen","latitude":"36.92277778","longitude":"138.44055556"},{"name":"Obuse","latitude":"36.69777778","longitude":"138.31222222"},{"name":"Ochi","latitude":"33.53277778","longitude":"133.25194444"},{"name":"Ogawa","latitude":"36.61694444","longitude":"137.97444444"},{"name":"Ōkawa","latitude":"33.78361111","longitude":"133.46666667"},{"name":"Okaya","latitude":"36.06694444","longitude":"138.04944444"},{"name":"Ōkuwa","latitude":"35.68277778","longitude":"137.66500000"},{"name":"Ōmachi","latitude":"36.50000000","longitude":"137.85000000"},{"name":"Omi","latitude":"36.45611111","longitude":"138.04527778"},{"name":"Ōshika","latitude":"35.57833333","longitude":"138.03416667"},{"name":"Ōtaki","latitude":"35.80944444","longitude":"137.55111111"},{"name":"Otari","latitude":"36.77916667","longitude":"137.90833333"},{"name":"Ōtoyo","latitude":"33.76416667","longitude":"133.66416667"},{"name":"Ōtsuki","latitude":"32.84138889","longitude":"132.70694444"},{"name":"Sakae","latitude":"36.98750000","longitude":"138.57750000"},{"name":"Sakaki","latitude":"36.46194444","longitude":"138.18027778"},{"name":"Sakawa","latitude":"33.50083333","longitude":"133.28666667"},{"name":"Saku","latitude":"36.24888889","longitude":"138.47694444"},{"name":"Sakuho","latitude":"36.16111111","longitude":"138.48333333"},{"name":"Sanada","latitude":"36.44088889","longitude":"138.30361111"},{"name":"Shimanto","latitude":"33.20833333","longitude":"133.13555556"},{"name":"Shimojō","latitude":"35.39750000","longitude":"137.78611111"},{"name":"Shimosuwa","latitude":"36.06972222","longitude":"138.08027778"},{"name":"Shinano","latitude":"36.80638889","longitude":"138.20694444"},{"name":"Shiojiri","latitude":"36.11666667","longitude":"137.95000000"},{"name":"Sukumo","latitude":"32.93888889","longitude":"132.72611111"},{"name":"Susaki","latitude":"33.40083333","longitude":"133.28305556"},{"name":"Suwa","latitude":"36.03916667","longitude":"138.11416667"},{"name":"Suzaka","latitude":"36.65000000","longitude":"138.31667000"},{"name":"Takagi","latitude":"35.51388889","longitude":"137.87388889"},{"name":"Takamori","latitude":"35.55138889","longitude":"137.87861111"},{"name":"Takayama","latitude":"36.67972222","longitude":"138.36305556"},{"name":"Tano","latitude":"33.42777778","longitude":"134.00833333"},{"name":"Tateshina","latitude":"36.27194444","longitude":"138.31611111"},{"name":"Tatsuno","latitude":"35.98250000","longitude":"137.98750000"},{"name":"Togari","latitude":"36.91666667","longitude":"138.38333333"},{"name":"Tōmi","latitude":"36.35944444","longitude":"138.33055556"},{"name":"Tosa","latitude":"33.49611111","longitude":"133.42527778"},{"name":"Tosashimizu","latitude":"32.78138889","longitude":"132.95500000"},{"name":"Tōyō","latitude":"33.52805556","longitude":"134.28000000"},{"name":"Toyooka","latitude":"35.55138889","longitude":"137.89583333"},{"name":"Tsuno","latitude":"33.44666667","longitude":"133.19944444"},{"name":"Ueda","latitude":"36.40194444","longitude":"138.24916667"},{"name":"Umaji","latitude":"33.55527778","longitude":"134.04805556"},{"name":"Urugi","latitude":"35.27111111","longitude":"137.71111111"},{"name":"Usa","latitude":"33.44936111","longitude":"133.43711111"},{"name":"Yamagata","latitude":"36.16805556","longitude":"137.87888889"},{"name":"Yamanouchi","latitude":"36.74472222","longitude":"138.41250000"},{"name":"Yasuda","latitude":"33.43833333","longitude":"133.98111111"},{"name":"Yasuoka","latitude":"35.37722222","longitude":"137.84583333"},{"name":"Yawata","latitude":"36.51666667","longitude":"138.10000000"},{"name":"Yusuhara","latitude":"33.39194444","longitude":"132.92694444"}]},{"name":"Kumamoto Prefecture","state_code":"43","latitude":"32.85944270","longitude":"130.79691490","cities":[{"name":"Amakusa Gun","latitude":"32.48513000","longitude":"130.07240000"},{"name":"Amakusa Shi","latitude":"32.38515000","longitude":"130.15014000"},{"name":"Arao Shi","latitude":"32.97619000","longitude":"130.47562000"},{"name":"Aso-shi","latitude":"32.95608000","longitude":"131.09458000"},{"name":"Hitoyoshi","latitude":"32.21667000","longitude":"130.75000000"},{"name":"Hitoyoshi Shi","latitude":"32.17298000","longitude":"130.74013000"},{"name":"Hondomachi-hondo","latitude":"32.45993000","longitude":"130.16713000"},{"name":"Honmachi","latitude":"32.50439000","longitude":"130.59952000"},{"name":"Kamiamakusa Shi","latitude":"32.49550000","longitude":"130.40816000"},{"name":"Kikuchi","latitude":"32.98333000","longitude":"130.81667000"},{"name":"Kikuchi Shi","latitude":"32.99107000","longitude":"130.85523000"},{"name":"Kōshi Shi","latitude":"32.89305000","longitude":"130.76867000"},{"name":"Kumamoto","latitude":"32.80589000","longitude":"130.69181000"},{"name":"Kumamoto Shi","latitude":"32.79733000","longitude":"130.69171000"},{"name":"Matsubase","latitude":"32.65000000","longitude":"130.66667000"},{"name":"Minamata","latitude":"32.21667000","longitude":"130.40000000"},{"name":"Minamata Shi","latitude":"32.17055000","longitude":"130.46211000"},{"name":"Ōzu","latitude":"32.88040000","longitude":"130.87161000"},{"name":"Tamana","latitude":"32.94716000","longitude":"130.57446000"},{"name":"Tamana Shi","latitude":"32.91550000","longitude":"130.56018000"},{"name":"Uekimachi-mōno","latitude":"32.89964000","longitude":"130.68898000"},{"name":"Uki Shi","latitude":"32.62669000","longitude":"130.65491000"},{"name":"Ushibukamachi","latitude":"32.20142000","longitude":"130.02171000"},{"name":"Uto","latitude":"32.68333000","longitude":"130.66667000"},{"name":"Uto Shi","latitude":"32.68092000","longitude":"130.61308000"},{"name":"Yamaga Shi","latitude":"33.05587000","longitude":"130.72309000"},{"name":"Yatsushiro Shi","latitude":"32.49063000","longitude":"130.74972000"}]},{"name":"Kyōto Prefecture","state_code":"26","latitude":"35.15666090","longitude":"135.52519820","cities":[{"name":"Arashiyama","latitude":"35.01481000","longitude":"135.67755000"},{"name":"Ayabe","latitude":"35.30000000","longitude":"135.25000000"},{"name":"Ayabe-shi","latitude":"35.35263000","longitude":"135.34465000"},{"name":"Fukuchiyama-shi","latitude":"35.32404000","longitude":"135.11332000"},{"name":"Jōyō Shi","latitude":"34.84566000","longitude":"135.79760000"},{"name":"Kameoka","latitude":"35.00000000","longitude":"135.58333000"},{"name":"Kameoka-shi","latitude":"35.01021000","longitude":"135.53900000"},{"name":"Kamigyō-ku","latitude":"35.02954000","longitude":"135.75666000"},{"name":"Kizugawa-shi","latitude":"34.73781000","longitude":"135.82128000"},{"name":"Kyōtanabe Shi","latitude":"34.80779000","longitude":"135.76300000"},{"name":"Kyōtango-shi","latitude":"35.63089000","longitude":"135.04785000"},{"name":"Kyoto","latitude":"35.02107000","longitude":"135.75385000"},{"name":"Maizuru","latitude":"35.45000000","longitude":"135.33333000"},{"name":"Maizuru-shi","latitude":"35.47009000","longitude":"135.34003000"},{"name":"Miyazu","latitude":"35.53333000","longitude":"135.18333000"},{"name":"Miyazu-shi","latitude":"35.55596000","longitude":"135.17662000"},{"name":"Mukō Shi","latitude":"34.94975000","longitude":"135.70269000"},{"name":"Nagaokakyō Shi","latitude":"34.92840000","longitude":"135.67881000"},{"name":"Nantan-shi","latitude":"35.22740000","longitude":"135.55939000"},{"name":"Tanabe","latitude":"34.82242000","longitude":"135.76604000"},{"name":"Uji","latitude":"34.89044000","longitude":"135.80325000"},{"name":"Uji Shi","latitude":"34.90296000","longitude":"135.82039000"},{"name":"Yawata","latitude":"34.87009000","longitude":"135.70270000"},{"name":"Yawata Shi","latitude":"34.86662000","longitude":"135.71470000"}]},{"name":"Mie Prefecture","state_code":"24","latitude":"33.81439010","longitude":"136.04870470","cities":[{"name":"Hisai-motomachi","latitude":"34.66667000","longitude":"136.46667000"},{"name":"Iga-shi","latitude":"34.76855000","longitude":"136.13013000"},{"name":"Inabe","latitude":"35.11344000","longitude":"136.57205000"},{"name":"Inabe-shi","latitude":"35.16061000","longitude":"136.50788000"},{"name":"Ise","latitude":"34.48333000","longitude":"136.70000000"},{"name":"Ise-shi","latitude":"34.46740000","longitude":"136.71585000"},{"name":"Kameyama","latitude":"34.85000000","longitude":"136.45000000"},{"name":"Kameyama Shi","latitude":"34.86866000","longitude":"136.39345000"},{"name":"Kawage","latitude":"34.80447000","longitude":"136.54645000"},{"name":"Komono","latitude":"35.00000000","longitude":"136.51667000"},{"name":"Kumano","latitude":"33.90389000","longitude":"136.12214000"},{"name":"Kumano-shi","latitude":"33.92290000","longitude":"136.02646000"},{"name":"Kuwana","latitude":"35.05192000","longitude":"136.66958000"},{"name":"Kuwana-shi","latitude":"35.06176000","longitude":"136.68348000"},{"name":"Matsuzaka-shi","latitude":"34.56667000","longitude":"136.53333000"},{"name":"Nabari","latitude":"34.61667000","longitude":"136.08333000"},{"name":"Nabari-shi","latitude":"34.62643000","longitude":"136.10825000"},{"name":"Owase","latitude":"34.06667000","longitude":"136.20000000"},{"name":"Shima","latitude":"34.33333000","longitude":"136.83333000"},{"name":"Shima-shi","latitude":"34.33795000","longitude":"136.81336000"},{"name":"Suzuka","latitude":"34.88333000","longitude":"136.58333000"},{"name":"Suzuka-shi","latitude":"34.88114000","longitude":"136.58443000"},{"name":"Toba","latitude":"34.48330000","longitude":"136.84186000"},{"name":"Toba-shi","latitude":"34.48333000","longitude":"136.83333000"},{"name":"Tsu","latitude":"34.73333000","longitude":"136.51667000"},{"name":"Tsu-shi","latitude":"34.71706000","longitude":"136.50616000"},{"name":"Ueno-ebisumachi","latitude":"34.75856000","longitude":"136.13108000"},{"name":"Yokkaichi-shi","latitude":"34.96475000","longitude":"136.62443000"}]},{"name":"Miyagi Prefecture","state_code":"04","latitude":"38.63061200","longitude":"141.11930480","cities":[{"name":"Furukawa","latitude":"38.57167000","longitude":"140.95556000"},{"name":"Higashimatshushima Shi","latitude":"38.41089000","longitude":"141.17717000"},{"name":"Higashimatsushima","latitude":"38.40886000","longitude":"141.17901000"},{"name":"Ishinomaki","latitude":"38.41667000","longitude":"141.30000000"},{"name":"Ishinomaki Shi","latitude":"38.47918000","longitude":"141.37226000"},{"name":"Iwanuma","latitude":"38.10472000","longitude":"140.85944000"},{"name":"Iwanuma-shi","latitude":"38.11667000","longitude":"140.88333000"},{"name":"Kakuda","latitude":"37.97451000","longitude":"140.77202000"},{"name":"Kakuda Shi","latitude":"37.98828000","longitude":"140.77903000"},{"name":"Kesennuma","latitude":"38.90112000","longitude":"141.57746000"},{"name":"Kesennuma Shi","latitude":"38.91377000","longitude":"141.55711000"},{"name":"Kogota","latitude":"38.55000000","longitude":"141.05000000"},{"name":"Kurihara","latitude":"38.75000000","longitude":"141.00000000"},{"name":"Kurihara Shi","latitude":"38.80895000","longitude":"140.94034000"},{"name":"Marumori","latitude":"37.91667000","longitude":"140.76667000"},{"name":"Matsushima","latitude":"38.37357000","longitude":"141.06105000"},{"name":"Natori Shi","latitude":"38.16729000","longitude":"140.86666000"},{"name":"Ōkawara","latitude":"38.05000000","longitude":"140.73361000"},{"name":"Onagawa Chō","latitude":"38.44660000","longitude":"141.44794000"},{"name":"Ōsaki","latitude":"38.58866000","longitude":"140.97300000"},{"name":"Ōsaki Shi","latitude":"38.68005000","longitude":"140.84669000"},{"name":"Rifu","latitude":"38.33092000","longitude":"140.97691000"},{"name":"Sendai","latitude":"38.26667000","longitude":"140.86667000"},{"name":"Shiogama","latitude":"38.31667000","longitude":"141.03333000"},{"name":"Shiroishi","latitude":"38.00333000","longitude":"140.61833000"},{"name":"Shiroishi Shi","latitude":"37.99691000","longitude":"140.57944000"},{"name":"Tagajō Shi","latitude":"38.29535000","longitude":"140.99910000"},{"name":"Tome Shi","latitude":"38.68583000","longitude":"141.25745000"},{"name":"Tomiya","latitude":"38.39306000","longitude":"140.88611000"},{"name":"Wakuya","latitude":"38.54465000","longitude":"141.13461000"},{"name":"Watari","latitude":"38.03500000","longitude":"140.85111000"},{"name":"Watari-gun","latitude":"37.99640000","longitude":"140.87909000"},{"name":"Yamoto","latitude":"38.42738000","longitude":"141.21487000"}]},{"name":"Miyazaki Prefecture","state_code":"45","latitude":"32.60360220","longitude":"131.44125100","cities":[{"name":"Ebino-shi","latitude":"32.01667000","longitude":"130.80000000"},{"name":"Hyūga-shi","latitude":"32.37710000","longitude":"131.52275000"},{"name":"Kobayashi","latitude":"31.98333000","longitude":"130.98333000"},{"name":"Kobayashi Shi","latitude":"32.04556000","longitude":"131.02762000"},{"name":"Kushima","latitude":"31.48621000","longitude":"131.24210000"},{"name":"Kushima Shi","latitude":"31.48571000","longitude":"131.26485000"},{"name":"Miyakonojō","latitude":"31.73333000","longitude":"131.06667000"},{"name":"Miyakonojō Shi","latitude":"31.80920000","longitude":"131.07904000"},{"name":"Miyazaki","latitude":"31.91667000","longitude":"131.41667000"},{"name":"Miyazaki-shi","latitude":"31.96192000","longitude":"131.38455000"},{"name":"Nichinan","latitude":"31.60000000","longitude":"131.36667000"},{"name":"Nichinan Shi","latitude":"31.63737000","longitude":"131.33409000"},{"name":"Nobeoka","latitude":"32.58333000","longitude":"131.66667000"},{"name":"Nobeoka-shi","latitude":"32.67238000","longitude":"131.64311000"},{"name":"Saito-shi","latitude":"32.17288000","longitude":"131.31543000"},{"name":"Takanabe","latitude":"32.13333000","longitude":"131.50000000"},{"name":"Tsuma","latitude":"32.10000000","longitude":"131.40000000"}]},{"name":"Nagano Prefecture","state_code":"20","latitude":"36.15439410","longitude":"137.92182040","cities":[{"name":"Azumino-Shi","latitude":"36.32716000","longitude":"137.83988000"},{"name":"Chikuma Shi","latitude":"36.50624000","longitude":"138.12352000"},{"name":"Chino","latitude":"35.99440000","longitude":"138.15428000"},{"name":"Chino Shi","latitude":"36.02522000","longitude":"138.24668000"},{"name":"Hakuba","latitude":"36.69818000","longitude":"137.86185000"},{"name":"Hotaka","latitude":"36.33960000","longitude":"137.88254000"},{"name":"Iida","latitude":"35.51965000","longitude":"137.82074000"},{"name":"Iida-shi","latitude":"35.42287000","longitude":"137.89381000"},{"name":"Iiyama","latitude":"36.85000000","longitude":"138.36667000"},{"name":"Iiyama Shi","latitude":"36.91249000","longitude":"138.38345000"},{"name":"Ina","latitude":"35.82756000","longitude":"137.95378000"},{"name":"Ina-shi","latitude":"35.79079000","longitude":"138.07402000"},{"name":"Kamimaruko","latitude":"36.31865000","longitude":"138.27329000"},{"name":"Komagane","latitude":"35.71657000","longitude":"137.93745000"},{"name":"Komagane-shi","latitude":"35.72770000","longitude":"137.94783000"},{"name":"Komoro","latitude":"36.31667000","longitude":"138.43333000"},{"name":"Komoro Shi","latitude":"36.33905000","longitude":"138.43503000"},{"name":"Matsumoto","latitude":"36.23333000","longitude":"137.96667000"},{"name":"Matsumoto Shi","latitude":"36.20418000","longitude":"137.81419000"},{"name":"Nagano","latitude":"36.65000000","longitude":"138.18333000"},{"name":"Nagano Shi","latitude":"36.65257000","longitude":"138.11694000"},{"name":"Nakano Shi","latitude":"36.76940000","longitude":"138.34717000"},{"name":"Okaya","latitude":"36.05659000","longitude":"138.04510000"},{"name":"Okaya Shi","latitude":"36.07917000","longitude":"138.04805000"},{"name":"Ōmachi","latitude":"36.50000000","longitude":"137.86667000"},{"name":"Ōmachi-shi","latitude":"36.55000000","longitude":"137.75000000"},{"name":"Saku","latitude":"36.21667000","longitude":"138.48333000"},{"name":"Saku Shi","latitude":"36.21577000","longitude":"138.44529000"},{"name":"Shiojiri","latitude":"36.10000000","longitude":"137.96667000"},{"name":"Shiojiri-shi","latitude":"36.08333000","longitude":"137.93333000"},{"name":"Suwa","latitude":"36.03799000","longitude":"138.11308000"},{"name":"Suwa Shi","latitude":"36.02899000","longitude":"138.11357000"},{"name":"Suzaka","latitude":"36.65000000","longitude":"138.31667000"},{"name":"Suzaka-shi","latitude":"36.65000000","longitude":"138.31667000"},{"name":"Tatsuno","latitude":"35.98426000","longitude":"137.99721000"},{"name":"Tōmi","latitude":"36.35582000","longitude":"138.36093000"},{"name":"Tōmi Shi","latitude":"36.37387000","longitude":"138.36866000"},{"name":"Toyoshina","latitude":"36.29991000","longitude":"137.90108000"},{"name":"Ueda","latitude":"36.40265000","longitude":"138.28161000"},{"name":"Ueda Shi","latitude":"36.38352000","longitude":"138.24186000"}]},{"name":"Nagasaki Prefecture","state_code":"42","latitude":"33.24885250","longitude":"129.69309120","cities":[{"name":"Fukuechō","latitude":"32.69732000","longitude":"128.84561000"},{"name":"Gotō Shi","latitude":"32.69892000","longitude":"128.76871000"},{"name":"Hirado","latitude":"33.36853000","longitude":"129.55247000"},{"name":"Hirado Shi","latitude":"33.31596000","longitude":"129.48688000"},{"name":"Iki Shi","latitude":"33.78554000","longitude":"129.71670000"},{"name":"Isahaya","latitude":"32.84111000","longitude":"130.04306000"},{"name":"Isahaya-shi","latitude":"32.86912000","longitude":"130.06369000"},{"name":"Matsuura","latitude":"33.34058000","longitude":"129.69504000"},{"name":"Matsuura Shi","latitude":"33.35334000","longitude":"129.73504000"},{"name":"Minamishimabara-shi","latitude":"32.67565000","longitude":"130.25695000"},{"name":"Nagasaki","latitude":"32.75000000","longitude":"129.88333000"},{"name":"Nagasaki-shi","latitude":"32.78206000","longitude":"129.82715000"},{"name":"Obita","latitude":"32.81667000","longitude":"129.88333000"},{"name":"Ōmura","latitude":"32.92139000","longitude":"129.95389000"},{"name":"Ōmura-shi","latitude":"32.93978000","longitude":"129.99297000"},{"name":"Saikai-shi","latitude":"32.99259000","longitude":"129.68200000"},{"name":"Sasebo Shi","latitude":"33.18992000","longitude":"129.68960000"},{"name":"Shimabara","latitude":"32.78333000","longitude":"130.36667000"},{"name":"Shimabara-shi","latitude":"32.79429000","longitude":"130.32925000"},{"name":"Togitsu","latitude":"32.83333000","longitude":"129.85000000"},{"name":"Tsushima Shi","latitude":"34.40845000","longitude":"129.32599000"},{"name":"Unzen-shi","latitude":"32.78390000","longitude":"130.22828000"}]},{"name":"Nara Prefecture","state_code":"29","latitude":"34.29755280","longitude":"135.82797340","cities":[{"name":"Gojō","latitude":"34.35000000","longitude":"135.70000000"},{"name":"Gojō-shi","latitude":"34.35081000","longitude":"135.69489000"},{"name":"Gose","latitude":"34.45000000","longitude":"135.73333000"},{"name":"Haibara-akanedai","latitude":"34.53333000","longitude":"135.95000000"},{"name":"Hōryūji","latitude":"34.61234000","longitude":"135.73754000"},{"name":"Ikoma","latitude":"34.68333000","longitude":"135.70000000"},{"name":"Ikoma-shi","latitude":"34.69187000","longitude":"135.70057000"},{"name":"Kashiba-shi","latitude":"34.54107000","longitude":"135.69918000"},{"name":"Kashihara-shi","latitude":"34.50352000","longitude":"135.78986000"},{"name":"Katsuragi","latitude":"34.48562000","longitude":"135.69698000"},{"name":"Katsuragi Shi","latitude":"34.49682000","longitude":"135.70464000"},{"name":"Nara-shi","latitude":"34.68506000","longitude":"135.80485000"},{"name":"Sakurai","latitude":"34.50000000","longitude":"135.85000000"},{"name":"Sakurai-shi","latitude":"34.51816000","longitude":"135.84320000"},{"name":"Tawaramoto","latitude":"34.55420000","longitude":"135.79297000"},{"name":"Tenri","latitude":"34.58333000","longitude":"135.83333000"},{"name":"Tenri-shi","latitude":"34.59619000","longitude":"135.83736000"},{"name":"Uda Shi","latitude":"34.52035000","longitude":"135.99787000"},{"name":"Yamatokōriyama-shi","latitude":"34.64917000","longitude":"135.78278000"},{"name":"Yamatotakada-shi","latitude":"34.51490000","longitude":"135.73660000"},{"name":"Yoshino-chō","latitude":"34.39611000","longitude":"135.85768000"}]},{"name":"Niigata Prefecture","state_code":"15","latitude":"37.51783860","longitude":"138.92697940","cities":[{"name":"Agano Shi","latitude":"37.81420000","longitude":"139.25914000"},{"name":"Arai","latitude":"37.00059000","longitude":"138.22590000"},{"name":"Gosen","latitude":"37.73333000","longitude":"139.16667000"},{"name":"Gosen Shi","latitude":"37.65643000","longitude":"139.22634000"},{"name":"Itoigawa","latitude":"37.03333000","longitude":"137.85000000"},{"name":"Itoigawa Shi","latitude":"36.96626000","longitude":"137.89402000"},{"name":"Jōetsu","latitude":"37.14828000","longitude":"138.23642000"},{"name":"Jōetsu Shi","latitude":"37.12010000","longitude":"138.33752000"},{"name":"Kameda-honchō","latitude":"37.87214000","longitude":"139.10990000"},{"name":"Kamo","latitude":"37.66442000","longitude":"139.03502000"},{"name":"Kamo Shi","latitude":"37.62209000","longitude":"139.11068000"},{"name":"Kashiwazaki","latitude":"37.36667000","longitude":"138.55000000"},{"name":"Kashiwazaki Shi","latitude":"37.29913000","longitude":"138.58654000"},{"name":"Maki","latitude":"37.75000000","longitude":"138.88333000"},{"name":"Minamiuonuma Shi","latitude":"37.05587000","longitude":"138.93735000"},{"name":"Mitsuke","latitude":"37.53333000","longitude":"138.93333000"},{"name":"Mitsuke Shi","latitude":"37.52465000","longitude":"138.93711000"},{"name":"Muikamachi","latitude":"37.06667000","longitude":"138.88333000"},{"name":"Murakami Shi","latitude":"38.31023000","longitude":"139.61733000"},{"name":"Muramatsu","latitude":"37.69257000","longitude":"139.17127000"},{"name":"Myoko-shi","latitude":"37.00000000","longitude":"138.25000000"},{"name":"Nagaoka","latitude":"37.45000000","longitude":"138.85000000"},{"name":"Nagaoka Shi","latitude":"37.44516000","longitude":"138.85678000"},{"name":"Niigata","latitude":"37.88637000","longitude":"139.00589000"},{"name":"Niigata Shi","latitude":"37.82738000","longitude":"139.03303000"},{"name":"Niitsu-honchō","latitude":"37.80024000","longitude":"139.12240000"},{"name":"Ojiya","latitude":"37.30000000","longitude":"138.80000000"},{"name":"Ojiya-shi","latitude":"37.30000000","longitude":"138.80000000"},{"name":"Ryōtsu-minato","latitude":"38.07817000","longitude":"138.43939000"},{"name":"Sado Shi","latitude":"38.04439000","longitude":"138.38984000"},{"name":"Sanjō Shi","latitude":"37.54068000","longitude":"139.08983000"},{"name":"Shibata","latitude":"37.95000000","longitude":"139.33333000"},{"name":"Shibata Shi","latitude":"37.90732000","longitude":"139.42786000"},{"name":"Shiozawa","latitude":"37.03757000","longitude":"138.84867000"},{"name":"Shirone","latitude":"37.76354000","longitude":"139.02199000"},{"name":"Suibara","latitude":"37.84608000","longitude":"139.23039000"},{"name":"Tainai","latitude":"38.06646000","longitude":"139.37436000"},{"name":"Tainai Shi","latitude":"38.00587000","longitude":"139.48053000"},{"name":"Tochio-honchō","latitude":"37.47642000","longitude":"138.99513000"},{"name":"Tōkamachi","latitude":"37.13333000","longitude":"138.76667000"},{"name":"Tōkamachi-shi","latitude":"37.13333000","longitude":"138.76667000"},{"name":"Tsubame","latitude":"37.66450000","longitude":"138.92518000"},{"name":"Tsubame Shi","latitude":"37.66541000","longitude":"138.88619000"},{"name":"Uonuma","latitude":"37.24488000","longitude":"138.96234000"},{"name":"Uonuma Shi","latitude":"37.22088000","longitude":"139.09795000"},{"name":"Yoshida-kasugachō","latitude":"37.68333000","longitude":"138.88333000"}]},{"name":"Ōita Prefecture","state_code":"44","latitude":"33.15892990","longitude":"131.36111210","cities":[{"name":"Beppu","latitude":"33.27945000","longitude":"131.49751000"},{"name":"Beppu Shi","latitude":"33.28573000","longitude":"131.45280000"},{"name":"Bungo-ōno Shi","latitude":"32.97249000","longitude":"131.51210000"},{"name":"Bungo-Takada-shi","latitude":"33.55670000","longitude":"131.44506000"},{"name":"Hiji","latitude":"33.37081000","longitude":"131.53025000"},{"name":"Hita","latitude":"33.32130000","longitude":"130.94098000"},{"name":"Hita Shi","latitude":"33.24452000","longitude":"130.95063000"},{"name":"Kitsuki","latitude":"33.41998000","longitude":"131.61837000"},{"name":"Kitsuki Shi","latitude":"33.44729000","longitude":"131.53670000"},{"name":"Kunisaki-shi","latitude":"33.56543000","longitude":"131.73157000"},{"name":"Nakatsu","latitude":"33.59811000","longitude":"131.18830000"},{"name":"Nakatsu Shi","latitude":"33.46458000","longitude":"131.12642000"},{"name":"Ōita","latitude":"33.23333000","longitude":"131.60000000"},{"name":"Ōita-shi","latitude":"33.17980000","longitude":"131.64085000"},{"name":"Saiki","latitude":"32.95000000","longitude":"131.90000000"},{"name":"Saiki-shi","latitude":"32.88598000","longitude":"131.77600000"},{"name":"Takedamachi","latitude":"32.96667000","longitude":"131.40000000"},{"name":"Taketa-shi","latitude":"32.99774000","longitude":"131.32724000"},{"name":"Tsukawaki","latitude":"33.27668000","longitude":"131.15628000"},{"name":"Tsukumi-shi","latitude":"33.06667000","longitude":"131.86667000"},{"name":"Tsukumiura","latitude":"33.07539000","longitude":"131.86907000"},{"name":"Tsurusaki","latitude":"33.24528000","longitude":"131.69165000"},{"name":"Usa Shi","latitude":"33.44996000","longitude":"131.33662000"},{"name":"Usuki","latitude":"33.12342000","longitude":"131.80401000"},{"name":"Usuki Shi","latitude":"33.07223000","longitude":"131.74457000"},{"name":"Yufu-shi","latitude":"33.17923000","longitude":"131.43219000"}]},{"name":"Okayama Prefecture","state_code":"33","latitude":"34.89634070","longitude":"133.63753140","cities":[{"name":"Akaiwa Shi","latitude":"34.83767000","longitude":"134.01792000"},{"name":"Asakuchi Shi","latitude":"34.53607000","longitude":"133.59456000"},{"name":"Bizen Shi","latitude":"34.79504000","longitude":"134.23510000"},{"name":"Ibara","latitude":"34.60000000","longitude":"133.46667000"},{"name":"Ibara Shi","latitude":"34.65033000","longitude":"133.47371000"},{"name":"Kamogatachō-kamogata","latitude":"34.53745000","longitude":"133.58967000"},{"name":"Kasaoka","latitude":"34.50597000","longitude":"133.50391000"},{"name":"Kasaoka Shi","latitude":"34.51520000","longitude":"133.50618000"},{"name":"Kurashiki","latitude":"34.58333000","longitude":"133.76667000"},{"name":"Kurashiki Shi","latitude":"34.55466000","longitude":"133.74826000"},{"name":"Maniwa-shi","latitude":"35.13549000","longitude":"133.69358000"},{"name":"Mimasaka-shi","latitude":"35.04419000","longitude":"134.23052000"},{"name":"Niimi","latitude":"34.98333000","longitude":"133.46667000"},{"name":"Niimi Shi","latitude":"35.01571000","longitude":"133.44900000"},{"name":"Okayama","latitude":"34.65000000","longitude":"133.93333000"},{"name":"Okayama Shi","latitude":"34.71251000","longitude":"133.92329000"},{"name":"Setouchi Shi","latitude":"34.66539000","longitude":"134.14161000"},{"name":"Sōja","latitude":"34.67534000","longitude":"133.75091000"},{"name":"Sōja Shi","latitude":"34.70269000","longitude":"133.70218000"},{"name":"Takahashi","latitude":"34.78333000","longitude":"133.61667000"},{"name":"Takahashi Shi","latitude":"34.82103000","longitude":"133.52435000"},{"name":"Tamano","latitude":"34.51745000","longitude":"133.94574000"},{"name":"Tamano Shi","latitude":"34.52507000","longitude":"133.93769000"},{"name":"Tsuyama","latitude":"35.05215000","longitude":"133.99885000"},{"name":"Tsuyama-shi","latitude":"35.14048000","longitude":"134.03181000"}]},{"name":"Okinawa Prefecture","state_code":"47","latitude":"26.12019110","longitude":"127.70250120","cities":[{"name":"Chatan","latitude":"26.30948000","longitude":"127.77024000"},{"name":"Ginowan Shi","latitude":"26.27620000","longitude":"127.75742000"},{"name":"Gushikawa","latitude":"26.35937000","longitude":"127.86735000"},{"name":"Hirara","latitude":"24.80379000","longitude":"125.30222000"},{"name":"Ishigaki","latitude":"24.34478000","longitude":"124.15717000"},{"name":"Ishigaki-shi","latitude":"24.39401000","longitude":"124.20113000"},{"name":"Ishikawa","latitude":"26.42333000","longitude":"127.82139000"},{"name":"Itoman","latitude":"26.12647000","longitude":"127.66918000"},{"name":"Itoman Shi","latitude":"26.11795000","longitude":"127.68710000"},{"name":"Katsuren-haebaru","latitude":"26.33294000","longitude":"127.87403000"},{"name":"Miyakojima Shi","latitude":"24.78574000","longitude":"125.30132000"},{"name":"Nago","latitude":"26.61502000","longitude":"127.98543000"},{"name":"Nago Shi","latitude":"26.58507000","longitude":"128.02466000"},{"name":"Naha","latitude":"26.21667000","longitude":"127.68333000"},{"name":"Naha Shi","latitude":"26.21077000","longitude":"127.68645000"},{"name":"Nakagami-gun","latitude":"26.30917000","longitude":"127.77722000"},{"name":"Nanjō","latitude":"26.14447000","longitude":"127.76697000"},{"name":"Nanjō Shi","latitude":"26.16371000","longitude":"127.77874000"},{"name":"Okinawa","latitude":"26.33583000","longitude":"127.80139000"},{"name":"Okinawa Shi","latitude":"26.35313000","longitude":"127.80754000"},{"name":"Tomigusuku","latitude":"26.18583000","longitude":"127.68192000"},{"name":"Tomigusuku-shi","latitude":"26.16667000","longitude":"127.66667000"},{"name":"Urasoe Shi","latitude":"26.25106000","longitude":"127.71512000"},{"name":"Uruma Shi","latitude":"26.36777000","longitude":"127.87373000"},{"name":"Yonakuni","latitude":"24.46667000","longitude":"123.00000000"}]},{"name":"Ōsaka Prefecture","state_code":"27","latitude":"34.64133150","longitude":"135.56293940","cities":[{"name":"Daitō Shi","latitude":"34.71284000","longitude":"135.63576000"},{"name":"Daitōchō","latitude":"34.71378000","longitude":"135.62033000"},{"name":"Fujiidera-shi","latitude":"34.57422000","longitude":"135.59730000"},{"name":"Habikino-shi","latitude":"34.55775000","longitude":"135.60631000"},{"name":"Hannan","latitude":"34.33333000","longitude":"135.25000000"},{"name":"Hannan Shi","latitude":"34.33115000","longitude":"135.23521000"},{"name":"Higashiōsaka Shi","latitude":"34.67112000","longitude":"135.61760000"},{"name":"Hirakata","latitude":"34.81352000","longitude":"135.64914000"},{"name":"Hirakata Shi","latitude":"34.81762000","longitude":"135.68171000"},{"name":"Ibaraki","latitude":"34.81641000","longitude":"135.56828000"},{"name":"Ibaraki Shi","latitude":"34.85588000","longitude":"135.54998000"},{"name":"Ikeda","latitude":"34.82208000","longitude":"135.42980000"},{"name":"Ikeda Shi","latitude":"34.83443000","longitude":"135.43825000"},{"name":"Izumi","latitude":"34.48333000","longitude":"135.43333000"},{"name":"Izumi Shi","latitude":"34.43135000","longitude":"135.47164000"},{"name":"Izumiōtsu","latitude":"34.50000000","longitude":"135.40000000"},{"name":"Izumiōtsu Shi","latitude":"34.50647000","longitude":"135.40462000"},{"name":"Izumisano","latitude":"34.41667000","longitude":"135.31667000"},{"name":"Izumisano Shi","latitude":"34.37398000","longitude":"135.33682000"},{"name":"Kadoma","latitude":"34.73810000","longitude":"135.57442000"},{"name":"Kadoma Shi","latitude":"34.73215000","longitude":"135.59935000"},{"name":"Kaizuka","latitude":"34.45000000","longitude":"135.35000000"},{"name":"Kaizuka Shi","latitude":"34.40105000","longitude":"135.38510000"},{"name":"Kashihara","latitude":"34.58333000","longitude":"135.61667000"},{"name":"Kashiwara-shi","latitude":"34.57920000","longitude":"135.62867000"},{"name":"Katano Shi","latitude":"34.77215000","longitude":"135.68693000"},{"name":"Kawachi-nagano Shi","latitude":"34.40547000","longitude":"135.56692000"},{"name":"Kishiwada","latitude":"34.46667000","longitude":"135.36667000"},{"name":"Kishiwada Shi","latitude":"34.42747000","longitude":"135.41605000"},{"name":"Matsubara","latitude":"34.56667000","longitude":"135.55000000"},{"name":"Matsubara-shi","latitude":"34.57726000","longitude":"135.55206000"},{"name":"Mino","latitude":"34.82691000","longitude":"135.47057000"},{"name":"Minoo Shi","latitude":"34.85590000","longitude":"135.47926000"},{"name":"Mishima-gun","latitude":"34.89887000","longitude":"135.65325000"},{"name":"Moriguchi","latitude":"34.73333000","longitude":"135.56667000"},{"name":"Neyagawa","latitude":"34.76615000","longitude":"135.62759000"},{"name":"Neyagawa Shi","latitude":"34.76539000","longitude":"135.62696000"},{"name":"Osaka","latitude":"34.69374000","longitude":"135.50218000"},{"name":"Ōsaka-sayama Shi","latitude":"34.49645000","longitude":"135.54894000"},{"name":"Sakai","latitude":"34.58333000","longitude":"135.46667000"},{"name":"Sakai Shi","latitude":"34.53166000","longitude":"135.49460000"},{"name":"Sennan Shi","latitude":"34.35164000","longitude":"135.29176000"},{"name":"Settsu Shi","latitude":"34.77220000","longitude":"135.56824000"},{"name":"Shijonawate Shi","latitude":"34.73242000","longitude":"135.66784000"},{"name":"Suita","latitude":"34.76143000","longitude":"135.51567000"},{"name":"Suita Shi","latitude":"34.78556000","longitude":"135.51909000"},{"name":"Tajiri","latitude":"34.42695000","longitude":"135.24552000"},{"name":"Takaishi","latitude":"34.51667000","longitude":"135.43333000"},{"name":"Takaishi Shi","latitude":"34.52868000","longitude":"135.42958000"},{"name":"Takatsuki","latitude":"34.84833000","longitude":"135.61678000"},{"name":"Takatsuki Shi","latitude":"34.88079000","longitude":"135.60792000"},{"name":"Tondabayashi Shi","latitude":"34.48882000","longitude":"135.59431000"},{"name":"Tondabayashichō","latitude":"34.50065000","longitude":"135.60211000"},{"name":"Toyonaka","latitude":"34.78244000","longitude":"135.46932000"},{"name":"Toyonaka Shi","latitude":"34.78191000","longitude":"135.47276000"},{"name":"Yao","latitude":"34.61667000","longitude":"135.60000000"},{"name":"Yao-shi","latitude":"34.62629000","longitude":"135.60099000"}]},{"name":"Saga Prefecture","state_code":"41","latitude":"33.30783710","longitude":"130.22712430","cities":[{"name":"Imari Shi","latitude":"33.30409000","longitude":"129.88598000"},{"name":"Imarichō-kō","latitude":"33.27362000","longitude":"129.87877000"},{"name":"Kanzaki Shi","latitude":"33.34446000","longitude":"130.35883000"},{"name":"Karatsu","latitude":"33.44250000","longitude":"129.96972000"},{"name":"Karatsu Shi","latitude":"33.41802000","longitude":"129.99775000"},{"name":"Kashima","latitude":"33.10611000","longitude":"130.09056000"},{"name":"Kashima Shi","latitude":"33.06203000","longitude":"130.09396000"},{"name":"Miyaki-gun","latitude":"33.35298000","longitude":"130.45711000"},{"name":"Ogi-shi","latitude":"33.26667000","longitude":"130.20000000"},{"name":"Saga","latitude":"33.23333000","longitude":"130.30000000"},{"name":"Saga Shi","latitude":"33.32558000","longitude":"130.26430000"},{"name":"Takeo Shi","latitude":"33.20413000","longitude":"129.99775000"},{"name":"Takeochō-takeo","latitude":"33.19009000","longitude":"130.02084000"},{"name":"Taku Shi","latitude":"33.27829000","longitude":"130.10523000"},{"name":"Tosu Shi","latitude":"33.37825000","longitude":"130.49001000"},{"name":"Ureshino Shi","latitude":"33.09558000","longitude":"130.01495000"}]},{"name":"Saitama Prefecture","state_code":"11","latitude":"35.99625130","longitude":"139.44660050","cities":[{"name":"Ageo Shi","latitude":"35.97043000","longitude":"139.58159000"},{"name":"Ageoshimo","latitude":"35.97145000","longitude":"139.61382000"},{"name":"Asaka","latitude":"35.80472000","longitude":"139.60194000"},{"name":"Asaka-shi","latitude":"35.80000000","longitude":"139.60000000"},{"name":"Chichibu","latitude":"35.99028000","longitude":"139.07639000"},{"name":"Chichibu-shi","latitude":"35.95966000","longitude":"138.93347000"},{"name":"Fujimi-shi","latitude":"35.85393000","longitude":"139.55478000"},{"name":"Fujimino Shi","latitude":"35.86505000","longitude":"139.51524000"},{"name":"Fukaya-shi","latitude":"36.20000000","longitude":"139.28333000"},{"name":"Fukayachō","latitude":"36.20000000","longitude":"139.28333000"},{"name":"Fukiage-fujimi","latitude":"36.10000000","longitude":"139.45000000"},{"name":"Gyōda","latitude":"36.14074000","longitude":"139.46011000"},{"name":"Hannō","latitude":"35.85194000","longitude":"139.31806000"},{"name":"Hannō-shi","latitude":"35.85567000","longitude":"139.32777000"},{"name":"Hanyū","latitude":"36.16667000","longitude":"139.53333000"},{"name":"Hanyū-shi","latitude":"36.17251000","longitude":"139.55338000"},{"name":"Hasuda","latitude":"35.97113000","longitude":"139.64910000"},{"name":"Hasuda-shi","latitude":"36.00147000","longitude":"139.64981000"},{"name":"Hatogaya-honchō","latitude":"35.83314000","longitude":"139.74250000"},{"name":"Hidaka-shi","latitude":"35.90859000","longitude":"139.34346000"},{"name":"Higashimatsuyama Shi","latitude":"36.03183000","longitude":"139.39138000"},{"name":"Hiki-gun","latitude":"36.02757000","longitude":"139.33415000"},{"name":"Honjō","latitude":"36.23780000","longitude":"139.19023000"},{"name":"Honjō Shi","latitude":"36.19925000","longitude":"139.14627000"},{"name":"Iruma-shi","latitude":"35.81802000","longitude":"139.36754000"},{"name":"Iwatsuki","latitude":"35.96474000","longitude":"139.69644000"},{"name":"Kamifukuoka","latitude":"35.87266000","longitude":"139.51369000"},{"name":"Kasukabe","latitude":"35.98308000","longitude":"139.74966000"},{"name":"Kasukabe Shi","latitude":"35.98270000","longitude":"139.77574000"},{"name":"Kawagoe","latitude":"35.90861000","longitude":"139.48528000"},{"name":"Kawagoe-shi","latitude":"35.91149000","longitude":"139.47924000"},{"name":"Kawaguchi","latitude":"35.80521000","longitude":"139.71072000"},{"name":"Kawaguchi-shi","latitude":"35.83389000","longitude":"139.73252000"},{"name":"Kazo","latitude":"36.11667000","longitude":"139.60000000"},{"name":"Kazo-shi","latitude":"36.13670000","longitude":"139.61992000"},{"name":"Kisai","latitude":"36.10000000","longitude":"139.58333000"},{"name":"Kitamoto Shi","latitude":"36.02615000","longitude":"139.53043000"},{"name":"Kodamachō-kodamaminami","latitude":"36.18497000","longitude":"139.13191000"},{"name":"Kōnosu","latitude":"36.06868000","longitude":"139.51684000"},