{
  "code": "KM",
  "states": [
    {
      "name": "Anjouan",
      "state_code": "A",
      "latitude": "-12.21381450",
      "longitude": "44.43706060",
      "cities": [
        {
          "name": "Adda-Douéni",
          "latitude": "-12.29250000",
          "longitude": "44.49722000"
        },
        {
          "name": "Antsahé",
          "latitude": "-12.35639000",
          "longitude": "44.52250000"
        },
        {
          "name": "Assimpao",
          "latitude": "-12.23306000",
          "longitude": "44.31972000"
        },
        {
          "name": "Bambao",
          "latitude": "-12.20325000",
          "longitude": "44.51638000"
        },
        {
          "name": "Bandajou",
          "latitude": "-12.19167000",
          "longitude": "44.28694000"
        },
        {
          "name": "Barakani",
          "latitude": "-12.13861000",
          "longitude": "44.43026000"
        },
        {
          "name": "Bimbini",
          "latitude": "-12.18833000",
          "longitude": "44.23556000"
        },
        {
          "name": "Boungouéni",
          "latitude": "-12.20556000",
          "longitude": "44.29944000"
        },
        {
          "name": "Chandra",
          "latitude": "-12.19500000",
          "longitude": "44.46472000"
        },
        {
          "name": "Chironkamba",
          "latitude": "-12.19111000",
          "longitude": "44.35250000"
        },
        {
          "name": "Chitrouni",
          "latitude": "-12.18583000",
          "longitude": "44.33556000"
        },
        {
          "name": "Daji",
          "latitude": "-12.32583000",
          "longitude": "44.48861000"
        },
        {
          "name": "Domoni",
          "latitude": "-12.25694000",
          "longitude": "44.53194000"
        },
        {
          "name": "Dziani",
          "latitude": "-12.18333000",
          "longitude": "44.48333000"
        },
        {
          "name": "Hajoho",
          "latitude": "-12.12434000",
          "longitude": "44.48881000"
        },
        {
          "name": "Harembo",
          "latitude": "-12.15108000",
          "longitude": "44.49828000"
        },
        {
          "name": "Kangani",
          "latitude": "-12.32102000",
          "longitude": "44.47270000"
        },
        {
          "name": "Kavani",
          "latitude": "-12.19194000",
          "longitude": "44.26944000"
        },
        {
          "name": "Koki",
          "latitude": "-12.17139000",
          "longitude": "44.44167000"
        },
        {
          "name": "Koni-Djodjo",
          "latitude": "-12.22972000",
          "longitude": "44.48167000"
        },
        {
          "name": "Koni-Ngani",
          "latitude": "-12.21583000",
          "longitude": "44.48000000"
        },
        {
          "name": "Kyo",
          "latitude": "-12.33222000",
          "longitude": "44.51917000"
        },
        {
          "name": "Limbi",
          "latitude": "-12.23944000",
          "longitude": "44.50528000"
        },
        {
          "name": "Lingoni",
          "latitude": "-12.25583000",
          "longitude": "44.41833000"
        },
        {
          "name": "Magnassini-Nindri",
          "latitude": "-12.27806000",
          "longitude": "44.41583000"
        },
        {
          "name": "Maraharé",
          "latitude": "-12.23083000",
          "longitude": "44.31333000"
        },
        {
          "name": "Mirontsi",
          "latitude": "-12.15667000",
          "longitude": "44.40806000"
        },
        {
          "name": "Mjamaoué",
          "latitude": "-12.19361000",
          "longitude": "44.31000000"
        },
        {
          "name": "Mjimandra",
          "latitude": "-12.19167000",
          "longitude": "44.37028000"
        },
        {
          "name": "Moutsamoudou",
          "latitude": "-12.16672000",
          "longitude": "44.39944000"
        },
        {
          "name": "Moya",
          "latitude": "-12.30967000",
          "longitude": "44.43685000"
        },
        {
          "name": "Mramani",
          "latitude": "-12.34639000",
          "longitude": "44.52861000"
        },
        {
          "name": "Mrémani",
          "latitude": "-12.30833000",
          "longitude": "44.49861000"
        },
        {
          "name": "Ongoni",
          "latitude": "-12.17028000",
          "longitude": "44.50694000"
        },
        {
          "name": "Ouani",
          "latitude": "-12.13554000",
          "longitude": "44.42493000"
        },
        {
          "name": "Ouzini",
          "latitude": "-12.26722000",
          "longitude": "44.47972000"
        },
        {
          "name": "Pajé",
          "latitude": "-12.16972000",
          "longitude": "44.38806000"
        },
        {
          "name": "Patsi",
          "latitude": "-12.15556000",
          "longitude": "44.43722000"
        },
        {
          "name": "Sima",
          "latitude": "-12.19556000",
          "longitude": "44.27667000"
        },
        {
          "name": "Tsimbeo",
          "latitude": "-12.20583000",
          "longitude": "44.46472000"
        },
        {
          "name": "Vouani",
          "latitude": "-12.24417000",
          "longitude": "44.37444000"
        }
      ]
    },
    {
      "name": "Grande Comore",
      "state_code": "G",
      "latitude": "-11.71673380",
      "longitude": "43.36807880",
      "cities": [
        {
          "name": "Bahani",
          "latitude": "-11.63972000",
          "longitude": "43.28417000"
        },
        {
          "name": "Bambadjani",
          "latitude": "-11.47861000",
          "longitude": "43.37722000"
        },
        {
          "name": "Bouni",
          "latitude": "-11.48694000",
          "longitude": "43.38833000"
        },
        {
          "name": "Chezani",
          "latitude": "-11.43140000",
          "longitude": "43.39625000"
        },
        {
          "name": "Chindini",
          "latitude": "-11.92328000",
          "longitude": "43.49109000"
        },
        {
          "name": "Chouani",
          "latitude": "-11.82330000",
          "longitude": "43.29429000"
        },
        {
          "name": "Dembéni",
          "latitude": "-11.87361000",
          "longitude": "43.39778000"
        },
        {
          "name": "Douniani",
          "latitude": "-11.42111000",
          "longitude": "43.28889000"
        },
        {
          "name": "Dzahadjou",
          "latitude": "-11.85287000",
          "longitude": "43.34987000"
        },
        {
          "name": "Foumbouni",
          "latitude": "-11.86537000",
          "longitude": "43.49529000"
        },
        {
          "name": "Hantsindzi",
          "latitude": "-11.43178000",
          "longitude": "43.41102000"
        },
        {
          "name": "Héroumbili",
          "latitude": "-11.54389000",
          "longitude": "43.37972000"
        },
        {
          "name": "Itsandra",
          "latitude": "-11.67111000",
          "longitude": "43.25472000"
        },
        {
          "name": "Itsandzéni",
          "latitude": "-11.47278000",
          "longitude": "43.38444000"
        },
        {
          "name": "Ivouani",
          "latitude": "-11.39157000",
          "longitude": "43.39454000"
        },
        {
          "name": "Koua",
          "latitude": "-11.42083000",
          "longitude": "43.27639000"
        },
        {
          "name": "Madjeouéni",
          "latitude": "-11.82167000",
          "longitude": "43.27806000"
        },
        {
          "name": "Mandza",
          "latitude": "-11.41806000",
          "longitude": "43.29528000"
        },
        {
          "name": "Mavingouni",
          "latitude": "-11.71639000",
          "longitude": "43.25250000"
        },
        {
          "name": "Mbéni",
          "latitude": "-11.50139000",
          "longitude": "43.37750000"
        },
        {
          "name": "Mitsamiouli",
          "latitude": "-11.38472000",
          "longitude": "43.28444000"
        },
        {
          "name": "Mitsoudjé",
          "latitude": "-11.81209000",
          "longitude": "43.28043000"
        },
        {
          "name": "Mnoungou",
          "latitude": "-11.51778000",
          "longitude": "43.37389000"
        },
        {
          "name": "Mohoro",
          "latitude": "-11.82701000",
          "longitude": "43.45436000"
        },
        {
          "name": "Moroni",
          "latitude": "-11.70216000",
          "longitude": "43.25506000"
        },
        {
          "name": "Mtsamdou",
          "latitude": "-11.60694000",
          "longitude": "43.38056000"
        },
        {
          "name": "Mvouni",
          "latitude": "-11.71611000",
          "longitude": "43.26472000"
        },
        {
          "name": "Nioumamilima",
          "latitude": "-11.85461000",
          "longitude": "43.44607000"
        },
        {
          "name": "Ntsaouéni",
          "latitude": "-11.46583000",
          "longitude": "43.26278000"
        },
        {
          "name": "Ntsoudjini",
          "latitude": "-11.65972000",
          "longitude": "43.26139000"
        },
        {
          "name": "Ouellah",
          "latitude": "-11.39028000",
          "longitude": "43.33194000"
        },
        {
          "name": "Ouhozi",
          "latitude": "-11.40500000",
          "longitude": "43.28222000"
        },
        {
          "name": "Ourovéni",
          "latitude": "-11.91375000",
          "longitude": "43.49804000"
        },
        {
          "name": "Oussivo",
          "latitude": "-11.58500000",
          "longitude": "43.26722000"
        },
        {
          "name": "Salimani",
          "latitude": "-11.81150000",
          "longitude": "43.26823000"
        },
        {
          "name": "Séléa",
          "latitude": "-11.78444000",
          "longitude": "43.26083000"
        },
        {
          "name": "Singani",
          "latitude": "-11.84784000",
          "longitude": "43.31731000"
        },
        {
          "name": "Tsidjé",
          "latitude": "-11.69806000",
          "longitude": "43.26194000"
        },
        {
          "name": "Vanadjou",
          "latitude": "-11.60750000",
          "longitude": "43.27611000"
        },
        {
          "name": "Vanambouani",
          "latitude": "-11.61139000",
          "longitude": "43.25306000"
        }
      ]
    },
    {
      "name": "Mohéli",
      "state_code": "M",
      "latitude": "-12.33773760",
      "longitude": "43.73340890",
      "cities": [
        {
          "name": "Djoyézi",
          "latitude": "-12.30587000",
          "longitude": "43.77425000"
        },
        {
          "name": "Fomboni",
          "latitude": "-12.28759000",
          "longitude": "43.74344000"
        },
        {
          "name": "Hoani",
          "latitude": "-12.25083000",
          "longitude": "43.67472000"
        },
        {
          "name": "Mtakoudja",
          "latitude": "-12.26111000",
          "longitude": "43.70361000"
        },
        {
          "name": "Nioumachoua",
          "latitude": "-12.36139000",
          "longitude": "43.71528000"
        },
        {
          "name": "Ouanani",
          "latitude": "-12.33750000",
          "longitude": "43.79750000"
        },
        {
          "name": "Ziroudani",
          "latitude": "-12.33250000",
          "longitude": "43.77750000"
        }
      ]
    }
  ]
}