{"code":"LR","states":[{"name":"Bomi County","state_code":"BM","latitude":"6.75629260","longitude":"-10.84514670","cities":[{"name":"Tubmanburg","latitude":"6.87064000","longitude":"-10.82110000"}]},{"name":"Bong County","state_code":"BG","latitude":"6.82950190","longitude":"-9.36730840","cities":[{"name":"Gbarnga","latitude":"6.99543000","longitude":"-9.47122000"}]},{"name":"Gbarpolu County","state_code":"GP","latitude":"7.49526370","longitude":"-10.08072980","cities":[{"name":"Bopolu","latitude":"7.06667000","longitude":"-10.48750000"}]},{"name":"Grand Bassa County","state_code":"GB","latitude":"6.23084520","longitude":"-9.81249350","cities":[{"name":"Buchanan","latitude":"5.87693000","longitude":"-10.04964000"}]},{"name":"Grand Cape Mount County","state_code":"CM","latitude":"7.04677580","longitude":"-11.07117580","cities":[{"name":"Robertsport","latitude":"6.75329000","longitude":"-11.36710000"}]},{"name":"Grand Gedeh County","state_code":"GG","latitude":"5.92220780","longitude":"-8.22129790","cities":[{"name":"Zwedru","latitude":"6.06846000","longitude":"-8.13559000"}]},{"name":"Grand Kru County","state_code":"GK","latitude":"4.76138620","longitude":"-8.22129790","cities":[{"name":"Barclayville","latitude":"4.67443000","longitude":"-8.23306000"}]},{"name":"Lofa County","state_code":"LO","latitude":"8.19111840","longitude":"-9.72326730","cities":[{"name":"Voinjama","latitude":"8.42194000","longitude":"-9.74778000"}]},{"name":"Margibi County","state_code":"MG","latitude":"6.51518750","longitude":"-10.30488970","cities":[{"name":"Kakata","latitude":"6.53104000","longitude":"-10.35368000"}]},{"name":"Maryland County","state_code":"MY","latitude":"39.04575490","longitude":"-76.64127120","cities":[{"name":"Harper","latitude":"4.37820000","longitude":"-7.71081000"}]},{"name":"Montserrado County","state_code":"MO","latitude":"6.55258150","longitude":"-10.52961150","cities":[{"name":"Bensonville","latitude":"6.44716000","longitude":"-10.61283000"},{"name":"Monrovia","latitude":"6.30054000","longitude":"-10.79690000"}]},{"name":"Nimba","state_code":"NI","latitude":"7.61666670","longitude":"-8.41666670","cities":[{"name":"Ganta","latitude":"7.30222000","longitude":"-8.53083000"},{"name":"New Yekepa","latitude":"7.57944000","longitude":"-8.53778000"},{"name":"Sanniquellie","latitude":"7.36215000","longitude":"-8.71326000"}]},{"name":"River Cess County","state_code":"RI","latitude":"5.90253280","longitude":"-9.45615500","cities":[{"name":"Cestos City","latitude":"5.45683000","longitude":"-9.58167000"}]},{"name":"River Gee County","state_code":"RG","latitude":"5.26048940","longitude":"-7.87216000","cities":[{"name":"Fish Town","latitude":"5.19739000","longitude":"-7.87579000"}]},{"name":"Sinoe County","state_code":"SI","latitude":"5.49871000","longitude":"-8.66005860","cities":[{"name":"Greenville","latitude":"5.01133000","longitude":"-9.03880000"}]}]}