{"code":"LT","states":[{"name":"Akmenė District Municipality","state_code":"01","latitude":"56.24550290","longitude":"22.74711690","cities":[]},{"name":"Alytus City Municipality","state_code":"02","latitude":"54.39629380","longitude":"24.04587610","cities":[{"name":"Alytus","latitude":"54.39635000","longitude":"24.04142000"},{"name":"Daugai","latitude":"54.36667000","longitude":"24.33333000"},{"name":"Druskininkai","latitude":"54.01573000","longitude":"23.98703000"},{"name":"Lazdijai","latitude":"54.23333000","longitude":"23.51667000"},{"name":"Simnas","latitude":"54.38200000","longitude":"23.64600000"},{"name":"Varėna","latitude":"54.21667000","longitude":"24.56667000"},{"name":"Veisiejai","latitude":"54.10110000","longitude":"23.69614000"}]},{"name":"Alytus County","state_code":"AL","latitude":"54.20002140","longitude":"24.15126340","cities":[]},{"name":"Alytus District Municipality","state_code":"03","latitude":"54.32974960","longitude":"24.19609310","cities":[]},{"name":"Birštonas Municipality","state_code":"05","latitude":"54.56696640","longitude":"24.00930980","cities":[]},{"name":"Biržai District Municipality","state_code":"06","latitude":"56.20177190","longitude":"24.75601180","cities":[]},{"name":"Druskininkai municipality","state_code":"07","latitude":"53.99336850","longitude":"24.03424380","cities":[]},{"name":"Elektrėnai municipality","state_code":"08","latitude":"54.76539340","longitude":"24.77405830","cities":[]},{"name":"Ignalina District Municipality","state_code":"09","latitude":"55.40903420","longitude":"26.32848930","cities":[]},{"name":"Jonava District Municipality","state_code":"10","latitude":"55.07272420","longitude":"24.27933370","cities":[]},{"name":"Joniškis District Municipality","state_code":"11","latitude":"56.23607300","longitude":"23.61365790","cities":[]},{"name":"Jurbarkas District Municipality","state_code":"12","latitude":"55.07740700","longitude":"22.74195690","cities":[]},{"name":"Kaišiadorys District Municipality","state_code":"13","latitude":"54.85886690","longitude":"24.42779290","cities":[]},{"name":"Kalvarija municipality","state_code":"14","latitude":"54.37616740","longitude":"23.19203210","cities":[]},{"name":"Kaunas City Municipality","state_code":"15","latitude":"54.91453260","longitude":"23.90535180","cities":[{"name":"Akademija (Kaunas)","latitude":"54.89640000","longitude":"23.82411000"},{"name":"Aleksotas","latitude":"54.88037000","longitude":"23.90842000"},{"name":"Ariogala","latitude":"55.26200000","longitude":"23.47700000"},{"name":"Birštonas","latitude":"54.61667000","longitude":"24.03333000"},{"name":"Dainava (Kaunas)","latitude":"54.91525000","longitude":"23.96831000"},{"name":"Eiguliai","latitude":"54.93133000","longitude":"23.93243000"},{"name":"Ežerėlis","latitude":"54.88315000","longitude":"23.60396000"},{"name":"Garliava","latitude":"54.82139000","longitude":"23.87130000"},{"name":"Jieznas","latitude":"54.59937000","longitude":"24.17593000"},{"name":"Jonava","latitude":"55.08333000","longitude":"24.28333000"},{"name":"Kaišiadorys","latitude":"54.86667000","longitude":"24.45000000"},{"name":"Karmėlava","latitude":"54.97055000","longitude":"24.06182000"},{"name":"Kaunas","latitude":"54.90272000","longitude":"23.90961000"},{"name":"Kėdainiai","latitude":"55.28333000","longitude":"23.96667000"},{"name":"Kulautuva","latitude":"54.94212000","longitude":"23.64218000"},{"name":"Mastaiciai","latitude":"54.81998000","longitude":"23.84462000"},{"name":"Prienai","latitude":"54.63333000","longitude":"23.95000000"},{"name":"Ramučiai","latitude":"54.94830000","longitude":"24.03050000"},{"name":"Raseiniai","latitude":"55.36667000","longitude":"23.11667000"},{"name":"Sargėnai","latitude":"54.94933000","longitude":"23.88316000"},{"name":"Šilainiai","latitude":"54.92911000","longitude":"23.88599000"},{"name":"Vilkija","latitude":"55.04609000","longitude":"23.58552000"},{"name":"Žiežmariai","latitude":"54.80725000","longitude":"24.44073000"}]},{"name":"Kaunas County","state_code":"KU","latitude":"54.98728630","longitude":"23.95257360","cities":[]},{"name":"Kaunas District Municipality","state_code":"16","latitude":"54.99362360","longitude":"23.63249410","cities":[]},{"name":"Kazlų Rūda municipality","state_code":"17","latitude":"54.78075260","longitude":"23.48402430","cities":[]},{"name":"Kėdainiai District Municipality","state_code":"18","latitude":"55.35609470","longitude":"23.98326830","cities":[]},{"name":"Kelmė District Municipality","state_code":"19","latitude":"55.62663520","longitude":"22.87817200","cities":[]},{"name":"Klaipeda City Municipality","state_code":"20","latitude":"55.70329480","longitude":"21.14427950","cities":[]},{"name":"Klaipėda County","state_code":"KL","latitude":"55.65197440","longitude":"21.37439560","cities":[]},{"name":"Klaipėda District Municipality","state_code":"21","latitude":"55.68416150","longitude":"21.44164640","cities":[{"name":"Gargždai","latitude":"55.70951000","longitude":"21.39441000"},{"name":"Klaipėda","latitude":"55.71667000","longitude":"21.11667000"},{"name":"Kretinga","latitude":"55.88880000","longitude":"21.24448000"},{"name":"Neringa","latitude":"55.36667000","longitude":"21.06667000"},{"name":"Nida","latitude":"55.30860000","longitude":"20.99651000"},{"name":"Palanga","latitude":"55.91750000","longitude":"21.06861000"},{"name":"Priekulė","latitude":"55.55427000","longitude":"21.31903000"},{"name":"Rusnė","latitude":"55.29820000","longitude":"21.37120000"},{"name":"Salantai","latitude":"56.05650000","longitude":"21.56890000"},{"name":"Silute","latitude":"55.34889000","longitude":"21.48306000"},{"name":"Skuodas","latitude":"56.26667000","longitude":"21.53333000"},{"name":"Šventoji","latitude":"56.02610000","longitude":"21.08411000"},{"name":"Žemaičių Naumiestis","latitude":"55.35941000","longitude":"21.70364000"}]},{"name":"Kretinga District Municipality","state_code":"22","latitude":"55.88384200","longitude":"21.23509190","cities":[]},{"name":"Kupiškis District Municipality","state_code":"23","latitude":"55.84287410","longitude":"25.02958160","cities":[]},{"name":"Lazdijai District Municipality","state_code":"24","latitude":"54.23432670","longitude":"23.51565050","cities":[]},{"name":"Marijampolė County","state_code":"MR","latitude":"54.78199710","longitude":"23.13413650","cities":[]},{"name":"Marijampolė Municipality","state_code":"25","latitude":"54.57110940","longitude":"23.48593710","cities":[{"name":"Gelgaudiškis","latitude":"55.07688000","longitude":"22.97699000"},{"name":"Kalvarija","latitude":"54.41700000","longitude":"23.22300000"},{"name":"Kalvarija Municipality","latitude":"54.41468000","longitude":"23.22484000"},{"name":"Kazlų Rūda","latitude":"54.74900000","longitude":"23.49000000"},{"name":"Kazlų Rūda Municipality","latitude":"54.74751000","longitude":"23.49272000"},{"name":"Kudirkos Naumiestis","latitude":"54.77353000","longitude":"22.86138000"},{"name":"Kybartai","latitude":"54.63858000","longitude":"22.76316000"},{"name":"Marijampolė","latitude":"54.55991000","longitude":"23.35412000"},{"name":"Marijampolė Municipality","latitude":"54.56667000","longitude":"23.35000000"},{"name":"Sakiai","latitude":"54.95000000","longitude":"23.05000000"},{"name":"Vilkaviskis","latitude":"54.65167000","longitude":"23.03222000"},{"name":"Vilkaviškis District Municipality","latitude":"54.65000000","longitude":"23.03333000"},{"name":"Virbalis","latitude":"54.62858000","longitude":"22.82272000"}]},{"name":"Mažeikiai District Municipality","state_code":"26","latitude":"56.30924390","longitude":"22.34146800","cities":[]},{"name":"Molėtai District Municipality","state_code":"27","latitude":"55.22653090","longitude":"25.41800110","cities":[]},{"name":"Neringa Municipality","state_code":"28","latitude":"55.45724030","longitude":"21.08390050","cities":[]},{"name":"Pagėgiai municipality","state_code":"29","latitude":"55.17213200","longitude":"21.96836140","cities":[]},{"name":"Pakruojis District Municipality","state_code":"30","latitude":"56.07326050","longitude":"23.93899060","cities":[]},{"name":"Palanga City Municipality","state_code":"31","latitude":"55.92019800","longitude":"21.06776140","cities":[]},{"name":"Panevėžys City Municipality","state_code":"32","latitude":"55.73479150","longitude":"24.35747740","cities":[]},{"name":"Panevėžys County","state_code":"PN","latitude":"55.97480490","longitude":"25.07947670","cities":[]},{"name":"Panevėžys District Municipality","state_code":"33","latitude":"55.61667280","longitude":"24.31422830","cities":[{"name":"Birzai","latitude":"56.20000000","longitude":"24.75000000"},{"name":"Juodupė","latitude":"56.08700000","longitude":"25.60700000"},{"name":"Kupiskis","latitude":"55.84027000","longitude":"24.97976000"},{"name":"Obeliai","latitude":"55.96895000","longitude":"25.15648000"},{"name":"Panevėžys","latitude":"55.73333000","longitude":"24.35000000"},{"name":"Panevėžys City","latitude":"55.73600000","longitude":"24.34347000"},{"name":"Panevėžys District Municipality","latitude":"55.73301000","longitude":"24.37609000"},{"name":"Pasvalys","latitude":"56.06667000","longitude":"24.40000000"},{"name":"Ramygala","latitude":"55.51400000","longitude":"24.30000000"},{"name":"Rokiškis","latitude":"55.96667000","longitude":"25.58333000"},{"name":"Vabalninkas","latitude":"55.98151000","longitude":"24.74828000"}]},{"name":"Pasvalys District Municipality","state_code":"34","latitude":"56.06046190","longitude":"24.39629100","cities":[]},{"name":"Plungė District Municipality","state_code":"35","latitude":"55.91078400","longitude":"21.84540690","cities":[]},{"name":"Prienai District Municipality","state_code":"36","latitude":"54.63835800","longitude":"23.94680090","cities":[]},{"name":"Radviliškis District Municipality","state_code":"37","latitude":"55.81083990","longitude":"23.54648700","cities":[]},{"name":"Raseiniai District Municipality","state_code":"38","latitude":"55.38194990","longitude":"23.11561290","cities":[]},{"name":"Rietavas municipality","state_code":"39","latitude":"55.70217190","longitude":"21.99865640","cities":[]},{"name":"Rokiškis District Municipality","state_code":"40","latitude":"55.95550390","longitude":"25.58592490","cities":[]},{"name":"Šakiai District Municipality","state_code":"41","latitude":"54.95267100","longitude":"23.04801990","cities":[]},{"name":"Šalčininkai District Municipality","state_code":"42","latitude":"54.30976700","longitude":"25.38756400","cities":[]},{"name":"Šiauliai City Municipality","state_code":"43","latitude":"55.93490850","longitude":"23.31368230","cities":[{"name":"Akmenė","latitude":"56.25000000","longitude":"22.75000000"},{"name":"Joniškis","latitude":"56.23333000","longitude":"23.61667000"},{"name":"Kelmė","latitude":"55.63333000","longitude":"22.93333000"},{"name":"Kuršėnai","latitude":"56.00318000","longitude":"22.93662000"},{"name":"Linkuva","latitude":"56.08596000","longitude":"23.97061000"},{"name":"Naujoji Akmene","latitude":"56.31667000","longitude":"22.90000000"},{"name":"Pakruojis","latitude":"55.96667000","longitude":"23.86667000"},{"name":"Radviliskis","latitude":"55.81667000","longitude":"23.53333000"},{"name":"Šeduva","latitude":"55.74930000","longitude":"23.75610000"},{"name":"Šiauliai","latitude":"55.93333000","longitude":"23.31667000"},{"name":"Tytuvėnėliai","latitude":"55.62345000","longitude":"23.17162000"},{"name":"Venta","latitude":"56.19162000","longitude":"22.69528000"},{"name":"Žagarė","latitude":"56.36149000","longitude":"23.25094000"}]},{"name":"Šiauliai County","state_code":"SA","latitude":"55.99857510","longitude":"23.13800510","cities":[]},{"name":"Šiauliai District Municipality","state_code":"44","latitude":"55.97214560","longitude":"23.03323710","cities":[]},{"name":"Šilalė District Municipality","state_code":"45","latitude":"55.49268000","longitude":"22.18455590","cities":[]},{"name":"Šilutė District Municipality","state_code":"46","latitude":"55.35041400","longitude":"21.46598590","cities":[]},{"name":"Širvintos District Municipality","state_code":"47","latitude":"55.04310200","longitude":"24.95698100","cities":[]},{"name":"Skuodas District Municipality","state_code":"48","latitude":"56.27021690","longitude":"21.52143310","cities":[]},{"name":"Švenčionys District Municipality","state_code":"49","latitude":"55.10280980","longitude":"26.00718550","cities":[]},{"name":"Tauragė County","state_code":"TA","latitude":"55.30725860","longitude":"22.35729390","cities":[{"name":"Būgai","latitude":"55.41387000","longitude":"22.60894000"},{"name":"Jurbarkas","latitude":"55.10859000","longitude":"22.79885000"},{"name":"Pagėgiai","latitude":"55.13400000","longitude":"21.90446000"},{"name":"Šilalė","latitude":"55.46667000","longitude":"22.20000000"},{"name":"Taurage","latitude":"55.25222000","longitude":"22.28972000"}]},{"name":"Tauragė District Municipality","state_code":"50","latitude":"55.25036600","longitude":"22.29095000","cities":[]},{"name":"Telšiai County","state_code":"TE","latitude":"56.10266160","longitude":"22.11139150","cities":[]},{"name":"Telšiai District Municipality","state_code":"51","latitude":"55.91752150","longitude":"22.34518400","cities":[{"name":"Mazeikiai","latitude":"56.31667000","longitude":"22.33333000"},{"name":"Plateliai","latitude":"56.04657000","longitude":"21.81615000"},{"name":"Plunge","latitude":"55.91139000","longitude":"21.84417000"},{"name":"Rietavas","latitude":"55.72375000","longitude":"21.93266000"},{"name":"Seda","latitude":"56.16854000","longitude":"22.09071000"},{"name":"Telsiai","latitude":"55.98139000","longitude":"22.24722000"},{"name":"Varniai","latitude":"55.74435000","longitude":"22.37251000"},{"name":"Viekšniai","latitude":"56.23598000","longitude":"22.51667000"}]},{"name":"Trakai District Municipality","state_code":"52","latitude":"54.63791130","longitude":"24.93468940","cities":[]},{"name":"Ukmergė District Municipality","state_code":"53","latitude":"55.24526500","longitude":"24.77607490","cities":[]},{"name":"Utena County","state_code":"UT","latitude":"55.53189690","longitude":"25.79046990","cities":[{"name":"Anyksciai","latitude":"55.52557000","longitude":"25.10264000"},{"name":"Dūkštas","latitude":"55.52200000","longitude":"26.32100000"},{"name":"Ignalina","latitude":"55.35000000","longitude":"26.16667000"},{"name":"Moletai","latitude":"55.23333000","longitude":"25.41667000"},{"name":"Utena","latitude":"55.49764000","longitude":"25.59918000"},{"name":"Visaginas","latitude":"55.60000000","longitude":"26.41667000"},{"name":"Zarasai","latitude":"55.73333000","longitude":"26.25000000"}]},{"name":"Utena District Municipality","state_code":"54","latitude":"55.50846140","longitude":"25.68326420","cities":[]},{"name":"Varėna District Municipality","state_code":"55","latitude":"54.22033300","longitude":"24.57899700","cities":[]},{"name":"Vilkaviškis District Municipality","state_code":"56","latitude":"54.65194500","longitude":"23.03515500","cities":[]},{"name":"Vilnius City Municipality","state_code":"57","latitude":"54.67107610","longitude":"25.28787210","cities":[{"name":"Aukstadvaris","latitude":"54.57946000","longitude":"24.52683000"},{"name":"Baltoji Vokė","latitude":"54.60002000","longitude":"25.19318000"},{"name":"Eišiškės","latitude":"54.17414000","longitude":"24.99917000"},{"name":"Elektrėnai","latitude":"54.78544000","longitude":"24.66302000"},{"name":"Fabijoniškės","latitude":"54.73333000","longitude":"25.24167000"},{"name":"Grigiškės","latitude":"54.68333000","longitude":"25.08333000"},{"name":"Justiniškės","latitude":"54.71664000","longitude":"25.21740000"},{"name":"Lazdynai","latitude":"54.66815000","longitude":"25.20684000"},{"name":"Lentvaris","latitude":"54.64364000","longitude":"25.05162000"},{"name":"Naujamiestis","latitude":"54.67951000","longitude":"25.26855000"},{"name":"Nemenčinė","latitude":"54.84776000","longitude":"25.46992000"},{"name":"Pabradė","latitude":"54.98100000","longitude":"25.76100000"},{"name":"Pašilaičiai","latitude":"54.73429000","longitude":"25.21912000"},{"name":"Pilaitė","latitude":"54.69981000","longitude":"25.18393000"},{"name":"Rasos","latitude":"54.67877000","longitude":"25.31173000"},{"name":"Rūdiškės","latitude":"54.51609000","longitude":"24.83084000"},{"name":"Šalčininkai","latitude":"54.30000000","longitude":"25.38333000"},{"name":"Senieji Trakai","latitude":"54.60900000","longitude":"24.98000000"},{"name":"Šeškinė","latitude":"54.70972000","longitude":"25.25053000"},{"name":"Sirvintos","latitude":"55.05000000","longitude":"24.95000000"},{"name":"Skaidiškės","latitude":"54.61398000","longitude":"25.39573000"},{"name":"Švenčionėliai","latitude":"55.16163000","longitude":"26.00177000"},{"name":"Svencionys","latitude":"55.15000000","longitude":"26.16667000"},{"name":"Trakai","latitude":"54.63783000","longitude":"24.93433000"},{"name":"Ukmerge","latitude":"55.25000000","longitude":"24.75000000"},{"name":"Vievis","latitude":"54.76667000","longitude":"24.80000000"},{"name":"Vilkpėdė","latitude":"54.66969000","longitude":"25.24770000"},{"name":"Vilnius","latitude":"54.68916000","longitude":"25.27980000"},{"name":"Vilnius District Municipality","latitude":"54.73333000","longitude":"25.38333000"}]},{"name":"Vilnius County","state_code":"VL","latitude":"54.80865020","longitude":"25.21821390","cities":[]},{"name":"Vilnius District Municipality","state_code":"58","latitude":"54.77325780","longitude":"25.58671130","cities":[]},{"name":"Visaginas Municipality","state_code":"59","latitude":"55.59411800","longitude":"26.43079540","cities":[]},{"name":"Zarasai District Municipality","state_code":"60","latitude":"55.73096090","longitude":"26.24529500","cities":[]}]}