{"code":"MK","states":[{"name":"Aerodrom Municipality","state_code":"01","latitude":"41.94643630","longitude":"21.49317130","cities":[]},{"name":"Aračinovo Municipality","state_code":"02","latitude":"42.02473810","longitude":"21.57664070","cities":[{"name":"Арачиново","latitude":"42.02639000","longitude":"21.56194000"}]},{"name":"Berovo Municipality","state_code":"03","latitude":"41.66619290","longitude":"22.76288300","cities":[{"name":"Berovo","latitude":"41.70306000","longitude":"22.85778000"},{"name":"Rusinovo","latitude":"41.68728000","longitude":"22.80849000"},{"name":"Vladimirovo","latitude":"41.71000000","longitude":"22.79278000"}]},{"name":"Bitola Municipality","state_code":"04","latitude":"41.03633020","longitude":"21.33219740","cities":[{"name":"Bistrica","latitude":"40.97892000","longitude":"21.36580000"},{"name":"Bitola","latitude":"41.03143000","longitude":"21.33474000"},{"name":"Capari","latitude":"41.05656000","longitude":"21.17884000"},{"name":"Dolno Orizari","latitude":"41.05028000","longitude":"21.37944000"},{"name":"Gorno Orizari","latitude":"41.05188000","longitude":"21.34548000"},{"name":"Kukurečani","latitude":"41.09562000","longitude":"21.32454000"},{"name":"Logovardi","latitude":"41.03096000","longitude":"21.40967000"}]},{"name":"Bogdanci Municipality","state_code":"05","latitude":"41.18696160","longitude":"22.59602680","cities":[{"name":"Bogdanci","latitude":"41.20306000","longitude":"22.57556000"},{"name":"Stojakovo","latitude":"41.15556000","longitude":"22.57750000"}]},{"name":"Bogovinje Municipality","state_code":"06","latitude":"41.92363710","longitude":"20.91638870","cities":[{"name":"Bogovinje","latitude":"41.92361000","longitude":"20.91361000"},{"name":"Dolno Palčište","latitude":"41.96859000","longitude":"20.92899000"},{"name":"Gradec","latitude":"41.89611000","longitude":"20.90417000"},{"name":"Kamenjane","latitude":"41.94568000","longitude":"20.92894000"}]},{"name":"Bosilovo Municipality","state_code":"07","latitude":"41.49048640","longitude":"22.78671740","cities":[{"name":"Bosilovo","latitude":"41.44056000","longitude":"22.72778000"},{"name":"Ilovica","latitude":"41.47224000","longitude":"22.80480000"},{"name":"Sekirnik","latitude":"41.43999000","longitude":"22.79536000"}]},{"name":"Brvenica Municipality","state_code":"08","latitude":"41.96814820","longitude":"20.98195860","cities":[{"name":"Brvenica","latitude":"41.96722000","longitude":"20.98083000"},{"name":"Čelopek","latitude":"41.93167000","longitude":"21.01333000"},{"name":"Gurgurnica","latitude":"41.84508000","longitude":"21.10538000"},{"name":"Miletino","latitude":"41.90753000","longitude":"21.01601000"}]},{"name":"Butel Municipality","state_code":"09","latitude":"42.08950680","longitude":"21.46336100","cities":[{"name":"Butel","latitude":"42.03083000","longitude":"21.44667000"},{"name":"Radishani","latitude":"42.06111000","longitude":"21.44778000"}]},{"name":"Čair Municipality","state_code":"79","latitude":"41.99303550","longitude":"21.43653180","cities":[{"name":"Čair","latitude":"42.01528000","longitude":"21.44111000"}]},{"name":"Čaška Municipality","state_code":"80","latitude":"41.64743800","longitude":"21.69141150","cities":[{"name":"Bogomila","latitude":"41.59306000","longitude":"21.47167000"},{"name":"Čaška","latitude":"41.65056000","longitude":"21.66222000"}]},{"name":"Centar Municipality","state_code":"77","latitude":"41.96989340","longitude":"21.42162670","cities":[]},{"name":"Centar Župa Municipality","state_code":"78","latitude":"41.46522590","longitude":"20.59305480","cities":[{"name":"Centar Župa","latitude":"41.47849000","longitude":"20.55945000"}]},{"name":"Češinovo-Obleševo Municipality","state_code":"81","latitude":"41.86393160","longitude":"22.26224600","cities":[{"name":"Češinovo","latitude":"41.87148000","longitude":"22.28961000"},{"name":"Oblesevo","latitude":"41.88333000","longitude":"22.33389000"}]},{"name":"Čučer-Sandevo Municipality","state_code":"82","latitude":"42.14839460","longitude":"21.40374070","cities":[{"name":"Чучер - Сандево","latitude":"42.10361000","longitude":"21.38222000"}]},{"name":"Debarca Municipality","state_code":"22","latitude":"41.35840770","longitude":"20.85529190","cities":[{"name":"Belčišta","latitude":"41.30278000","longitude":"20.83028000"},{"name":"Mešeišta","latitude":"41.23814000","longitude":"20.77414000"}]},{"name":"Delčevo Municipality","state_code":"23","latitude":"41.96843870","longitude":"22.76288300","cities":[{"name":"Delcevo","latitude":"41.96722000","longitude":"22.76944000"}]},{"name":"Demir Hisar Municipality","state_code":"25","latitude":"41.22708300","longitude":"21.14142260","cities":[{"name":"Demir Hisar","latitude":"41.22097000","longitude":"21.20302000"},{"name":"Slepče","latitude":"41.23333000","longitude":"21.17500000"},{"name":"Sopotnica","latitude":"41.29594000","longitude":"21.15357000"}]},{"name":"Demir Kapija Municipality","state_code":"24","latitude":"41.37955380","longitude":"22.21455710","cities":[{"name":"Demir Kapija","latitude":"41.40613000","longitude":"22.24631000"}]},{"name":"Dojran Municipality","state_code":"26","latitude":"41.24366720","longitude":"22.69137640","cities":[{"name":"Star Dojran","latitude":"41.18647000","longitude":"22.72030000"}]},{"name":"Dolneni Municipality","state_code":"27","latitude":"41.46409350","longitude":"21.40374070","cities":[{"name":"Crnilište","latitude":"41.53025000","longitude":"21.41416000"},{"name":"Desovo","latitude":"41.46278000","longitude":"21.49111000"},{"name":"Dolneni","latitude":"41.42579000","longitude":"21.45402000"},{"name":"Lažani","latitude":"41.44222000","longitude":"21.31583000"},{"name":"Žitoše","latitude":"41.41991000","longitude":"21.29078000"}]},{"name":"Drugovo Municipality","state_code":"28","latitude":"41.44081530","longitude":"20.92682010","cities":[]},{"name":"Gazi Baba Municipality","state_code":"17","latitude":"42.01629610","longitude":"21.49913340","cities":[{"name":"Cresevo","latitude":"42.05083000","longitude":"21.50972000"}]},{"name":"Gevgelija Municipality","state_code":"18","latitude":"41.21186060","longitude":"22.38146240","cities":[{"name":"Gevgelija","latitude":"41.14166000","longitude":"22.50141000"},{"name":"Miravci","latitude":"41.30925000","longitude":"22.43641000"}]},{"name":"Gjorče Petrov Municipality","state_code":"29","latitude":"42.06063740","longitude":"21.32027360","cities":[{"name":"Gjorče Petro","latitude":"42.00778000","longitude":"21.35306000"}]},{"name":"Gostivar Municipality","state_code":"19","latitude":"41.80255410","longitude":"20.90893780","cities":[{"name":"Cegrane","latitude":"41.83889000","longitude":"20.97583000"},{"name":"Dolna Banjica","latitude":"41.78611000","longitude":"20.90611000"},{"name":"Forino","latitude":"41.82334000","longitude":"20.96174000"},{"name":"Gostivar","latitude":"41.79601000","longitude":"20.90819000"},{"name":"Srbinovo","latitude":"41.70586000","longitude":"20.95859000"},{"name":"Vrutok","latitude":"41.76861000","longitude":"20.83917000"}]},{"name":"Gradsko Municipality","state_code":"20","latitude":"41.59916080","longitude":"21.88070640","cities":[{"name":"Gradsko","latitude":"41.57750000","longitude":"21.94278000"}]},{"name":"Greater Skopje","state_code":"85","latitude":"41.99812940","longitude":"21.42543550","cities":[{"name":"Bojane","latitude":"42.00009000","longitude":"21.19265000"},{"name":"Dračevo","latitude":"41.93667000","longitude":"21.52167000"},{"name":"Ljubin","latitude":"42.00139000","longitude":"21.30917000"},{"name":"Saraj","latitude":"42.00000000","longitude":"21.32778000"},{"name":"Usje","latitude":"41.95871000","longitude":"21.45835000"}]},{"name":"Ilinden Municipality","state_code":"34","latitude":"41.99574430","longitude":"21.56769750","cities":[{"name":"Ilinden","latitude":"41.99451000","longitude":"21.58002000"},{"name":"Kadino","latitude":"41.96889000","longitude":"21.60139000"},{"name":"Marino","latitude":"41.98776000","longitude":"21.59148000"},{"name":"Miladinovci","latitude":"41.98029000","longitude":"21.64982000"},{"name":"Идризово","latitude":"41.96083000","longitude":"21.57556000"},{"name":"Јурумлери","latitude":"41.96722000","longitude":"21.55694000"}]},{"name":"Jegunovce Municipality","state_code":"35","latitude":"42.07407200","longitude":"21.12204780","cities":[{"name":"Jegunovce","latitude":"42.07238000","longitude":"21.12367000"},{"name":"Vratnica","latitude":"42.14333000","longitude":"21.11694000"}]},{"name":"Karbinci","state_code":"37","latitude":"41.81801590","longitude":"22.23247580","cities":[{"name":"Karbinci","latitude":"41.81758000","longitude":"22.23529000"}]},{"name":"Karpoš Municipality","state_code":"38","latitude":"41.97096610","longitude":"21.39181680","cities":[{"name":"Skopje","latitude":"41.99646000","longitude":"21.43141000"}]},{"name":"Kavadarci Municipality","state_code":"36","latitude":"41.28900680","longitude":"21.99994350","cities":[{"name":"Kavadarci","latitude":"41.43306000","longitude":"22.01194000"},{"name":"Vataša","latitude":"41.41694000","longitude":"22.01889000"}]},{"name":"Kičevo Municipality","state_code":"40","latitude":"41.51291120","longitude":"20.95250650","cities":[{"name":"Drugovo","latitude":"41.48490000","longitude":"20.92636000"},{"name":"Kičevo","latitude":"41.51267000","longitude":"20.95886000"},{"name":"Srbica","latitude":"41.58672000","longitude":"21.03027000"},{"name":"Strelci","latitude":"41.54046000","longitude":"21.00563000"},{"name":"Tuin","latitude":"41.61944000","longitude":"21.04528000"},{"name":"Vraneštica","latitude":"41.44496000","longitude":"21.02683000"},{"name":"Zajas","latitude":"41.60722000","longitude":"20.93833000"}]},{"name":"Kisela Voda Municipality","state_code":"39","latitude":"41.92748000","longitude":"21.49317130","cities":[{"name":"Kisela Voda","latitude":"41.94889000","longitude":"21.50278000"}]},{"name":"Kočani Municipality","state_code":"42","latitude":"41.98583740","longitude":"22.40530460","cities":[{"name":"Kochani","latitude":"41.91639000","longitude":"22.41278000"},{"name":"Orizari","latitude":"41.92262000","longitude":"22.44628000"}]},{"name":"Konče Municipality","state_code":"41","latitude":"41.51710110","longitude":"22.38146240","cities":[{"name":"Konče","latitude":"41.49511000","longitude":"22.38359000"}]},{"name":"Kratovo Municipality","state_code":"43","latitude":"42.05371410","longitude":"22.07148350","cities":[{"name":"Kratovo","latitude":"42.07838000","longitude":"22.18070000"}]},{"name":"Kriva Palanka Municipality","state_code":"44","latitude":"42.20584540","longitude":"22.33079650","cities":[{"name":"Kriva Palanka","latitude":"42.20088000","longitude":"22.33244000"}]},{"name":"Krivogaštani Municipality","state_code":"45","latitude":"41.30823060","longitude":"21.36796890","cities":[{"name":"Krivogashtani","latitude":"41.33611000","longitude":"21.33306000"},{"name":"Obršani","latitude":"41.28168000","longitude":"21.36150000"},{"name":"Клечовце","latitude":"42.11611000","longitude":"21.85722000"}]},{"name":"Kruševo Municipality","state_code":"46","latitude":"41.37693310","longitude":"21.26065540","cities":[{"name":"Bučin","latitude":"41.27377000","longitude":"21.31692000"},{"name":"Krusevo","latitude":"41.36889000","longitude":"21.24889000"}]},{"name":"Kumanovo Municipality","state_code":"47","latitude":"42.07326130","longitude":"21.78531430","cities":[{"name":"Bedinje","latitude":"42.14167000","longitude":"21.69639000"},{"name":"Kumanovo","latitude":"42.13222000","longitude":"21.71444000"},{"name":"Romanovci","latitude":"42.09472000","longitude":"21.69306000"}]},{"name":"Lipkovo Municipality","state_code":"48","latitude":"42.20066260","longitude":"21.61837550","cities":[{"name":"Izvor","latitude":"42.20322000","longitude":"21.57812000"},{"name":"Lipkovo","latitude":"42.15639000","longitude":"21.58528000"},{"name":"Lojane","latitude":"42.23276000","longitude":"21.66550000"},{"name":"Matejce","latitude":"42.12556000","longitude":"21.59778000"},{"name":"Otlja","latitude":"42.14315000","longitude":"21.58675000"},{"name":"Vaksince","latitude":"42.20611000","longitude":"21.66306000"},{"name":"Слупчане","latitude":"42.17333000","longitude":"21.62778000"}]},{"name":"Lozovo Municipality","state_code":"49","latitude":"41.78181390","longitude":"21.90008270","cities":[{"name":"Lozovo","latitude":"41.78389000","longitude":"21.90556000"}]},{"name":"Makedonska Kamenica Municipality","state_code":"51","latitude":"42.06946040","longitude":"22.54834900","cities":[{"name":"Makedonska Kamenica","latitude":"42.02079000","longitude":"22.58760000"}]},{"name":"Makedonski Brod Municipality","state_code":"52","latitude":"41.51330880","longitude":"21.21743290","cities":[{"name":"Makedonski Brod","latitude":"41.51361000","longitude":"21.21528000"},{"name":"Samokov","latitude":"41.68331000","longitude":"21.14625000"}]},{"name":"Mavrovo and Rostuša Municipality","state_code":"50","latitude":"41.60924270","longitude":"20.60124880","cities":[{"name":"Rostusa","latitude":"41.61000000","longitude":"20.60000000"}]},{"name":"Mogila Municipality","state_code":"53","latitude":"41.14796450","longitude":"21.45143690","cities":[{"name":"Beranci","latitude":"41.15969000","longitude":"21.35963000"},{"name":"Dobruševo","latitude":"41.16861000","longitude":"21.48250000"},{"name":"Dolno Srpci","latitude":"41.17480000","longitude":"21.36464000"},{"name":"Mogila","latitude":"41.10833000","longitude":"21.37861000"}]},{"name":"Negotino Municipality","state_code":"54","latitude":"41.49899850","longitude":"22.09532970","cities":[{"name":"Negotino","latitude":"41.48456000","longitude":"22.09056000"}]},{"name":"Novaci Municipality","state_code":"55","latitude":"41.04426610","longitude":"21.45888940","cities":[{"name":"Novaci","latitude":"41.04197000","longitude":"21.45866000"}]},{"name":"Novo Selo Municipality","state_code":"56","latitude":"41.43255800","longitude":"22.88204890","cities":[{"name":"Novo Selo","latitude":"41.41486000","longitude":"22.88164000"},{"name":"Sušica","latitude":"41.43982000","longitude":"22.83676000"}]},{"name":"Ohrid Municipality","state_code":"58","latitude":"41.06820880","longitude":"20.75992660","cities":[{"name":"Kosel","latitude":"41.17444000","longitude":"20.83556000"},{"name":"Ohrid","latitude":"41.11722000","longitude":"20.80194000"},{"name":"Ohrid Opština","latitude":"41.16667000","longitude":"20.83333000"}]},{"name":"Oslomej Municipality","state_code":"57","latitude":"41.57583910","longitude":"21.02219600","cities":[]},{"name":"Pehčevo Municipality","state_code":"60","latitude":"41.77371320","longitude":"22.88204890","cities":[{"name":"Pehčevo","latitude":"41.76226000","longitude":"22.88921000"}]},{"name":"Petrovec Municipality","state_code":"59","latitude":"41.90298970","longitude":"21.68992100","cities":[{"name":"Sredno Konjare","latitude":"41.95743000","longitude":"21.71494000"},{"name":"Петровец","latitude":"41.93889000","longitude":"21.61500000"}]},{"name":"Plasnica Municipality","state_code":"61","latitude":"41.45463490","longitude":"21.10565390","cities":[{"name":"Lisičani","latitude":"41.46139000","longitude":"21.05444000"},{"name":"Plasnica","latitude":"41.46722000","longitude":"21.12306000"}]},{"name":"Prilep Municipality","state_code":"62","latitude":"41.26931420","longitude":"21.71376940","cities":[{"name":"Kanatlarci","latitude":"41.21028000","longitude":"21.50333000"},{"name":"Markov Grad","latitude":"41.35722000","longitude":"21.53250000"},{"name":"Prilep","latitude":"41.34514000","longitude":"21.55504000"},{"name":"Topolčani","latitude":"41.22772000","longitude":"21.43113000"}]},{"name":"Probištip Municipality","state_code":"63","latitude":"41.95891460","longitude":"22.16686700","cities":[{"name":"Probishtip","latitude":"42.00306000","longitude":"22.17861000"},{"name":"Zletovo","latitude":"41.98861000","longitude":"22.23611000"}]},{"name":"Radoviš Municipality","state_code":"64","latitude":"41.64955310","longitude":"22.47682870","cities":[{"name":"Oraovica","latitude":"41.62583000","longitude":"22.51333000"},{"name":"Podareš","latitude":"41.61389000","longitude":"22.54222000"},{"name":"Radovis","latitude":"41.63833000","longitude":"22.46472000"}]},{"name":"Rankovce Municipality","state_code":"65","latitude":"42.18081410","longitude":"22.09532970","cities":[{"name":"Ранковце","latitude":"42.16964000","longitude":"22.11617000"}]},{"name":"Resen Municipality","state_code":"66","latitude":"40.93680930","longitude":"21.04604070","cities":[{"name":"Grnčari","latitude":"41.01722000","longitude":"21.05333000"},{"name":"Jankovec","latitude":"41.11028000","longitude":"21.01139000"},{"name":"Krani","latitude":"40.93934000","longitude":"21.10911000"},{"name":"Resen","latitude":"41.08934000","longitude":"21.01092000"}]},{"name":"Rosoman Municipality","state_code":"67","latitude":"41.48480060","longitude":"21.88070640","cities":[{"name":"Rosoman","latitude":"41.51671000","longitude":"21.94585000"}]},{"name":"Saraj Municipality","state_code":"68","latitude":"41.98694960","longitude":"21.26065540","cities":[{"name":"Bukovik","latitude":"41.96833000","longitude":"21.23694000"},{"name":"Grčec","latitude":"41.98806000","longitude":"21.33028000"},{"name":"Kondovo","latitude":"42.01167000","longitude":"21.31361000"},{"name":"Krušopek","latitude":"41.97833000","longitude":"21.35444000"}]},{"name":"Sopište Municipality","state_code":"70","latitude":"41.86384920","longitude":"21.30834990","cities":[{"name":"Сопиште","latitude":"41.95472000","longitude":"21.42750000"}]},{"name":"Staro Nagoričane Municipality","state_code":"71","latitude":"42.21916920","longitude":"21.90455410","cities":[{"name":"Старо Нагоричане","latitude":"42.19806000","longitude":"21.82861000"}]},{"name":"Štip Municipality","state_code":"83","latitude":"41.70792970","longitude":"22.19071220","cities":[{"name":"Shtip","latitude":"41.74583000","longitude":"22.19583000"}]},{"name":"Struga Municipality","state_code":"72","latitude":"41.31737440","longitude":"20.66456830","cities":[{"name":"Delogožda","latitude":"41.25728000","longitude":"20.72180000"},{"name":"Labunista","latitude":"41.26861000","longitude":"20.59611000"},{"name":"Lukovo","latitude":"41.35339000","longitude":"20.60637000"},{"name":"Mislesevo","latitude":"41.18500000","longitude":"20.70861000"},{"name":"Oktisi","latitude":"41.23250000","longitude":"20.60722000"},{"name":"Radolista","latitude":"41.16417000","longitude":"20.62333000"},{"name":"Struga","latitude":"41.17799000","longitude":"20.67784000"},{"name":"Velesta","latitude":"41.24083000","longitude":"20.64389000"}]},{"name":"Strumica Municipality","state_code":"73","latitude":"41.43780040","longitude":"22.64274280","cities":[{"name":"Kuklis","latitude":"41.40528000","longitude":"22.66528000"},{"name":"Murtino","latitude":"41.41537000","longitude":"22.72589000"},{"name":"Strumica","latitude":"41.43750000","longitude":"22.64333000"},{"name":"Veljusa","latitude":"41.47611000","longitude":"22.56750000"}]},{"name":"Studeničani Municipality","state_code":"74","latitude":"41.92256390","longitude":"21.53639650","cities":[{"name":"Batinci","latitude":"41.91909000","longitude":"21.47978000"},{"name":"Dolno Količani","latitude":"41.88639000","longitude":"21.48556000"},{"name":"Morani","latitude":"41.90978000","longitude":"21.54997000"},{"name":"Studeničane","latitude":"41.92208000","longitude":"21.53483000"}]},{"name":"Šuto Orizari Municipality","state_code":"84","latitude":"42.02904160","longitude":"21.40970270","cities":[{"name":"Šuto Orizare","latitude":"42.04000000","longitude":"21.42500000"}]},{"name":"Sveti Nikole Municipality","state_code":"69","latitude":"41.89803120","longitude":"21.99994350","cities":[{"name":"Gorobinci","latitude":"41.87507000","longitude":"21.87599000"},{"name":"Sveti Nikole","latitude":"41.86956000","longitude":"21.95274000"}]},{"name":"Tearce Municipality","state_code":"75","latitude":"42.07775110","longitude":"21.05349230","cities":[{"name":"Nerašte","latitude":"42.10711000","longitude":"21.10810000"},{"name":"Orashac","latitude":"42.06250000","longitude":"21.79972000"},{"name":"Pršovce","latitude":"42.08336000","longitude":"21.05994000"},{"name":"Slatino","latitude":"42.06784000","longitude":"21.03902000"},{"name":"Tearce","latitude":"42.07666000","longitude":"21.05310000"}]},{"name":"Tetovo Municipality","state_code":"76","latitude":"42.02748600","longitude":"20.95066360","cities":[{"name":"Dobrošte","latitude":"42.10333000","longitude":"21.07778000"},{"name":"Džepčište","latitude":"42.03287000","longitude":"20.99817000"},{"name":"Golema Rečica","latitude":"41.98803000","longitude":"20.94517000"},{"name":"Pirok","latitude":"41.91083000","longitude":"20.91056000"},{"name":"Poroj","latitude":"42.02913000","longitude":"20.99266000"},{"name":"Selce","latitude":"42.03482000","longitude":"20.94035000"},{"name":"Šipkovica","latitude":"42.03500000","longitude":"20.91556000"},{"name":"Tetovo","latitude":"42.00973000","longitude":"20.97155000"}]},{"name":"Valandovo Municipality","state_code":"10","latitude":"41.32119090","longitude":"22.50066930","cities":[{"name":"Pirava","latitude":"41.32042000","longitude":"22.53047000"},{"name":"Valandovo","latitude":"41.31744000","longitude":"22.56002000"}]},{"name":"Vasilevo Municipality","state_code":"11","latitude":"41.47416990","longitude":"22.64221280","cities":[{"name":"Vasilevo","latitude":"41.47408000","longitude":"22.64301000"}]},{"name":"Veles Municipality","state_code":"13","latitude":"41.72744260","longitude":"21.71376940","cities":[{"name":"Gorno Orizari","latitude":"41.68583000","longitude":"21.73475000"},{"name":"Ivankovci","latitude":"41.84889000","longitude":"21.82028000"},{"name":"Veles","latitude":"41.71556000","longitude":"21.77556000"}]},{"name":"Vevčani Municipality","state_code":"12","latitude":"41.24075430","longitude":"20.59156490","cities":[{"name":"Vevčani","latitude":"41.24056000","longitude":"20.59333000"}]},{"name":"Vinica Municipality","state_code":"14","latitude":"41.85710200","longitude":"22.57218810","cities":[{"name":"Blatec","latitude":"41.83668000","longitude":"22.57909000"},{"name":"Gradec","latitude":"41.85068000","longitude":"22.51132000"},{"name":"Vinica","latitude":"41.88278000","longitude":"22.50917000"}]},{"name":"Vraneštica Municipality","state_code":"15","latitude":"41.48290870","longitude":"21.05796320","cities":[]},{"name":"Vrapčište Municipality","state_code":"16","latitude":"41.87911600","longitude":"20.83145000","cities":[{"name":"Dobri Dol","latitude":"41.86520000","longitude":"20.89009000"},{"name":"Negotino","latitude":"41.87792000","longitude":"20.88389000"},{"name":"Vrapčište","latitude":"41.83439000","longitude":"20.88563000"}]},{"name":"Zajas Municipality","state_code":"31","latitude":"41.60303280","longitude":"20.87913430","cities":[]},{"name":"Zelenikovo Municipality","state_code":"32","latitude":"41.87338120","longitude":"21.60272500","cities":[{"name":"Zelenikovo","latitude":"41.88413000","longitude":"21.58848000"}]},{"name":"Želino Municipality","state_code":"30","latitude":"41.90065310","longitude":"21.11757670","cities":[{"name":"Dobarce","latitude":"41.95530000","longitude":"21.08875000"},{"name":"Larce","latitude":"41.93319000","longitude":"21.12628000"},{"name":"Sedlarevo","latitude":"41.88306000","longitude":"21.12750000"},{"name":"Strimnica","latitude":"41.96719000","longitude":"21.03598000"},{"name":"Zelino","latitude":"41.98028000","longitude":"21.06417000"}]},{"name":"Zrnovci Municipality","state_code":"33","latitude":"41.82282210","longitude":"22.41722560","cities":[{"name":"Zrnovci","latitude":"41.85417000","longitude":"22.44444000"}]}]}