{"code":"NI","states":[{"name":"Boaco Department","state_code":"BO","latitude":"12.46928400","longitude":"-85.66146820","cities":[{"name":"Boaco","latitude":"12.47224000","longitude":"-85.65860000"},{"name":"Camoapa","latitude":"12.38383000","longitude":"-85.51277000"},{"name":"San José de los Remates","latitude":"12.59750000","longitude":"-85.76174000"},{"name":"San Lorenzo","latitude":"12.37830000","longitude":"-85.66646000"},{"name":"Santa Lucía","latitude":"12.53262000","longitude":"-85.71074000"},{"name":"Teustepe","latitude":"12.42030000","longitude":"-85.79798000"}]},{"name":"Carazo Department","state_code":"CA","latitude":"11.72747290","longitude":"-86.21584970","cities":[{"name":"Diriamba","latitude":"11.85812000","longitude":"-86.23922000"},{"name":"Dolores","latitude":"11.85672000","longitude":"-86.21552000"},{"name":"El Rosario","latitude":"11.77756000","longitude":"-86.37374000"},{"name":"Jinotepe","latitude":"11.84962000","longitude":"-86.19903000"},{"name":"La Conquista","latitude":"11.73426000","longitude":"-86.19279000"},{"name":"La Paz de Carazo","latitude":"11.82311000","longitude":"-86.12781000"},{"name":"Municipio de San Marcos","latitude":"11.91784000","longitude":"-86.27474000"},{"name":"San Marcos","latitude":"11.90949000","longitude":"-86.20351000"},{"name":"Santa Teresa","latitude":"11.74321000","longitude":"-86.21413000"}]},{"name":"Chinandega Department","state_code":"CI","latitude":"12.88200620","longitude":"-87.14228950","cities":[{"name":"Chichigalpa","latitude":"12.57758000","longitude":"-87.02705000"},{"name":"Chinandega","latitude":"12.62937000","longitude":"-87.13105000"},{"name":"Cinco Pinos","latitude":"13.22956000","longitude":"-86.86808000"},{"name":"Corinto","latitude":"12.48250000","longitude":"-87.17304000"},{"name":"El Realejo","latitude":"12.54333000","longitude":"-87.16517000"},{"name":"El Viejo","latitude":"12.66348000","longitude":"-87.16663000"},{"name":"Jiquilillo","latitude":"12.74593000","longitude":"-87.45160000"},{"name":"Municipio de San Francisco del Norte","latitude":"13.21187000","longitude":"-86.77107000"},{"name":"Posoltega","latitude":"12.54422000","longitude":"-86.97982000"},{"name":"Puerto Morazán","latitude":"12.85042000","longitude":"-87.17167000"},{"name":"Santo Tomás del Norte","latitude":"13.18610000","longitude":"-86.92267000"},{"name":"Somotillo","latitude":"13.04387000","longitude":"-86.90506000"}]},{"name":"Chontales Department","state_code":"CO","latitude":"11.93947170","longitude":"-85.18940450","cities":[{"name":"Acoyapa","latitude":"11.97028000","longitude":"-85.17113000"},{"name":"Comalapa","latitude":"12.28345000","longitude":"-85.51081000"},{"name":"Cuapa","latitude":"12.26875000","longitude":"-85.38205000"},{"name":"El Ayote","latitude":"12.19046000","longitude":"-85.28737000"},{"name":"Juigalpa","latitude":"12.10629000","longitude":"-85.36452000"},{"name":"La Libertad","latitude":"12.21635000","longitude":"-85.16595000"},{"name":"Santo Domingo","latitude":"12.26438000","longitude":"-85.08235000"},{"name":"Santo Tomás","latitude":"12.06938000","longitude":"-85.09059000"},{"name":"Villa Sandino","latitude":"12.04830000","longitude":"-84.99362000"}]},{"name":"Estelí Department","state_code":"ES","latitude":"13.08511390","longitude":"-86.36301970","cities":[{"name":"Condega","latitude":"13.36502000","longitude":"-86.39846000"},{"name":"Estelí","latitude":"13.09185000","longitude":"-86.35384000"},{"name":"La Trinidad","latitude":"12.96881000","longitude":"-86.23534000"},{"name":"Pueblo Nuevo","latitude":"13.37984000","longitude":"-86.48075000"},{"name":"San Juan de Limay","latitude":"13.17603000","longitude":"-86.61234000"}]},{"name":"Granada Department","state_code":"GR","latitude":"11.93440730","longitude":"-85.95600050","cities":[{"name":"Diriá","latitude":"11.88420000","longitude":"-86.05508000"},{"name":"Diriomo","latitude":"11.87631000","longitude":"-86.05184000"},{"name":"Granada","latitude":"11.92988000","longitude":"-85.95602000"},{"name":"Nandaime","latitude":"11.75696000","longitude":"-86.05286000"}]},{"name":"Jinotega Department","state_code":"JI","latitude":"13.08839070","longitude":"-85.99939970","cities":[{"name":"El Cuá","latitude":"13.41667000","longitude":"-85.75000000"},{"name":"Jinotega","latitude":"13.09103000","longitude":"-86.00234000"},{"name":"La Concordia","latitude":"13.19528000","longitude":"-86.16659000"},{"name":"Las Praderas","latitude":"13.17000000","longitude":"-85.85000000"},{"name":"LLano de La Cruz","latitude":"13.12449000","longitude":"-86.00833000"},{"name":"San José de Bocay","latitude":"13.54204000","longitude":"-85.53942000"},{"name":"San Rafael del Norte","latitude":"13.21248000","longitude":"-86.11089000"},{"name":"San Sebastián de Yalí","latitude":"13.30540000","longitude":"-86.18641000"}]},{"name":"León Department","state_code":"LE","latitude":"12.50920370","longitude":"-86.66110830","cities":[{"name":"Achuapa","latitude":"13.05370000","longitude":"-86.59004000"},{"name":"El Jicaral","latitude":"12.72676000","longitude":"-86.38057000"},{"name":"El Sauce","latitude":"12.88687000","longitude":"-86.53903000"},{"name":"La Paz Centro","latitude":"12.34000000","longitude":"-86.67528000"},{"name":"Larreynaga","latitude":"12.67692000","longitude":"-86.57193000"},{"name":"León","latitude":"12.43787000","longitude":"-86.87804000"},{"name":"Nagarote","latitude":"12.26593000","longitude":"-86.56474000"},{"name":"Quezalguaque","latitude":"12.50683000","longitude":"-86.90292000"},{"name":"Santa Rosa del Peñón","latitude":"12.80116000","longitude":"-86.36994000"},{"name":"Telica","latitude":"12.52200000","longitude":"-86.85938000"}]},{"name":"Madriz Department","state_code":"MD","latitude":"13.47260050","longitude":"-86.45920910","cities":[{"name":"Las Sabanas","latitude":"13.34302000","longitude":"-86.62184000"},{"name":"Palacagüina","latitude":"13.45566000","longitude":"-86.40622000"},{"name":"San José de Cusmapa","latitude":"13.28841000","longitude":"-86.65539000"},{"name":"San Juan de Río Coco","latitude":"13.54476000","longitude":"-86.16499000"},{"name":"San Lucas","latitude":"13.41380000","longitude":"-86.61110000"},{"name":"Somoto","latitude":"13.48082000","longitude":"-86.58208000"},{"name":"Telpaneca","latitude":"13.53151000","longitude":"-86.28710000"},{"name":"Totogalpa","latitude":"13.56284000","longitude":"-86.49254000"},{"name":"Yalagüina","latitude":"13.48383000","longitude":"-86.49305000"}]},{"name":"Managua Department","state_code":"MN","latitude":"12.13916990","longitude":"-86.33767610","cities":[{"name":"Ciudad Sandino","latitude":"12.15889000","longitude":"-86.34417000"},{"name":"El Crucero","latitude":"11.99008000","longitude":"-86.30954000"},{"name":"Managua","latitude":"12.13282000","longitude":"-86.25040000"},{"name":"Masachapa","latitude":"11.78687000","longitude":"-86.51416000"},{"name":"San Rafael del Sur","latitude":"11.84854000","longitude":"-86.43839000"},{"name":"Ticuantepe","latitude":"12.02263000","longitude":"-86.20493000"},{"name":"Tipitapa","latitude":"12.19732000","longitude":"-86.09706000"},{"name":"Valle San Francisco","latitude":"12.51667000","longitude":"-86.28333000"},{"name":"Villa El Carmen","latitude":"11.98009000","longitude":"-86.50571000"}]},{"name":"Masaya Department","state_code":"MS","latitude":"11.97593280","longitude":"-86.07334980","cities":[{"name":"Catarina","latitude":"11.91197000","longitude":"-86.07383000"},{"name":"La Concepción","latitude":"11.93711000","longitude":"-86.18976000"},{"name":"Masatepe","latitude":"11.91445000","longitude":"-86.14458000"},{"name":"Masaya","latitude":"11.97444000","longitude":"-86.09417000"},{"name":"Municipio de Masatepe","latitude":"11.90567000","longitude":"-86.14946000"},{"name":"Municipio de Nandasmo","latitude":"11.93333000","longitude":"-86.11667000"},{"name":"Municipio de Niquinohomo","latitude":"11.88228000","longitude":"-86.10035000"},{"name":"Municipio de San Juan de Oriente","latitude":"11.90517000","longitude":"-86.07460000"},{"name":"Nandasmo","latitude":"11.92411000","longitude":"-86.12072000"},{"name":"Nindirí","latitude":"12.00386000","longitude":"-86.12128000"},{"name":"Niquinohomo","latitude":"11.90518000","longitude":"-86.09446000"},{"name":"San Juan de Oriente","latitude":"11.90624000","longitude":"-86.07343000"},{"name":"Tisma","latitude":"12.08194000","longitude":"-86.01739000"}]},{"name":"Matagalpa Department","state_code":"MT","latitude":"12.94984360","longitude":"-85.43755740","cities":[{"name":"Ciudad Darío","latitude":"12.73143000","longitude":"-86.12402000"},{"name":"Matagalpa","latitude":"12.92559000","longitude":"-85.91747000"},{"name":"Matiguás","latitude":"12.83734000","longitude":"-85.46218000"},{"name":"Muy Muy","latitude":"12.76224000","longitude":"-85.62915000"},{"name":"Río Blanco","latitude":"12.93435000","longitude":"-85.22354000"},{"name":"San Dionisio","latitude":"12.76023000","longitude":"-85.85018000"},{"name":"San Ramón","latitude":"12.92344000","longitude":"-85.83898000"},{"name":"Terrabona","latitude":"12.73028000","longitude":"-85.96474000"}]},{"name":"North Caribbean Coast Autonomous Region","state_code":"AN","latitude":"13.83944560","longitude":"-83.93208060","cities":[{"name":"Bonanza","latitude":"14.02885000","longitude":"-84.59103000"},{"name":"Prinzapolka","latitude":"13.40708000","longitude":"-83.56452000"},{"name":"Puerto Cabezas","latitude":"14.03507000","longitude":"-83.38882000"},{"name":"Siuna","latitude":"13.73321000","longitude":"-84.77725000"},{"name":"Waslala","latitude":"13.23333000","longitude":"-85.38333000"},{"name":"Waspán","latitude":"14.74189000","longitude":"-83.97170000"}]},{"name":"Río San Juan Department","state_code":"SJ","latitude":"11.47816100","longitude":"-84.77333250","cities":[{"name":"El Almendro","latitude":"11.67859000","longitude":"-84.70269000"},{"name":"Greytown","latitude":"10.94684000","longitude":"-83.73467000"},{"name":"Morrito","latitude":"11.62118000","longitude":"-85.08052000"},{"name":"San Carlos","latitude":"11.12360000","longitude":"-84.77795000"},{"name":"San Miguelito","latitude":"11.40255000","longitude":"-84.89991000"}]},{"name":"Rivas Department","state_code":"RI","latitude":"11.40234900","longitude":"-85.68457800","cities":[{"name":"Altagracia","latitude":"11.56615000","longitude":"-85.57840000"},{"name":"Belén","latitude":"11.50299000","longitude":"-85.88935000"},{"name":"Buenos Aires","latitude":"11.46916000","longitude":"-85.81661000"},{"name":"Cárdenas","latitude":"11.19639000","longitude":"-85.50890000"},{"name":"Moyogalpa","latitude":"11.54006000","longitude":"-85.69795000"},{"name":"Municipio de Altagracia","latitude":"11.47983000","longitude":"-85.54166000"},{"name":"Municipio de Belén","latitude":"11.57193000","longitude":"-85.96316000"},{"name":"Municipio de Buenos Aires","latitude":"11.51760000","longitude":"-85.78333000"},{"name":"Municipio de Cárdenas","latitude":"11.14912000","longitude":"-85.42323000"},{"name":"Municipio de Moyogalpa","latitude":"11.52632000","longitude":"-85.67329000"},{"name":"Municipio de Potosí","latitude":"11.57854000","longitude":"-85.87764000"},{"name":"Municipio de Rivas","latitude":"11.43931000","longitude":"-85.82700000"},{"name":"Municipio de San Jorge","latitude":"11.42703000","longitude":"-85.78904000"},{"name":"Municipio de San Juan del Sur","latitude":"11.22368000","longitude":"-85.78289000"},{"name":"Municipio de Tola","latitude":"11.46009000","longitude":"-86.00789000"},{"name":"Potosí","latitude":"11.49416000","longitude":"-85.85680000"},{"name":"Rivas","latitude":"11.43716000","longitude":"-85.82632000"},{"name":"San Jorge","latitude":"11.45584000","longitude":"-85.80308000"},{"name":"San Juan del Sur","latitude":"11.25292000","longitude":"-85.87049000"},{"name":"Tola","latitude":"11.43927000","longitude":"-85.93891000"}]},{"name":"South Caribbean Coast Autonomous Region","state_code":"AS","latitude":"12.19185020","longitude":"-84.10128610","cities":[{"name":"Bluefields","latitude":"12.01366000","longitude":"-83.76353000"},{"name":"Bocana de Paiwas","latitude":"12.78571000","longitude":"-85.12269000"},{"name":"Corn Island","latitude":"12.17575000","longitude":"-83.06145000"},{"name":"El Rama","latitude":"12.15965000","longitude":"-84.21952000"},{"name":"El Tortuguero","latitude":"12.82247000","longitude":"-84.19629000"},{"name":"Kukrahill","latitude":"12.24096000","longitude":"-83.74517000"},{"name":"La Cruz de Río Grande","latitude":"13.11290000","longitude":"-84.18588000"},{"name":"Laguna de Perlas","latitude":"12.34294000","longitude":"-83.67123000"},{"name":"Muelle de los Bueyes","latitude":"12.06999000","longitude":"-84.53503000"},{"name":"Nueva Guinea","latitude":"11.68758000","longitude":"-84.45616000"}]}]}