{
  "code": "NO",
  "states": [
    {
      "name": "Akershus",
      "state_code": "02",
      "latitude": "28.37042030",
      "longitude": "-81.54680580",
      "cities": [
        {
          "name": "Åneby",
          "latitude": "60.08926000",
          "longitude": "10.86998000"
        },
        {
          "name": "Årnes",
          "latitude": "60.12237000",
          "longitude": "11.47005000"
        },
        {
          "name": "Ås",
          "latitude": "59.66366000",
          "longitude": "10.79101000"
        },
        {
          "name": "Ask",
          "latitude": "60.07131000",
          "longitude": "11.03620000"
        },
        {
          "name": "Asker",
          "latitude": "59.83734000",
          "longitude": "10.43595000"
        },
        {
          "name": "Auli",
          "latitude": "60.03450000",
          "longitude": "11.36046000"
        },
        {
          "name": "Aurskog-Høland",
          "latitude": "59.88321000",
          "longitude": "11.56491000"
        },
        {
          "name": "Aursmoen",
          "latitude": "59.92763000",
          "longitude": "11.44275000"
        },
        {
          "name": "Bærum",
          "latitude": "59.88996000",
          "longitude": "10.52649000"
        },
        {
          "name": "Billingstad",
          "latitude": "59.87548000",
          "longitude": "10.48230000"
        },
        {
          "name": "Bjørkelangen",
          "latitude": "59.88357000",
          "longitude": "11.56396000"
        },
        {
          "name": "Blakstad",
          "latitude": "59.81910000",
          "longitude": "10.46450000"
        },
        {
          "name": "Drøbak",
          "latitude": "59.66333000",
          "longitude": "10.62975000"
        },
        {
          "name": "Eidsvoll",
          "latitude": "60.32893000",
          "longitude": "11.26119000"
        },
        {
          "name": "Enebakk",
          "latitude": "59.76452000",
          "longitude": "11.14492000"
        },
        {
          "name": "Fagerstrand",
          "latitude": "59.73746000",
          "longitude": "10.59404000"
        },
        {
          "name": "Fet",
          "latitude": "59.92216000",
          "longitude": "11.16778000"
        },
        {
          "name": "Fetsund",
          "latitude": "59.92463000",
          "longitude": "11.15711000"
        },
        {
          "name": "Fjellfoten",
          "latitude": "60.08967000",
          "longitude": "11.47222000"
        },
        {
          "name": "Flateby",
          "latitude": "59.82951000",
          "longitude": "11.15345000"
        },
        {
          "name": "Frogn",
          "latitude": "59.66665000",
          "longitude": "10.63566000"
        },
        {
          "name": "Frogner",
          "latitude": "60.02463000",
          "longitude": "11.10284000"
        },
        {
          "name": "Gjerdrum",
          "latitude": "60.07159000",
          "longitude": "11.03597000"
        },
        {
          "name": "Hurdal",
          "latitude": "60.43518000",
          "longitude": "11.06707000"
        },
        {
          "name": "Jessheim",
          "latitude": "60.14151000",
          "longitude": "11.17515000"
        },
        {
          "name": "Kløfta",
          "latitude": "60.07407000",
          "longitude": "11.13805000"
        },
        {
          "name": "Leirsund",
          "latitude": "59.99682000",
          "longitude": "11.08746000"
        },
        {
          "name": "Lillestrøm",
          "latitude": "59.95597000",
          "longitude": "11.04918000"
        },
        {
          "name": "Lørenskog",
          "latitude": "59.93209000",
          "longitude": "10.96079000"
        },
        {
          "name": "Lysaker",
          "latitude": "59.90994000",
          "longitude": "10.63545000"
        },
        {
          "name": "Maura",
          "latitude": "60.25830000",
          "longitude": "11.03192000"
        },
        {
          "name": "Nannestad",
          "latitude": "60.21707000",
          "longitude": "11.01200000"
        },
        {
          "name": "Nes",
          "latitude": "60.12252000",
          "longitude": "11.46570000"
        },
        {
          "name": "Neskollen",
          "latitude": "60.12159000",
          "longitude": "11.33926000"
        },
        {
          "name": "Nesodden",
          "latitude": "59.84220000",
          "longitude": "10.64940000"
        },
        {
          "name": "Nesoddtangen",
          "latitude": "59.86244000",
          "longitude": "10.66308000"
        },
        {
          "name": "Nittedal",
          "latitude": "60.04278000",
          "longitude": "10.88167000"
        },
        {
          "name": "Oppegård",
          "latitude": "59.81149000",
          "longitude": "10.79712000"
        },
        {
          "name": "Råholt",
          "latitude": "60.27513000",
          "longitude": "11.17901000"
        },
        {
          "name": "Rælingen",
          "latitude": "59.92626000",
          "longitude": "11.06527000"
        },
        {
          "name": "Rotnes",
          "latitude": "60.05707000",
          "longitude": "10.86135000"
        },
        {
          "name": "Skedsmo",
          "latitude": "59.95448000",
          "longitude": "11.03952000"
        },
        {
          "name": "Ski",
          "latitude": "59.72049000",
          "longitude": "10.83882000"
        },
        {
          "name": "Skui",
          "latitude": "59.92746000",
          "longitude": "10.44750000"
        },
        {
          "name": "Sørum",
          "latitude": "59.98709000",
          "longitude": "11.24019000"
        },
        {
          "name": "Sørumsand",
          "latitude": "59.98621000",
          "longitude": "11.24154000"
        },
        {
          "name": "Ullensaker",
          "latitude": "60.14401000",
          "longitude": "11.17441000"
        },
        {
          "name": "Vestby",
          "latitude": "59.60228000",
          "longitude": "10.74807000"
        }
      ]
    },
    {
      "name": "Buskerud",
      "state_code": "06",
      "latitude": "60.48460250",
      "longitude": "8.69837640",
      "cities": [
        {
          "name": "Ål",
          "latitude": "60.63028000",
          "longitude": "8.56115000"
        },
        {
          "name": "Åros",
          "latitude": "59.70610000",
          "longitude": "10.51092000"
        },
        {
          "name": "Drammen",
          "latitude": "59.74389000",
          "longitude": "10.20449000"
        },
        {
          "name": "Flå",
          "latitude": "60.42910000",
          "longitude": "9.46611000"
        },
        {
          "name": "Flesberg",
          "latitude": "59.83283000",
          "longitude": "9.58308000"
        },
        {
          "name": "Geilo",
          "latitude": "60.53369000",
          "longitude": "8.20539000"
        },
        {
          "name": "Gol",
          "latitude": "60.69953000",
          "longitude": "8.95024000"
        },
        {
          "name": "Hemsedal",
          "latitude": "60.86114000",
          "longitude": "8.56537000"
        },
        {
          "name": "Hol",
          "latitude": "60.61528000",
          "longitude": "8.30194000"
        },
        {
          "name": "Hole",
          "latitude": "60.08017000",
          "longitude": "10.27840000"
        },
        {
          "name": "Hønefoss",
          "latitude": "60.16804000",
          "longitude": "10.25647000"
        },
        {
          "name": "Hurum",
          "latitude": "59.61401000",
          "longitude": "10.45763000"
        },
        {
          "name": "Hvittingfoss",
          "latitude": "59.48572000",
          "longitude": "10.01173000"
        },
        {
          "name": "Kongsberg",
          "latitude": "59.66516000",
          "longitude": "9.64653000"
        },
        {
          "name": "Krødsherad",
          "latitude": "60.17944000",
          "longitude": "9.62124000"
        },
        {
          "name": "Lier",
          "latitude": "59.78663000",
          "longitude": "10.24590000"
        },
        {
          "name": "Modum",
          "latitude": "59.97346000",
          "longitude": "10.00468000"
        },
        {
          "name": "Nedre Eiker",
          "latitude": "59.75023000",
          "longitude": "10.00736000"
        },
        {
          "name": "Nes",
          "latitude": "60.56804000",
          "longitude": "9.10169000"
        },
        {
          "name": "Nesbyen",
          "latitude": "60.56809000",
          "longitude": "9.10274000"
        },
        {
          "name": "Nore og Uvdal",
          "latitude": "60.26706000",
          "longitude": "8.94635000"
        },
        {
          "name": "Noresund",
          "latitude": "60.17985000",
          "longitude": "9.62411000"
        },
        {
          "name": "Øvre Eiker",
          "latitude": "59.77111000",
          "longitude": "9.90840000"
        },
        {
          "name": "Prestfoss",
          "latitude": "60.04343000",
          "longitude": "9.63520000"
        },
        {
          "name": "Ringerike",
          "latitude": "60.16018000",
          "longitude": "10.25660000"
        },
        {
          "name": "Rollag",
          "latitude": "59.98413000",
          "longitude": "9.29489000"
        },
        {
          "name": "Røyken",
          "latitude": "59.74019000",
          "longitude": "10.41321000"
        },
        {
          "name": "Sætre",
          "latitude": "59.68129000",
          "longitude": "10.52749000"
        },
        {
          "name": "Sigdal",
          "latitude": "60.04592000",
          "longitude": "9.63673000"
        },
        {
          "name": "Skoger",
          "latitude": "59.71327000",
          "longitude": "10.25356000"
        },
        {
          "name": "Tofte",
          "latitude": "59.54275000",
          "longitude": "10.56138000"
        },
        {
          "name": "Tranby",
          "latitude": "59.80850000",
          "longitude": "10.26114000"
        },
        {
          "name": "Vikersund",
          "latitude": "59.96838000",
          "longitude": "9.99107000"
        }
      ]
    },
    {
      "name": "Finnmark",
      "state_code": "20",
      "latitude": "70.48303880",
      "longitude": "26.01351070",
      "cities": [
        {
          "name": "Alta",
          "latitude": "69.97675000",
          "longitude": "23.29634000"
        },
        {
          "name": "Ávanuorri",
          "latitude": "70.99634000",
          "longitude": "24.66217000"
        },
        {
          "name": "Båtsfjord",
          "latitude": "70.63428000",
          "longitude": "29.71750000"
        },
        {
          "name": "Berlevåg",
          "latitude": "70.85778000",
          "longitude": "29.08636000"
        },
        {
          "name": "Bjørnevatn",
          "latitude": "69.66745000",
          "longitude": "29.98722000"
        },
        {
          "name": "Gamvik",
          "latitude": "71.04107000",
          "longitude": "27.85144000"
        },
        {
          "name": "Hammerfest",
          "latitude": "70.66257000",
          "longitude": "23.68295000"
        },
        {
          "name": "Hasvik",
          "latitude": "70.59164000",
          "longitude": "22.30272000"
        },
        {
          "name": "Honningsvåg",
          "latitude": "70.98209000",
          "longitude": "25.97037000"
        },
        {
          "name": "Kárášjohka",
          "latitude": "69.47187000",
          "longitude": "25.51122000"
        },
        {
          "name": "Karasjok",
          "latitude": "69.47224000",
          "longitude": "25.51885000"
        },
        {
          "name": "Kautokeino",
          "latitude": "69.01151000",
          "longitude": "23.04151000"
        },
        {
          "name": "Kirkenes",
          "latitude": "69.72706000",
          "longitude": "30.04578000"
        },
        {
          "name": "Kjøllefjord",
          "latitude": "70.94574000",
          "longitude": "27.34650000"
        },
        {
          "name": "Kvalsund",
          "latitude": "70.49910000",
          "longitude": "23.97393000"
        },
        {
          "name": "Lakselv",
          "latitude": "70.05133000",
          "longitude": "24.97182000"
        },
        {
          "name": "Lebesby",
          "latitude": "70.94535000",
          "longitude": "27.35134000"
        },
        {
          "name": "Loppa",
          "latitude": "70.23952000",
          "longitude": "22.35136000"
        },
        {
          "name": "Måsøy",
          "latitude": "70.99654000",
          "longitude": "24.66146000"
        },
        {
          "name": "Mehamn",
          "latitude": "71.04137000",
          "longitude": "27.85133000"
        },
        {
          "name": "Nesseby",
          "latitude": "69.88541000",
          "longitude": "28.43368000"
        },
        {
          "name": "Nordkapp",
          "latitude": "70.97808000",
          "longitude": "25.97473000"
        },
        {
          "name": "Øksfjord",
          "latitude": "70.23936000",
          "longitude": "22.35070000"
        },
        {
          "name": "Porsanger",
          "latitude": "70.05214000",
          "longitude": "24.95592000"
        },
        {
          "name": "Rypefjord",
          "latitude": "70.64126000",
          "longitude": "23.67213000"
        },
        {
          "name": "Sør-Varanger",
          "latitude": "69.72859000",
          "longitude": "30.04264000"
        },
        {
          "name": "Tana",
          "latitude": "70.19976000",
          "longitude": "28.18494000"
        },
        {
          "name": "Vadsø",
          "latitude": "70.07412000",
          "longitude": "29.74922000"
        },
        {
          "name": "Vardø",
          "latitude": "70.37040000",
          "longitude": "31.10866000"
        }
      ]
    },
    {
      "name": "Hedmark",
      "state_code": "04",
      "latitude": "61.39673110",
      "longitude": "11.56273690",
      "cities": [
        {
          "name": "Alvdal",
          "latitude": "62.10854000",
          "longitude": "10.63483000"
        },
        {
          "name": "Åmot",
          "latitude": "61.13199000",
          "longitude": "11.37328000"
        },
        {
          "name": "Åsnes",
          "latitude": "60.61363000",
          "longitude": "12.01200000"
        },
        {
          "name": "Brumunddal",
          "latitude": "60.88095000",
          "longitude": "10.93948000"
        },
        {
          "name": "Eidskog",
          "latitude": "59.98556000",
          "longitude": "12.12502000"
        },
        {
          "name": "Elverum",
          "latitude": "60.88159000",
          "longitude": "11.56314000"
        },
        {
          "name": "Engerdal",
          "latitude": "61.75774000",
          "longitude": "11.95966000"
        },
        {
          "name": "Folldal",
          "latitude": "62.13329000",
          "longitude": "9.99710000"
        },
        {
          "name": "Grue",
          "latitude": "60.45133000",
          "longitude": "12.05489000"
        },
        {
          "name": "Hamar",
          "latitude": "60.79450000",
          "longitude": "11.06798000"
        },
        {
          "name": "Innbygda",
          "latitude": "61.31484000",
          "longitude": "12.26374000"
        },
        {
          "name": "Kirkenær",
          "latitude": "60.45790000",
          "longitude": "12.05855000"
        },
        {
          "name": "Kongsvinger",
          "latitude": "60.19117000",
          "longitude": "11.99916000"
        },
        {
          "name": "Koppang",
          "latitude": "61.57219000",
          "longitude": "11.04659000"
        },
        {
          "name": "Løten",
          "latitude": "60.81771000",
          "longitude": "11.34373000"
        },
        {
          "name": "Moelv",
          "latitude": "60.93333000",
          "longitude": "10.70000000"
        },
        {
          "name": "Nord-Odal",
          "latitude": "60.39195000",
          "longitude": "11.54151000"
        },
        {
          "name": "Os",
          "latitude": "62.49536000",
          "longitude": "11.22807000"
        },
        {
          "name": "Rena",
          "latitude": "61.13222000",
          "longitude": "11.37156000"
        },
        {
          "name": "Rendalen",
          "latitude": "61.89004000",
          "longitude": "11.07694000"
        },
        {
          "name": "Ringsaker",
          "latitude": "60.88216000",
          "longitude": "10.95030000"
        },
        {
          "name": "Sand",
          "latitude": "60.39220000",
          "longitude": "11.54030000"
        },
        {
          "name": "Skarnes",
          "latitude": "60.25391000",
          "longitude": "11.68485000"
        },
        {
          "name": "Skotterud",
          "latitude": "59.98281000",
          "longitude": "12.12825000"
        },
        {
          "name": "Sør-Odal",
          "latitude": "60.25455000",
          "longitude": "11.68246000"
        },
        {
          "name": "Spetalen",
          "latitude": "60.18333000",
          "longitude": "11.90000000"
        },
        {
          "name": "Stange",
          "latitude": "60.71576000",
          "longitude": "11.19069000"
        },
        {
          "name": "Stor-Elvdal",
          "latitude": "61.57198000",
          "longitude": "11.04759000"
        },
        {
          "name": "Tolga",
          "latitude": "62.40984000",
          "longitude": "10.99770000"
        },
        {
          "name": "Trysil",
          "latitude": "61.31549000",
          "longitude": "12.26422000"
        },
        {
          "name": "Tynset",
          "latitude": "62.27387000",
          "longitude": "10.77626000"
        },
        {
          "name": "Våler",
          "latitude": "60.67845000",
          "longitude": "11.83314000"
        }
      ]
    },
    {
      "name": "Hordaland",
      "state_code": "12",
      "latitude": "60.27336740",
      "longitude": "5.72201940",
      "cities": [
        {
          "name": "Ågotnes",
          "latitude": "60.40306000",
          "longitude": "5.01927000"
        },
        {
          "name": "Askøy",
          "latitude": "60.40916000",
          "longitude": "5.22599000"
        },
        {
          "name": "Austevoll",
          "latitude": "60.09578000",
          "longitude": "5.22722000"
        },
        {
          "name": "Austrheim",
          "latitude": "60.77742000",
          "longitude": "4.93227000"
        },
        {
          "name": "Bergen",
          "latitude": "60.39200000",
          "longitude": "5.32800000"
        },
        {
          "name": "Bømlo",
          "latitude": "59.79384000",
          "longitude": "5.17624000"
        },
        {
          "name": "Dale",
          "latitude": "60.58639000",
          "longitude": "5.81888000"
        },
        {
          "name": "Eidfjord",
          "latitude": "60.46741000",
          "longitude": "7.06971000"
        },
        {
          "name": "Eikelandsosen",
          "latitude": "60.24175000",
          "longitude": "5.74433000"
        },
        {
          "name": "Espeland",
          "latitude": "60.38249000",
          "longitude": "5.46570000"
        },
        {
          "name": "Etne",
          "latitude": "59.66472000",
          "longitude": "5.93438000"
        },
        {
          "name": "Fedje",
          "latitude": "60.77873000",
          "longitude": "4.71965000"
        },
        {
          "name": "Fitjar",
          "latitude": "59.91742000",
          "longitude": "5.31637000"
        },
        {
          "name": "Fjell",
          "latitude": "60.36267000",
          "longitude": "5.12194000"
        },
        {
          "name": "Frekhaug",
          "latitude": "60.51321000",
          "longitude": "5.24252000"
        },
        {
          "name": "Fusa",
          "latitude": "60.24072000",
          "longitude": "5.74458000"
        },
        {
          "name": "Granvin",
          "latitude": "60.52629000",
          "longitude": "6.72178000"
        },
        {
          "name": "Hagavik",
          "latitude": "60.18076000",
          "longitude": "5.40146000"
        },
        {
          "name": "Hylkje",
          "latitude": "60.51028000",
          "longitude": "5.35444000"
        },
        {
          "name": "Indre Arna",
          "latitude": "60.41768000",
          "longitude": "5.47087000"
        },
        {
          "name": "Jondal",
          "latitude": "60.27620000",
          "longitude": "6.25257000"
        },
        {
          "name": "Kinsarvik",
          "latitude": "60.37567000",
          "longitude": "6.71948000"
        },
        {
          "name": "Knappskog",
          "latitude": "60.37906000",
          "longitude": "5.05602000"
        },
        {
          "name": "Knarvik",
          "latitude": "60.54530000",
          "longitude": "5.28208000"
        },
        {
          "name": "Kvam",
          "latitude": "60.36977000",
          "longitude": "6.14344000"
        },
        {
          "name": "Kvinnherad",
          "latitude": "59.98421000",
          "longitude": "6.01227000"
        },
        {
          "name": "Leirvik",
          "latitude": "59.77977000",
          "longitude": "5.50051000"
        },
        {
          "name": "Lindås",
          "latitude": "60.54910000",
          "longitude": "5.28559000"
        },
        {
          "name": "Lonevåg",
          "latitude": "60.52556000",
          "longitude": "5.49563000"
        },
        {
          "name": "Manger",
          "latitude": "60.64145000",
          "longitude": "5.04136000"
        },
        {
          "name": "Masfjorden",
          "latitude": "60.79947000",
          "longitude": "5.30035000"
        },
        {
          "name": "Meland",
          "latitude": "60.51777000",
          "longitude": "5.24063000"
        },
        {
          "name": "Modalen",
          "latitude": "60.81735000",
          "longitude": "5.80790000"
        },
        {
          "name": "Mosterhamn",
          "latitude": "59.69919000",
          "longitude": "5.38585000"
        },
        {
          "name": "Norheimsund",
          "latitude": "60.37089000",
          "longitude": "6.14562000"
        },
        {
          "name": "Odda",
          "latitude": "60.06697000",
          "longitude": "6.54541000"
        },
        {
          "name": "Os",
          "latitude": "60.18547000",
          "longitude": "5.46962000"
        },
        {
          "name": "Osterøy",
          "latitude": "60.52389000",
          "longitude": "5.50551000"
        },
        {
          "name": "Øygarden",
          "latitude": "60.59041000",
          "longitude": "4.83890000"
        },
        {
          "name": "Øystese",
          "latitude": "60.38825000",
          "longitude": "6.19251000"
        },
        {
          "name": "Radøy",
          "latitude": "60.64187000",
          "longitude": "5.04110000"
        },
        {
          "name": "Rosendal",
          "latitude": "59.98589000",
          "longitude": "6.01157000"
        },
        {
          "name": "Rubbestadneset",
          "latitude": "59.81559000",
          "longitude": "5.26822000"
        },
        {
          "name": "Sagvåg",
          "latitude": "59.78139000",
          "longitude": "5.38996000"
        },
        {
          "name": "Samnanger",
          "latitude": "60.37745000",
          "longitude": "5.76219000"
        },
        {
          "name": "Sandsli",
          "latitude": "60.30323000",
          "longitude": "5.28554000"
        },
        {
          "name": "Skogsvågen",
          "latitude": "60.25512000",
          "longitude": "5.10161000"
        },
        {
          "name": "Stord",
          "latitude": "59.78092000",
          "longitude": "5.49980000"
        },
        {
          "name": "Storebø",
          "latitude": "60.09485000",
          "longitude": "5.22705000"
        },
        {
          "name": "Straume",
          "latitude": "60.36131000",
          "longitude": "5.12199000"
        },
        {
          "name": "Sund",
          "latitude": "60.27019000",
          "longitude": "5.07225000"
        },
        {
          "name": "Sveio",
          "latitude": "59.54303000",
          "longitude": "5.35410000"
        },
        {
          "name": "Syfteland",
          "latitude": "60.23803000",
          "longitude": "5.45285000"
        },
        {
          "name": "Tysnes",
          "latitude": "60.04076000",
          "longitude": "5.53129000"
        },
        {
          "name": "Ullensvang",
          "latitude": "60.37501000",
          "longitude": "6.72073000"
        },
        {
          "name": "Ulvik",
          "latitude": "60.56719000",
          "longitude": "6.91871000"
        },
        {
          "name": "Vaksdal",
          "latitude": "60.59030000",
          "longitude": "5.82272000"
        },
        {
          "name": "Voss",
          "latitude": "60.62780000",
          "longitude": "6.41831000"
        },
        {
          "name": "Ytre Arna",
          "latitude": "60.46175000",
          "longitude": "5.43265000"
        },
        {
          "name": "Ytrebygda",
          "latitude": "60.30504000",
          "longitude": "5.28236000"
        }
      ]
    },
    {
      "name": "Jan Mayen",
      "state_code": "22",
      "latitude": "71.03181800",
      "longitude": "-8.29203460",
      "cities": []
    },
    {
      "name": "Møre og Romsdal",
      "state_code": "15",
      "latitude": "62.84068330",
      "longitude": "7.00714300",
      "cities": [
        {
          "name": "Ålesund",
          "latitude": "62.47225000",
          "longitude": "6.15492000"
        },
        {
          "name": "Åndalsnes",
          "latitude": "62.56749000",
          "longitude": "7.68709000"
        },
        {
          "name": "Aukra",
          "latitude": "62.80500000",
          "longitude": "6.88722000"
        },
        {
          "name": "Aure",
          "latitude": "63.26750000",
          "longitude": "8.52778000"
        },
        {
          "name": "Averøy",
          "latitude": "63.05344000",
          "longitude": "7.63265000"
        },
        {
          "name": "Batnfjordsøra",
          "latitude": "62.89463000",
          "longitude": "7.67251000"
        },
        {
          "name": "Brattvåg",
          "latitude": "62.59991000",
          "longitude": "6.44426000"
        },
        {
          "name": "Eide",
          "latitude": "62.91570000",
          "longitude": "7.44496000"
        },
        {
          "name": "Eidsvåg",
          "latitude": "62.77656000",
          "longitude": "8.06550000"
        },
        {
          "name": "Elnesvågen",
          "latitude": "62.85426000",
          "longitude": "7.13769000"
        },
        {
          "name": "Fræna",
          "latitude": "62.85375000",
          "longitude": "7.15380000"
        },
        {
          "name": "Giske",
          "latitude": "62.50070000",
          "longitude": "6.13472000"
        },
        {
          "name": "Gjemnes",
          "latitude": "62.89379000",
          "longitude": "7.67714000"
        },
        {
          "name": "Halsa",
          "latitude": "63.11855000",
          "longitude": "8.31536000"
        },
        {
          "name": "Haram",
          "latitude": "62.59898000",
          "longitude": "6.44483000"
        },
        {
          "name": "Hareid",
          "latitude": "62.36742000",
          "longitude": "6.02114000"
        },
        {
          "name": "Herøy",
          "latitude": "62.33333000",
          "longitude": "5.63598000"
        },
        {
          "name": "Hjelset",
          "latitude": "62.78050000",
          "longitude": "7.49277000"
        },
        {
          "name": "Hopen",
          "latitude": "63.46539000",
          "longitude": "8.01437000"
        },
        {
          "name": "Kristiansund",
          "latitude": "63.11152000",
          "longitude": "7.73198000"
        },
        {
          "name": "Larsnes",
          "latitude": "62.20282000",
          "longitude": "5.57729000"
        },
        {
          "name": "Midsund",
          "latitude": "62.67614000",
          "longitude": "6.67776000"
        },
        {
          "name": "Molde",
          "latitude": "62.73807000",
          "longitude": "7.15882000"
        },
        {
          "name": "Nesset",
          "latitude": "62.77619000",
          "longitude": "8.06623000"
        },
        {
          "name": "Norddal",
          "latitude": "62.29910000",
          "longitude": "7.26145000"
        },
        {
          "name": "Nordstranda",
          "latitude": "62.51384000",
          "longitude": "6.13166000"
        },
        {
          "name": "Ørskog",
          "latitude": "62.48450000",
          "longitude": "6.82025000"
        },
        {
          "name": "Ørsta",
          "latitude": "62.19937000",
          "longitude": "6.13084000"
        },
        {
          "name": "Rauma",
          "latitude": "62.56810000",
          "longitude": "7.68612000"
        },
        {
          "name": "Rensvik",
          "latitude": "63.09843000",
          "longitude": "7.82026000"
        },
        {
          "name": "Sande",
          "latitude": "62.20455000",
          "longitude": "5.57971000"
        },
        {
          "name": "Sandøy",
          "latitude": "62.78167000",
          "longitude": "6.46875000"
        },
        {
          "name": "Sjøholt",
          "latitude": "62.48263000",
          "longitude": "6.81376000"
        },
        {
          "name": "Skodje",
          "latitude": "62.50306000",
          "longitude": "6.69817000"
        },
        {
          "name": "Smøla",
          "latitude": "63.46526000",
          "longitude": "8.01814000"
        },
        {
          "name": "Steinshamn",
          "latitude": "62.78389000",
          "longitude": "6.47065000"
        },
        {
          "name": "Stordal",
          "latitude": "62.38214000",
          "longitude": "6.98708000"
        },
        {
          "name": "Stranda",
          "latitude": "62.31132000",
          "longitude": "6.93115000"
        },
        {
          "name": "Sula",
          "latitude": "62.44447000",
          "longitude": "6.21229000"
        },
        {
          "name": "Sunndal",
          "latitude": "62.67464000",
          "longitude": "8.56188000"
        },
        {
          "name": "Sunndalsøra",
          "latitude": "62.67519000",
          "longitude": "8.56327000"
        },
        {
          "name": "Surnadal",
          "latitude": "62.97533000",
          "longitude": "8.72490000"
        },
        {
          "name": "Sykkylven",
          "latitude": "62.38962000",
          "longitude": "6.57825000"
        },
        {
          "name": "Tingvoll",
          "latitude": "62.91194000",
          "longitude": "8.20673000"
        },
        {
          "name": "Tomra",
          "latitude": "62.58118000",
          "longitude": "6.93106000"
        },
        {
          "name": "Ulstein",
          "latitude": "62.34423000",
          "longitude": "5.85241000"
        },
        {
          "name": "Ulsteinvik",
          "latitude": "62.34317000",
          "longitude": "5.84869000"
        },
        {
          "name": "Ulsteinvik weather pws station",
          "latitude": "62.34338000",
          "longitude": "5.84385000"
        },
        {
          "name": "Vanylven",
          "latitude": "62.10003000",
          "longitude": "5.55827000"
        },
        {
          "name": "Vatne",
          "latitude": "62.55826000",
          "longitude": "6.61708000"
        },
        {
          "name": "Vestnes",
          "latitude": "62.62130000",
          "longitude": "7.08966000"
        },
        {
          "name": "Volda",
          "latitude": "62.14678000",
          "longitude": "6.06800000"
        }
      ]
    },
    {
      "name": "Nord-Trøndelag",
      "state_code": "17",
      "latitude": "64.43707920",
      "longitude": "11.74629500",
      "cities": []
    },
    {
      "name": "Nordland",
      "state_code": "18",
      "latitude": "67.69305800",
      "longitude": "12.70739360",
      "cities": [
        {
          "name": "Alstahaug",
          "latitude": "65.97556000",
          "longitude": "12.56836000"
        },
        {
          "name": "Andenes",
          "latitude": "69.31428000",
          "longitude": "16.11939000"
        },
        {
          "name": "Andøy",
          "latitude": "69.08033000",
          "longitude": "15.77637000"
        },
        {
          "name": "Ballangen",
          "latitude": "68.34365000",
          "longitude": "16.83317000"
        },
        {
          "name": "Beiarn",
          "latitude": "67.00725000",
          "longitude": "14.57304000"
        },
        {
          "name": "Bindal",
          "latitude": "65.08780000",
          "longitude": "12.37747000"
        },
        {
          "name": "Bjerkvik",
          "latitude": "68.54917000",
          "longitude": "17.55709000"
        },
        {
          "name": "Bodø",
          "latitude": "67.28325000",
          "longitude": "14.38319000"
        },
        {
          "name": "Bogen",
          "latitude": "68.52647000",
          "longitude": "16.99280000"
        },
        {
          "name": "Bø",
          "latitude": "68.68823000",
          "longitude": "14.47899000"
        },
        {
          "name": "Brønnøy",
          "latitude": "65.46786000",
          "longitude": "12.20626000"
        },
        {
          "name": "Brønnøysund",
          "latitude": "65.47487000",
          "longitude": "12.21285000"
        },
        {
          "name": "Dønna",
          "latitude": "66.10606000",
          "longitude": "12.48189000"
        },
        {
          "name": "Evenes",
          "latitude": "68.52334000",
          "longitude": "17.00888000"
        },
        {
          "name": "Evjen",
          "latitude": "68.26667000",
          "longitude": "13.73333000"
        },
        {
          "name": "Fauske",
          "latitude": "67.25963000",
          "longitude": "15.39410000"
        },
        {
          "name": "Flakstad",
          "latitude": "68.09292000",
          "longitude": "13.23310000"
        },
        {
          "name": "Gildeskål",
          "latitude": "67.03394000",
          "longitude": "14.02582000"
        },
        {
          "name": "Gladstad",
          "latitude": "65.67683000",
          "longitude": "11.96218000"
        },
        {
          "name": "Glomfjord",
          "latitude": "66.81663000",
          "longitude": "13.94404000"
        },
        {
          "name": "Grane",
          "latitude": "65.53865000",
          "longitude": "13.38499000"
        },
        {
          "name": "Gravdal",
          "latitude": "68.11832000",
          "longitude": "13.55339000"
        },
        {
          "name": "Hadsel",
          "latitude": "68.56328000",
          "longitude": "14.90835000"
        },
        {
          "name": "Hamarøy",
          "latitude": "68.08381000",
          "longitude": "15.61671000"
        },
        {
          "name": "Hattfjelldal",
          "latitude": "65.59765000",
          "longitude": "13.98948000"
        },
        {
          "name": "Hauknes",
          "latitude": "66.28333000",
          "longitude": "14.06667000"
        },
        {
          "name": "Hemnes",
          "latitude": "66.07712000",
          "longitude": "13.81350000"
        },
        {
          "name": "Hemnesberget",
          "latitude": "66.22489000",
          "longitude": "13.61643000"
        },
        {
          "name": "Herøy",
          "latitude": "65.98427000",
          "longitude": "12.28916000"
        },
        {
          "name": "Inndyr",
          "latitude": "67.03353000",
          "longitude": "14.02663000"
        },
        {
          "name": "Kabelvåg",
          "latitude": "68.21066000",
          "longitude": "14.47554000"
        },
        {
          "name": "Kjøpsvik",
          "latitude": "68.09696000",
          "longitude": "16.37416000"
        },
        {
          "name": "Korgen",
          "latitude": "66.07662000",
          "longitude": "13.82160000"
        },
        {
          "name": "Leirfjord",
          "latitude": "66.06348000",
          "longitude": "12.93667000"
        },
        {
          "name": "Leknes",
          "latitude": "68.14746000",
          "longitude": "13.61151000"
        },
        {
          "name": "Leland",
          "latitude": "66.06406000",
          "longitude": "12.94325000"
        },
        {
          "name": "Løding",
          "latitude": "67.30055000",
          "longitude": "14.73852000"
        },
        {
          "name": "Lødingen",
          "latitude": "68.40998000",
          "longitude": "15.99012000"
        },
        {
          "name": "Løpsmarka",
          "latitude": "67.31343000",
          "longitude": "14.44934000"
        },
        {
          "name": "Lurøy",
          "latitude": "66.41887000",
          "longitude": "12.84248000"
        },
        {
          "name": "Melbu",
          "latitude": "68.50246000",
          "longitude": "14.79962000"
        },
        {
          "name": "Meløy",
          "latitude": "66.87204000",
          "longitude": "13.70763000"
        },
        {
          "name": "Mo i Rana",
          "latitude": "66.31278000",
          "longitude": "14.14278000"
        },
        {
          "name": "Mosjøen",
          "latitude": "65.83599000",
          "longitude": "13.19076000"
        },
        {
          "name": "Moskenes",
          "latitude": "67.93467000",
          "longitude": "13.09109000"
        },
        {
          "name": "Myre",
          "latitude": "68.91400000",
          "longitude": "15.07843000"
        },
        {
          "name": "Narvik",
          "latitude": "68.43896000",
          "longitude": "17.42775000"
        },
        {
          "name": "Nesna",
          "latitude": "66.19796000",
          "longitude": "13.02229000"
        },
        {
          "name": "Øksnes",
          "latitude": "68.91463000",
          "longitude": "15.08703000"
        },
        {
          "name": "Ørnes",
          "latitude": "66.86878000",
          "longitude": "13.70579000"
        },
        {
          "name": "Rana",
          "latitude": "66.31122000",
          "longitude": "14.13996000"
        },
        {
          "name": "Reine",
          "latitude": "67.93249000",
          "longitude": "13.08955000"
        },
        {
          "name": "Rognan",
          "latitude": "67.10021000",
          "longitude": "15.39086000"
        },
        {
          "name": "Rødøy",
          "latitude": "66.71195000",
          "longitude": "13.28530000"
        },
        {
          "name": "Røst",
          "latitude": "67.51727000",
          "longitude": "12.11564000"
        },
        {
          "name": "Saltdal",
          "latitude": "67.10144000",
          "longitude": "15.39458000"
        },
        {
          "name": "Sandnessjøen",
          "latitude": "66.02166000",
          "longitude": "12.63158000"
        },
        {
          "name": "Sortland",
          "latitude": "68.69618000",
          "longitude": "15.41174000"
        },
        {
          "name": "Sømna",
          "latitude": "65.31379000",
          "longitude": "12.16729000"
        },
        {
          "name": "Sørfold",
          "latitude": "67.34803000",
          "longitude": "15.59445000"
        },
        {
          "name": "Sørland",
          "latitude": "67.66564000",
          "longitude": "12.69784000"
        },
        {
          "name": "Steigen",
          "latitude": "67.77625000",
          "longitude": "15.01621000"
        },
        {
          "name": "Stokmarknes",
          "latitude": "68.56462000",
          "longitude": "14.91075000"
        },
        {
          "name": "Straume",
          "latitude": "68.68880000",
          "longitude": "14.47205000"
        },
        {
          "name": "Straumen",
          "latitude": "67.34769000",
          "longitude": "15.60493000"
        },
        {
          "name": "Svolvær",
          "latitude": "68.23417000",
          "longitude": "14.56834000"
        },
        {
          "name": "Terråk",
          "latitude": "65.08700000",
          "longitude": "12.37148000"
        },
        {
          "name": "Tjeldsund",
          "latitude": "68.55557000",
          "longitude": "16.36172000"
        },
        {
          "name": "Træna",
          "latitude": "66.50159000",
          "longitude": "12.09645000"
        },
        {
          "name": "Trofors",
          "latitude": "65.53335000",
          "longitude": "13.40631000"
        },
        {
          "name": "Tysfjord",
          "latitude": "68.09772000",
          "longitude": "16.37591000"
        },
        {
          "name": "Vågan",
          "latitude": "68.23220000",
          "longitude": "14.56226000"
        },
        {
          "name": "Værøy",
          "latitude": "67.66374000",
          "longitude": "12.69337000"
        },
        {
          "name": "Vefsn",
          "latitude": "65.84109000",
          "longitude": "13.20024000"
        },
        {
          "name": "Vega",
          "latitude": "65.67539000",
          "longitude": "11.96456000"
        },
        {
          "name": "Vestvågøy",
          "latitude": "68.14830000",
          "longitude": "13.61119000"
        },
        {
          "name": "Vevelstad",
          "latitude": "65.70002000",
          "longitude": "12.43921000"
        },
        {
          "name": "Vik",
          "latitude": "65.31254000",
          "longitude": "12.16734000"
        }
      ]
    },
    {
      "name": "Oppland",
      "state_code": "05",
      "latitude": "61.54227520",
      "longitude": "9.71663150",
      "cities": [
        {
          "name": "Bagn",
          "latitude": "60.82249000",
          "longitude": "9.55207000"
        },
        {
          "name": "Dokka",
          "latitude": "60.83500000",
          "longitude": "10.07362000"
        },
        {
          "name": "Dombås",
          "latitude": "62.07554000",
          "longitude": "9.12785000"
        },
        {
          "name": "Dovre",
          "latitude": "61.98582000",
          "longitude": "9.24947000"
        },
        {
          "name": "Etnedal",
          "latitude": "60.88872000",
          "longitude": "9.64031000"
        },
        {
          "name": "Fagernes",
          "latitude": "60.98584000",
          "longitude": "9.23236000"
        },
        {
          "name": "Fossbergom",
          "latitude": "61.83772000",
          "longitude": "8.56842000"
        },
        {
          "name": "Gausdal",
          "latitude": "61.22685000",
          "longitude": "10.22145000"
        },
        {
          "name": "Gjøvik",
          "latitude": "60.79472000",
          "longitude": "10.69287000"
        },
        {
          "name": "Gran",
          "latitude": "60.39293000",
          "longitude": "10.56045000"
        },
        {
          "name": "Grua",
          "latitude": "60.25701000",
          "longitude": "10.66222000"
        },
        {
          "name": "Hov",
          "latitude": "60.69870000",
          "longitude": "10.35193000"
        },
        {
          "name": "Hundorp",
          "latitude": "61.55523000",
          "longitude": "9.94069000"
        },
        {
          "name": "Jevnaker",
          "latitude": "60.24060000",
          "longitude": "10.38587000"
        },
        {
          "name": "Lena",
          "latitude": "60.67391000",
          "longitude": "10.81317000"
        },
        {
          "name": "Lesja",
          "latitude": "62.11785000",
          "longitude": "8.86262000"
        },
        {
          "name": "Lillehammer",
          "latitude": "61.11464000",
          "longitude": "10.46743000"
        },
        {
          "name": "Lom",
          "latitude": "61.83639000",
          "longitude": "8.56811000"
        },
        {
          "name": "Lunner",
          "latitude": "60.29462000",
          "longitude": "10.60860000"
        },
        {
          "name": "Nord-Aurdal",
          "latitude": "60.98531000",
          "longitude": "9.23661000"
        },
        {
          "name": "Nord-Fron",
          "latitude": "61.59556000",
          "longitude": "9.74830000"
        },
        {
          "name": "Nordre Land",
          "latitude": "60.83471000",
          "longitude": "10.07543000"
        },
        {
          "name": "Otta",
          "latitude": "61.77120000",
          "longitude": "9.53529000"
        },
        {
          "name": "Østre Toten",
          "latitude": "60.67659000",
          "longitude": "10.81997000"
        },
        {
          "name": "Øyer",
          "latitude": "61.26495000",
          "longitude": "10.41297000"
        },
        {
          "name": "Øystre Slidre",
          "latitude": "61.13377000",
          "longitude": "9.07872000"
        },
        {
          "name": "Raufoss",
          "latitude": "60.72604000",
          "longitude": "10.61330000"
        },
        {
          "name": "Reinsvoll",
          "latitude": "60.67977000",
          "longitude": "10.62175000"
        },
        {
          "name": "Ringebu",
          "latitude": "61.52980000",
          "longitude": "10.14180000"
        },
        {
          "name": "Sel",
          "latitude": "61.77278000",
          "longitude": "9.53415000"
        },
        {
          "name": "Skjåk",
          "latitude": "61.88349000",
          "longitude": "8.26490000"
        },
        {
          "name": "Skreia",
          "latitude": "60.65257000",
          "longitude": "10.93564000"
        },
        {
          "name": "Søndre Land",
          "latitude": "60.69944000",
          "longitude": "10.35086000"
        },
        {
          "name": "Sør-Aurdal",
          "latitude": "60.82242000",
          "longitude": "9.54836000"
        },
        {
          "name": "Sør-Fron",
          "latitude": "61.55652000",
          "longitude": "9.93949000"
        },
        {
          "name": "Tretten",
          "latitude": "61.31423000",
          "longitude": "10.30066000"
        },
        {
          "name": "Vågå",
          "latitude": "61.87565000",
          "longitude": "9.09572000"
        },
        {
          "name": "Vågåmo",
          "latitude": "61.87505000",
          "longitude": "9.09671000"
        },
        {
          "name": "Vang",
          "latitude": "61.12564000",
          "longitude": "8.57167000"
        },
        {
          "name": "Vestre Slidre",
          "latitude": "61.08842000",
          "longitude": "8.98196000"
        },
        {
          "name": "Vestre Toten",
          "latitude": "60.72593000",
          "longitude": "10.60764000"
        },
        {
          "name": "Vinstra",
          "latitude": "61.59496000",
          "longitude": "9.75134000"
        }
      ]
    },
    {
      "name": "Oslo",
      "state_code": "03",
      "latitude": "59.91386880",
      "longitude": "10.75224540",
      "cities": [
        {
          "name": "Oslo",
          "latitude": "59.91273000",
          "longitude": "10.74609000"
        },
        {
          "name": "Sjølyststranda",
          "latitude": "59.92105000",
          "longitude": "10.68017000"
        }
      ]
    },
    {
      "name": "Østfold",
      "state_code": "01",
      "latitude": "59.25582860",
      "longitude": "11.32790060",
      "cities": [
        {
          "name": "Aremark",
          "latitude": "59.22198000",
          "longitude": "11.69582000"
        },
        {
          "name": "Askim",
          "latitude": "59.58464000",
          "longitude": "11.16084000"
        },
        {
          "name": "Eidsberg",
          "latitude": "59.55148000",
          "longitude": "11.33587000"
        },
        {
          "name": "Fossby",
          "latitude": "59.22218000",
          "longitude": "11.69928000"
        },
        {
          "name": "Fredrikstad",
          "latitude": "59.21759000",
          "longitude": "10.93787000"
        },
        {
          "name": "Halden",
          "latitude": "59.12258000",
          "longitude": "11.38709000"
        },
        {
          "name": "Hobøl",
          "latitude": "59.62252000",
          "longitude": "10.94979000"
        },
        {
          "name": "Hvaler",
          "latitude": "59.02809000",
          "longitude": "11.03110000"
        },
        {
          "name": "Karlshus",
          "latitude": "59.35195000",
          "longitude": "10.87226000"
        },
        {
          "name": "Knappstad",
          "latitude": "59.62424000",
          "longitude": "11.03274000"
        },
        {
          "name": "Larkollen",
          "latitude": "59.33196000",
          "longitude": "10.66687000"
        },
        {
          "name": "Lervik",
          "latitude": "59.27119000",
          "longitude": "10.74610000"
        },
        {
          "name": "Marker",
          "latitude": "59.47952000",
          "longitude": "11.65917000"
        },
        {
          "name": "Moss",
          "latitude": "59.43436000",
          "longitude": "10.65968000"
        },
        {
          "name": "Mysen",
          "latitude": "59.55354000",
          "longitude": "11.32578000"
        },
        {
          "name": "Ørje",
          "latitude": "59.48023000",
          "longitude": "11.66016000"
        },
        {
          "name": "Råde",
          "latitude": "59.35162000",
          "longitude": "10.87135000"
        },
        {
          "name": "Rakkestad",
          "latitude": "59.42822000",
          "longitude": "11.34350000"
        },
        {
          "name": "Rømskog",
          "latitude": "59.74968000",
          "longitude": "11.81122000"
        },
        {
          "name": "Rygge",
          "latitude": "59.40629000",
          "longitude": "10.69298000"
        },
        {
          "name": "Ryggebyen",
          "latitude": "59.37500000",
          "longitude": "10.75000000"
        },
        {
          "name": "Sarpsborg",
          "latitude": "59.28148000",
          "longitude": "11.11167000"
        },
        {
          "name": "Skiptvet",
          "latitude": "59.47751000",
          "longitude": "11.16171000"
        },
        {
          "name": "Skjærhalden",
          "latitude": "59.02526000",
          "longitude": "11.03685000"
        },
        {
          "name": "Skjeberg",
          "latitude": "59.21148000",
          "longitude": "11.19025000"
        },
        {
          "name": "Spydeberg",
          "latitude": "59.62028000",
          "longitude": "11.08069000"
        },
        {
          "name": "Tomter",
          "latitude": "59.65910000",
          "longitude": "10.99487000"
        },
        {
          "name": "Trøgstad",
          "latitude": "59.64016000",
          "longitude": "11.31890000"
        },
        {
          "name": "Våler",
          "latitude": "59.48870000",
          "longitude": "10.86551000"
        }
      ]
    },
    {
      "name": "Rogaland",
      "state_code": "11",
      "latitude": "59.14895440",
      "longitude": "6.01434320",
      "cities": [
        {
          "name": "Åkrehamn",
          "latitude": "59.26053000",
          "longitude": "5.18689000"
        },
        {
          "name": "Bjerkreim",
          "latitude": "58.63050000",
          "longitude": "6.08130000"
        },
        {
          "name": "Bokn",
          "latitude": "59.23062000",
          "longitude": "5.43524000"
        },
        {
          "name": "Bryne",
          "latitude": "58.73536000",
          "longitude": "5.64766000"
        },
        {
          "name": "Egersund",
          "latitude": "58.45133000",
          "longitude": "5.99970000"
        },
        {
          "name": "Eigersund",
          "latitude": "58.45236000",
          "longitude": "6.00314000"
        },
        {
          "name": "Eike",
          "latitude": "59.39833000",
          "longitude": "5.36389000"
        },
        {
          "name": "Finnøy",
          "latitude": "59.17117000",
          "longitude": "5.87398000"
        },
        {
          "name": "Forsand",
          "latitude": "58.89929000",
          "longitude": "6.09642000"
        },
        {
          "name": "Gjesdal",
          "latitude": "58.76478000",
          "longitude": "5.85500000"
        },
        {
          "name": "Hå",
          "latitude": "58.61610000",
          "longitude": "5.64497000"
        },
        {
          "name": "Hauge i Dalane",
          "latitude": "58.34361000",
          "longitude": "6.28121000"
        },
        {
          "name": "Haugesund",
          "latitude": "59.41015000",
          "longitude": "5.27551000"
        },
        {
          "name": "Hjelmeland",
          "latitude": "59.23668000",
          "longitude": "6.17912000"
        },
        {
          "name": "Hommersåk",
          "latitude": "58.92556000",
          "longitude": "5.85104000"
        },
        {
          "name": "Jørpeland",
          "latitude": "59.02251000",
          "longitude": "6.04078000"
        },
        {
          "name": "Judaberg",
          "latitude": "59.17204000",
          "longitude": "5.87617000"
        },
        {
          "name": "Karmøy",
          "latitude": "59.28079000",
          "longitude": "5.30529000"
        },
        {
          "name": "Klepp",
          "latitude": "58.77655000",
          "longitude": "5.63009000"
        },
        {
          "name": "Kopervik",
          "latitude": "59.28354000",
          "longitude": "5.30669000"
        },
        {
          "name": "Kvitsøy",
          "latitude": "59.06471000",
          "longitude": "5.40537000"
        },
        {
          "name": "Lund",
          "latitude": "58.45715000",
          "longitude": "6.54871000"
        },
        {
          "name": "Lyefjell",
          "latitude": "58.73539000",
          "longitude": "5.73615000"
        },
        {
          "name": "Moi",
          "latitude": "58.45674000",
          "longitude": "6.55184000"
        },
        {
          "name": "Nærbø",
          "latitude": "58.66546000",
          "longitude": "5.63788000"
        },
        {
          "name": "Ølen",
          "latitude": "59.60437000",
          "longitude": "5.80799000"
        },
        {
          "name": "Randaberg",
          "latitude": "58.99870000",
          "longitude": "5.62055000"
        },
        {
          "name": "Rennesøy",
          "latitude": "59.09899000",
          "longitude": "5.69966000"
        },
        {
          "name": "Sandnes",
          "latitude": "58.84760000",
          "longitude": "5.72855000"
        },
        {
          "name": "Sauda",
          "latitude": "59.65067000",
          "longitude": "6.35312000"
        },
        {
          "name": "Sæveland",
          "latitude": "59.26667000",
          "longitude": "5.20000000"
        },
        {
          "name": "Skudeneshavn",
          "latitude": "59.14856000",
          "longitude": "5.25687000"
        },
        {
          "name": "Sokndal",
          "latitude": "58.34256000",
          "longitude": "6.29425000"
        },
        {
          "name": "Sola",
          "latitude": "58.88806000",
          "longitude": "5.64728000"
        },
        {
          "name": "Stavanger",
          "latitude": "58.96941000",
          "longitude": "5.72856000"
        },
        {
          "name": "Strand",
          "latitude": "59.02353000",
          "longitude": "6.04343000"
        },
        {
          "name": "Suldal",
          "latitude": "59.48571000",
          "longitude": "6.25222000"
        },
        {
          "name": "Tananger",
          "latitude": "58.93618000",
          "longitude": "5.57410000"
        },
        {
          "name": "Tau",
          "latitude": "59.06481000",
          "longitude": "5.92250000"
        },
        {
          "name": "Time",
          "latitude": "58.73636000",
          "longitude": "5.65297000"
        },
        {
          "name": "Tysvær",
          "latitude": "59.42159000",
          "longitude": "5.44781000"
        },
        {
          "name": "Utsira",
          "latitude": "59.30565000",
          "longitude": "4.88621000"
        },
        {
          "name": "Varhaug",
          "latitude": "58.61810000",
          "longitude": "5.65702000"
        },
        {
          "name": "Vedavågen",
          "latitude": "59.29483000",
          "longitude": "5.21874000"
        },
        {
          "name": "Vigrestad",
          "latitude": "58.57103000",
          "longitude": "5.68182000"
        },
        {
          "name": "Vikeså",
          "latitude": "58.63759000",
          "longitude": "6.09133000"
        },
        {
          "name": "Vikevåg",
          "latitude": "59.09754000",
          "longitude": "5.69790000"
        },
        {
          "name": "Vindafjord",
          "latitude": "59.60543000",
          "longitude": "5.80784000"
        },
        {
          "name": "Vormedal",
          "latitude": "59.35607000",
          "longitude": "5.31962000"
        }
      ]
    },
    {
      "name": "Sogn og Fjordane",
      "state_code": "14",
      "latitude": "61.55394350",
      "longitude": "6.33258790",
      "cities": [
        {
          "name": "Årdal",
          "latitude": "61.23639000",
          "longitude": "7.70204000"
        },
        {
          "name": "Årdalstangen",
          "latitude": "61.23581000",
          "longitude": "7.70370000"
        },
        {
          "name": "Askvoll",
          "latitude": "61.34850000",
          "longitude": "5.05318000"
        },
        {
          "name": "Aurland",
          "latitude": "60.90556000",
          "longitude": "7.18734000"
        },
        {
          "name": "Balestrand",
          "latitude": "61.20809000",
          "longitude": "6.53551000"
        },
        {
          "name": "Bremanger",
          "latitude": "61.76862000",
          "longitude": "5.28907000"
        },
        {
          "name": "Dale",
          "latitude": "61.36353000",
          "longitude": "5.40036000"
        },
        {
          "name": "Eid",
          "latitude": "61.90684000",
          "longitude": "5.99321000"
        },
        {
          "name": "Eivindvik",
          "latitude": "60.98133000",
          "longitude": "5.07497000"
        },
        {
          "name": "Farnes",
          "latitude": "61.30850000",
          "longitude": "7.79694000"
        },
        {
          "name": "Fjaler",
          "latitude": "61.36383000",
          "longitude": "5.39808000"
        },
        {
          "name": "Flora",
          "latitude": "61.59994000",
          "longitude": "5.03144000"
        },
        {
          "name": "Florø",
          "latitude": "61.59957000",
          "longitude": "5.03280000"
        },
        {
          "name": "Førde",
          "latitude": "61.45045000",
          "longitude": "5.85397000"
        },
        {
          "name": "Gaular",
          "latitude": "61.32564000",
          "longitude": "5.79523000"
        },
        {
          "name": "Gaupne",
          "latitude": "61.40472000",
          "longitude": "7.29458000"
        },
        {
          "name": "Gloppen",
          "latitude": "61.77728000",
          "longitude": "6.21561000"
        },
        {
          "name": "Gulen",
          "latitude": "60.98192000",
          "longitude": "5.07408000"
        },
        {
          "name": "Hardbakke",
          "latitude": "61.07562000",
          "longitude": "4.84111000"
        },
        {
          "name": "Hermansverk",
          "latitude": "61.18461000",
          "longitude": "6.85016000"
        },
        {
          "name": "Hornindal",
          "latitude": "61.96925000",
          "longitude": "6.52249000"
        },
        {
          "name": "Høyanger",
          "latitude": "61.21880000",
          "longitude": "6.07308000"
        },
        {
          "name": "Hyllestad",
          "latitude": "61.17036000",
          "longitude": "5.29614000"
        },
        {
          "name": "Jølster",
          "latitude": "61.56923000",
          "longitude": "6.48351000"
        },
        {
          "name": "Lærdal",
          "latitude": "61.09842000",
          "longitude": "7.48101000"
        },
        {
          "name": "Lærdalsøyri",
          "latitude": "61.10001000",
          "longitude": "7.47374000"
        },
        {
          "name": "Leikanger",
          "latitude": "61.18556000",
          "longitude": "6.82199000"
        },
        {
          "name": "Luster",
          "latitude": "61.40310000",
          "longitude": "7.29793000"
        },
        {
          "name": "Måløy",
          "latitude": "61.93535000",
          "longitude": "5.11362000"
        },
        {
          "name": "Naustdal",
          "latitude": "61.51034000",
          "longitude": "5.71719000"
        },
        {
          "name": "Nordfjordeid",
          "latitude": "61.91220000",
          "longitude": "5.98557000"
        },
        {
          "name": "Sandane",
          "latitude": "61.77277000",
          "longitude": "6.21496000"
        },
        {
          "name": "Sande",
          "latitude": "61.32511000",
          "longitude": "5.79773000"
        },
        {
          "name": "Selje",
          "latitude": "62.04263000",
          "longitude": "5.34449000"
        },
        {
          "name": "Sogndal",
          "latitude": "61.23144000",
          "longitude": "7.10301000"
        },
        {
          "name": "Solund",
          "latitude": "61.07394000",
          "longitude": "4.83876000"
        },
        {
          "name": "Stryn",
          "latitude": "61.90406000",
          "longitude": "6.72400000"
        },
        {
          "name": "Svelgen",
          "latitude": "61.76976000",
          "longitude": "5.29544000"
        },
        {
          "name": "Vågsøy",
          "latitude": "61.93544000",
          "longitude": "5.11402000"
        },
        {
          "name": "Vik",
          "latitude": "61.08863000",
          "longitude": "6.58512000"
        }
      ]
    },
    {
      "name": "Sør-Trøndelag",
      "state_code": "16",
      "latitude": "63.01368230",
      "longitude": "10.34871360",
      "cities": []
    },
    {
      "name": "Svalbard",
      "state_code": "21",
      "latitude": "77.87497250",
      "longitude": "20.97518210",
      "cities": []
    },
    {
      "name": "Telemark",
      "state_code": "08",
      "latitude": "59.39139850",
      "longitude": "8.32112090",
      "cities": [
        {
          "name": "Bamble",
          "latitude": "59.00146000",
          "longitude": "9.74573000"
        },
        {
          "name": "Bø",
          "latitude": "59.41281000",
          "longitude": "9.06618000"
        },
        {
          "name": "Dalen",
          "latitude": "59.44499000",
          "longitude": "8.00492000"
        },
        {
          "name": "Drangedal",
          "latitude": "59.09655000",
          "longitude": "9.05960000"
        },
        {
          "name": "Fyresdal",
          "latitude": "59.18651000",
          "longitude": "8.08953000"
        },
        {
          "name": "Gvarv",
          "latitude": "59.38767000",
          "longitude": "9.17240000"
        },
        {
          "name": "Herre",
          "latitude": "59.10351000",
          "longitude": "9.56195000"
        },
        {
          "name": "Hjartdal",
          "latitude": "59.61276000",
          "longitude": "8.94942000"
        },
        {
          "name": "Kragerø",
          "latitude": "58.86792000",
          "longitude": "9.41099000"
        },
        {
          "name": "Kviteseid",
          "latitude": "59.40194000",
          "longitude": "8.49459000"
        },
        {
          "name": "Lunde",
          "latitude": "59.29832000",
          "longitude": "9.10268000"
        },
        {
          "name": "Nissedal",
          "latitude": "59.01958000",
          "longitude": "8.52127000"
        },
        {
          "name": "Nome",
          "latitude": "59.28136000",
          "longitude": "9.25678000"
        },
        {
          "name": "Notodden",
          "latitude": "59.55992000",
          "longitude": "9.26046000"
        },
        {
          "name": "Porsgrunn",
          "latitude": "59.14190000",
          "longitude": "9.65680000"
        },
        {
          "name": "Prestestranda",
          "latitude": "59.09773000",
          "longitude": "9.05866000"
        },
        {
          "name": "Rjukan",
          "latitude": "59.87891000",
          "longitude": "8.59411000"
        },
        {
          "name": "Sauherad",
          "latitude": "59.39642000",
          "longitude": "9.24910000"
        },
        {
          "name": "Seljord",
          "latitude": "59.48274000",
          "longitude": "8.62672000"
        },
        {
          "name": "Siljan",
          "latitude": "59.28251000",
          "longitude": "9.73368000"
        },
        {
          "name": "Skien",
          "latitude": "59.20748000",
          "longitude": "9.61052000"
        },
        {
          "name": "Tinn",
          "latitude": "59.83486000",
          "longitude": "9.13528000"
        },
        {
          "name": "Tokke",
          "latitude": "59.44569000",
          "longitude": "8.01388000"
        },
        {
          "name": "Ulefoss",
          "latitude": "59.28245000",
          "longitude": "9.26548000"
        },
        {
          "name": "Vinje",
          "latitude": "59.56924000",
          "longitude": "7.98896000"
        }
      ]
    },
    {
      "name": "Troms",
      "state_code": "19",
      "latitude": "69.81782420",
      "longitude": "18.78193650",
      "cities": [
        {
          "name": "Balsfjord",
          "latitude": "69.24024000",
          "longitude": "19.22653000"
        },
        {
          "name": "Bardu",
          "latitude": "68.86058000",
          "longitude": "18.35052000"
        },
        {
          "name": "Berg",
          "latitude": "69.44444000",
          "longitude": "17.29950000"
        },
        {
          "name": "Borkenes",
          "latitude": "68.77261000",
          "longitude": "16.17115000"
        },
        {
          "name": "Dyrøy",
          "latitude": "69.09154000",
          "longitude": "17.69094000"
        },
        {
          "name": "Evenskjer",
          "latitude": "68.58283000",
          "longitude": "16.57203000"
        },
        {
          "name": "Finnsnes",
          "latitude": "69.22959000",
          "longitude": "17.98114000"
        },
        {
          "name": "Gratangen",
          "latitude": "68.69273000",
          "longitude": "17.53186000"
        },
        {
          "name": "Gryllefjord",
          "latitude": "69.36304000",
          "longitude": "17.05284000"
        },
        {
          "name": "Hansnes",
          "latitude": "69.96701000",
          "longitude": "19.62752000"
        },
        {
          "name": "Harstad",
          "latitude": "68.79896000",
          "longitude": "16.52930000"
        },
        {
          "name": "Ibestad",
          "latitude": "68.77866000",
          "longitude": "17.17661000"
        },
        {
          "name": "Kåfjord",
          "latitude": "69.60400000",
          "longitude": "20.53456000"
        },
        {
          "name": "Karlsøy",
          "latitude": "69.96185000",
          "longitude": "19.61811000"
        },
        {
          "name": "Kvæfjord",
          "latitude": "68.77201000",
          "longitude": "16.17294000"
        },
        {
          "name": "Kvænangen",
          "latitude": "69.93890000",
          "longitude": "22.04935000"
        },
        {
          "name": "Lavangen",
          "latitude": "68.74722000",
          "longitude": "17.80558000"
        },
        {
          "name": "Lenvik",
          "latitude": "69.23111000",
          "longitude": "17.98739000"
        },
        {
          "name": "Lyngen",
          "latitude": "69.57621000",
          "longitude": "20.21702000"
        },
        {
          "name": "Lyngseidet",
          "latitude": "69.57629000",
          "longitude": "20.21887000"
        },
        {
          "name": "Målselv",
          "latitude": "69.12389000",
          "longitude": "18.61498000"
        },
        {
          "name": "Moen",
          "latitude": "69.13043000",
          "longitude": "18.61226000"
        },
        {
          "name": "Nordreisa",
          "latitude": "69.76825000",
          "longitude": "21.02569000"
        },
        {
          "name": "Olderdalen",
          "latitude": "69.60407000",
          "longitude": "20.53272000"
        },
        {
          "name": "Salangen",
          "latitude": "68.87669000",
          "longitude": "17.83375000"
        },
        {
          "name": "Setermoen",
          "latitude": "68.86099000",
          "longitude": "18.34857000"
        },
        {
          "name": "Sjøvegan",
          "latitude": "68.87363000",
          "longitude": "17.84706000"
        },
        {
          "name": "Skånland",
          "latitude": "68.58378000",
          "longitude": "16.57305000"
        },
        {
          "name": "Skjervøy",
          "latitude": "70.03379000",
          "longitude": "20.97365000"
        },
        {
          "name": "Sørreisa",
          "latitude": "69.14697000",
          "longitude": "18.15629000"
        },
        {
          "name": "Storfjord",
          "latitude": "69.26860000",
          "longitude": "19.96089000"
        },
        {
          "name": "Storslett",
          "latitude": "69.76783000",
          "longitude": "21.02466000"
        },
        {
          "name": "Storsteinnes",
          "latitude": "69.24081000",
          "longitude": "19.23437000"
        },
        {
          "name": "Torsken",
          "latitude": "69.36184000",
          "longitude": "17.05384000"
        },
        {
          "name": "Tranøy",
          "latitude": "69.17022000",
          "longitude": "17.73480000"
        },
        {
          "name": "Tromsø",
          "latitude": "69.64961000",
          "longitude": "18.95702000"
        }
      ]
    },
    {
      "name": "Trøndelag",
      "state_code": "50",
      "latitude": "63.54201250",
      "longitude": "10.93692670",
      "cities": [
        {
          "name": "Å i Åfjord",
          "latitude": "63.96068000",
          "longitude": "10.22468000"
        },
        {
          "name": "Åfjord",
          "latitude": "63.96196000",
          "longitude": "10.22587000"
        },
        {
          "name": "Agdenes",
          "latitude": "63.50575000",
          "longitude": "9.82623000"
        },
        {
          "name": "Berkåk",
          "latitude": "62.82496000",
          "longitude": "10.01177000"
        },
        {
          "name": "Bjugn",
          "latitude": "63.76522000",
          "longitude": "9.80940000"
        },
        {
          "name": "Botngård",
          "latitude": "63.76484000",
          "longitude": "9.80863000"
        },
        {
          "name": "Brekstad",
          "latitude": "63.68697000",
          "longitude": "9.66541000"
        },
        {
          "name": "Fillan",
          "latitude": "63.60638000",
          "longitude": "8.96961000"
        },
        {
          "name": "Flatanger",
          "latitude": "64.41282000",
          "longitude": "11.03285000"
        },
        {
          "name": "Fosnes",
          "latitude": "64.65910000",
          "longitude": "11.26535000"
        },
        {
          "name": "Frosta",
          "latitude": "63.58910000",
          "longitude": "10.74230000"
        },
        {
          "name": "Frøya",
          "latitude": "63.73005000",
          "longitude": "8.82426000"
        },
        {
          "name": "Grong",
          "latitude": "64.46397000",
          "longitude": "12.31114000"
        },
        {
          "name": "Hemne",
          "latitude": "63.29095000",
          "longitude": "9.08893000"
        },
        {
          "name": "Hitra",
          "latitude": "63.54528000",
          "longitude": "8.78029000"
        },
        {
          "name": "Holtålen",
          "latitude": "62.84318000",
          "longitude": "11.29284000"
        },
        {
          "name": "Hommelvik",
          "latitude": "63.41083000",
          "longitude": "10.79424000"
        },
        {
          "name": "Høylandet",
          "latitude": "64.62759000",
          "longitude": "12.30041000"
        },
        {
          "name": "Inderøy",
          "latitude": "63.87826000",
          "longitude": "11.28424000"
        },
        {
          "name": "Indre Fosen",
          "latitude": "63.58897000",
          "longitude": "9.95847000"
        },
        {
          "name": "Klæbu",
          "latitude": "63.30060000",
          "longitude": "10.48188000"
        },
        {
          "name": "Kolvereid",
          "latitude": "64.86549000",
          "longitude": "11.60465000"
        },
        {
          "name": "Kyrksæterøra",
          "latitude": "63.29057000",
          "longitude": "9.08909000"
        },
        {
          "name": "Lauvsnes",
          "latitude": "64.50061000",
          "longitude": "10.89396000"
        },
        {
          "name": "Leka",
          "latitude": "65.09244000",
          "longitude": "11.70513000"
        },
        {
          "name": "Levanger",
          "latitude": "63.74585000",
          "longitude": "11.29991000"
        },
        {
          "name": "Lierne",
          "latitude": "64.46413000",
          "longitude": "13.59249000"
        },
        {
          "name": "Lundamo",
          "latitude": "63.15216000",
          "longitude": "10.28555000"
        },
        {
          "name": "Malm",
          "latitude": "64.07534000",
          "longitude": "11.22398000"
        },
        {
          "name": "Malvik",
          "latitude": "63.41057000",
          "longitude": "10.79382000"
        },
        {
          "name": "Meldal",
          "latitude": "63.04598000",
          "longitude": "9.71088000"
        },
        {
          "name": "Melhus",
          "latitude": "63.28755000",
          "longitude": "10.27686000"
        },
        {
          "name": "Meråker",
          "latitude": "63.41423000",
          "longitude": "11.74558000"
        },
        {
          "name": "Midtre Gauldal",
          "latitude": "63.03902000",
          "longitude": "10.28701000"
        },
        {
          "name": "Namdalseid",
          "latitude": "64.10843000",
          "longitude": "10.91862000"
        },
        {
          "name": "Namsos",
          "latitude": "64.47842000",
          "longitude": "11.54182000"
        },
        {
          "name": "Namsskogan",
          "latitude": "64.92597000",
          "longitude": "13.15932000"
        },
        {
          "name": "Nærøy",
          "latitude": "64.86298000",
          "longitude": "11.60505000"
        },
        {
          "name": "Oppdal",
          "latitude": "62.59495000",
          "longitude": "9.68761000"
        },
        {
          "name": "Orkdal",
          "latitude": "63.29989000",
          "longitude": "9.84365000"
        },
        {
          "name": "Osen",
          "latitude": "64.29875000",
          "longitude": "10.51284000"
        },
        {
          "name": "Overhalla",
          "latitude": "64.49380000",
          "longitude": "11.94753000"
        },
        {
          "name": "Ørland",
          "latitude": "63.68574000",
          "longitude": "9.66633000"
        },
        {
          "name": "Raarvihke - Røyrvik",
          "latitude": "64.88380000",
          "longitude": "13.56310000"
        },
        {
          "name": "Ranemsletta",
          "latitude": "64.49447000",
          "longitude": "11.94912000"
        },
        {
          "name": "Rennebu",
          "latitude": "62.82864000",
          "longitude": "10.00487000"
        },
        {
          "name": "Rindal",
          "latitude": "63.05511000",
          "longitude": "9.21274000"
        },
        {
          "name": "Roan",
          "latitude": "64.17281000",
          "longitude": "10.22511000"
        },
        {
          "name": "Røros",
          "latitude": "62.57562000",
          "longitude": "11.38730000"
        },
        {
          "name": "Rørvik",
          "latitude": "64.86185000",
          "longitude": "11.23969000"
        },
        {
          "name": "Røyrvik",
          "latitude": "64.88394000",
          "longitude": "13.56256000"
        },
        {
          "name": "Selbu",
          "latitude": "63.21770000",
          "longitude": "11.03938000"
        },
        {
          "name": "Sistranda",
          "latitude": "63.72523000",
          "longitude": "8.83318000"
        },
        {
          "name": "Skaun",
          "latitude": "63.32386000",
          "longitude": "10.06745000"
        },
        {
          "name": "Skogn",
          "latitude": "63.70374000",
          "longitude": "11.19262000"
        },
        {
          "name": "Snåase",
          "latitude": "64.24570000",
          "longitude": "12.37779000"
        },
        {
          "name": "Snåase - Snåsa",
          "latitude": "64.24606000",
          "longitude": "12.38294000"
        },
        {
          "name": "Snillfjord",
          "latitude": "63.39973000",
          "longitude": "9.50194000"
        },
        {
          "name": "Steinkjer",
          "latitude": "64.19303000",
          "longitude": "11.38505000"
        },
        {
          "name": "Stjørdal",
          "latitude": "63.56699000",
          "longitude": "11.02730000"
        },
        {
          "name": "Stjørdalshalsen",
          "latitude": "63.46810000",
          "longitude": "10.92618000"
        },
        {
          "name": "Straumen",
          "latitude": "63.87163000",
          "longitude": "11.29617000"
        },
        {
          "name": "Trondheim",
          "latitude": "63.42811000",
          "longitude": "10.39687000"
        },
        {
          "name": "Tydal",
          "latitude": "63.04477000",
          "longitude": "11.65038000"
        },
        {
          "name": "Verdal",
          "latitude": "63.90023000",
          "longitude": "11.72724000"
        },
        {
          "name": "Verran",
          "latitude": "64.07100000",
          "longitude": "11.21795000"
        },
        {
          "name": "Vikna",
          "latitude": "64.86362000",
          "longitude": "11.24198000"
        }
      ]
    },
    {
      "name": "Vest-Agder",
      "state_code": "10",
      "latitude": "58.09990810",
      "longitude": "6.58698090",
      "cities": [
        {
          "name": "Åseral",
          "latitude": "58.61730000",
          "longitude": "7.41118000"
        },
        {
          "name": "Audnedal",
          "latitude": "58.28378000",
          "longitude": "7.35487000"
        },
        {
          "name": "Farsund",
          "latitude": "58.09538000",
          "longitude": "6.80403000"
        },
        {
          "name": "Flekkefjord",
          "latitude": "58.29791000",
          "longitude": "6.66345000"
        },
        {
          "name": "Hægebostad",
          "latitude": "58.37572000",
          "longitude": "7.21973000"
        },
        {
          "name": "Justvik",
          "latitude": "58.19691000",
          "longitude": "8.03107000"
        },
        {
          "name": "Kristiansand",
          "latitude": "58.14642000",
          "longitude": "7.99687000"
        },
        {
          "name": "Kvinesdal",
          "latitude": "58.23894000",
          "longitude": "6.71445000"
        },
        {
          "name": "Liknes",
          "latitude": "58.31216000",
          "longitude": "6.96180000"
        },
        {
          "name": "Lindesnes",
          "latitude": "58.08435000",
          "longitude": "7.30162000"
        },
        {
          "name": "Lyngdal",
          "latitude": "58.13829000",
          "longitude": "7.06836000"
        },
        {
          "name": "Mandal",
          "latitude": "58.02633000",
          "longitude": "7.45014000"
        },
        {
          "name": "Marnardal",
          "latitude": "58.19802000",
          "longitude": "7.52802000"
        },
        {
          "name": "Nodeland",
          "latitude": "58.15517000",
          "longitude": "7.83576000"
        },
        {
          "name": "Sirdal",
          "latitude": "58.66510000",
          "longitude": "6.71585000"
        },
        {
          "name": "Skålevik",
          "latitude": "58.07955000",
          "longitude": "8.01602000"
        },
        {
          "name": "Songdalen",
          "latitude": "58.15273000",
          "longitude": "7.83677000"
        },
        {
          "name": "Søgne",
          "latitude": "58.09663000",
          "longitude": "7.81491000"
        },
        {
          "name": "Strai",
          "latitude": "58.18930000",
          "longitude": "7.92826000"
        },
        {
          "name": "Tonstad",
          "latitude": "58.66263000",
          "longitude": "6.71694000"
        },
        {
          "name": "Tveit",
          "latitude": "58.23366000",
          "longitude": "8.12199000"
        },
        {
          "name": "Vanse",
          "latitude": "58.09812000",
          "longitude": "6.69184000"
        },
        {
          "name": "Vennesla",
          "latitude": "58.34271000",
          "longitude": "7.97596000"
        },
        {
          "name": "Vestbygd",
          "latitude": "58.09991000",
          "longitude": "6.58696000"
        },
        {
          "name": "Vigeland",
          "latitude": "58.08437000",
          "longitude": "7.30497000"
        }
      ]
    },
    {
      "name": "Vestfold",
      "state_code": "07",
      "latitude": "59.17078620",
      "longitude": "10.11443550",
      "cities": [
        {
          "name": "Årøysund",
          "latitude": "59.18321000",
          "longitude": "10.45743000"
        },
        {
          "name": "Åsgårdstrand",
          "latitude": "59.34938000",
          "longitude": "10.46948000"
        },
        {
          "name": "Barkåker",
          "latitude": "59.31859000",
          "longitude": "10.38963000"
        },
        {
          "name": "Berger",
          "latitude": "59.54994000",
          "longitude": "10.38641000"
        },
        {
          "name": "Færder",
          "latitude": "59.22791000",
          "longitude": "10.41530000"
        },
        {
          "name": "Gullhaug",
          "latitude": "59.50130000",
          "longitude": "10.25224000"
        },
        {
          "name": "Holmestrand",
          "latitude": "59.48976000",
          "longitude": "10.31515000"
        },
        {
          "name": "Horten",
          "latitude": "59.41547000",
          "longitude": "10.48527000"
        },
        {
          "name": "Larvik",
          "latitude": "59.05234000",
          "longitude": "10.02701000"
        },
        {
          "name": "Melsomvik",
          "latitude": "59.22394000",
          "longitude": "10.33616000"
        },
        {
          "name": "Re",
          "latitude": "59.35056000",
          "longitude": "10.24763000"
        },
        {
          "name": "Sande",
          "latitude": "59.59362000",
          "longitude": "10.20757000"
        },
        {
          "name": "Sandefjord",
          "latitude": "59.12881000",
          "longitude": "10.21971000"
        },
        {
          "name": "Selvik",
          "latitude": "59.56645000",
          "longitude": "10.26004000"
        },
        {
          "name": "Sem",
          "latitude": "59.28230000",
          "longitude": "10.33004000"
        },
        {
          "name": "Skoppum",
          "latitude": "59.38613000",
          "longitude": "10.41077000"
        },
        {
          "name": "Stavern",
          "latitude": "59.00000000",
          "longitude": "10.03333000"
        },
        {
          "name": "Stokke",
          "latitude": "59.22255000",
          "longitude": "10.30055000"
        },
        {
          "name": "Svelvik",
          "latitude": "59.60677000",
          "longitude": "10.40225000"
        },
        {
          "name": "Tjøme",
          "latitude": "59.11090000",
          "longitude": "10.39330000"
        },
        {
          "name": "Tønsberg",
          "latitude": "59.26754000",
          "longitude": "10.40762000"
        }
      ]
    }
  ]
}