{"code":"PA","states":[{"name":"Bocas del Toro Province","state_code":"1","latitude":"9.41655210","longitude":"-82.52077870","cities":[{"name":"Almirante","latitude":"9.30091000","longitude":"-82.40180000"},{"name":"Barranco","latitude":"9.51984000","longitude":"-82.70424000"},{"name":"Barranco Adentro","latitude":"9.52757000","longitude":"-82.73344000"},{"name":"Bastimentos","latitude":"9.34707000","longitude":"-82.20880000"},{"name":"Bocas del Toro","latitude":"9.34031000","longitude":"-82.24204000"},{"name":"Cauchero","latitude":"9.15226000","longitude":"-82.26450000"},{"name":"Changuinola","latitude":"9.43000000","longitude":"-82.52000000"},{"name":"Chiriquí Grande","latitude":"8.94557000","longitude":"-82.11769000"},{"name":"Distrito Chiriquí Grande","latitude":"8.94748000","longitude":"-82.12418000"},{"name":"Distrito de Bocas del Toro","latitude":"9.36235000","longitude":"-82.26288000"},{"name":"Distrito de Changuinola","latitude":"9.25000000","longitude":"-82.63333000"},{"name":"El Empalme","latitude":"9.41667000","longitude":"-82.51667000"},{"name":"El Silencio","latitude":"9.37222000","longitude":"-82.52877000"},{"name":"Guabito","latitude":"9.48968000","longitude":"-82.61279000"},{"name":"Isla Bastimentos","latitude":"9.30000000","longitude":"-82.13333000"},{"name":"La Mesa","latitude":"9.49587000","longitude":"-82.67534000"},{"name":"Miramar","latitude":"8.99482000","longitude":"-82.24147000"},{"name":"Punta Laurel","latitude":"9.14100000","longitude":"-82.12717000"},{"name":"Punta Peña","latitude":"8.91659000","longitude":"-82.18488000"},{"name":"Punta Róbalo","latitude":"9.03631000","longitude":"-82.24952000"},{"name":"Valle del Risco","latitude":"9.23064000","longitude":"-82.42748000"}]},{"name":"Chiriquí Province","state_code":"4","latitude":"8.58489800","longitude":"-82.38857830","cities":[{"name":"Alanje","latitude":"8.39791000","longitude":"-82.55947000"},{"name":"Algarrobos Arriba","latitude":"8.51550000","longitude":"-82.42263000"},{"name":"Alto Boquete","latitude":"8.73458000","longitude":"-82.43213000"},{"name":"Aserrío de Gariché","latitude":"8.48257000","longitude":"-82.79086000"},{"name":"Bágala","latitude":"8.46399000","longitude":"-82.52617000"},{"name":"Bajo Boquete","latitude":"8.77058000","longitude":"-82.43306000"},{"name":"Barrio Guadalupe","latitude":"8.86482000","longitude":"-82.56523000"},{"name":"Bijagual","latitude":"8.51486000","longitude":"-82.33361000"},{"name":"Boca Chica","latitude":"8.21911000","longitude":"-82.21592000"},{"name":"Boca del Monte","latitude":"8.35296000","longitude":"-82.11379000"},{"name":"Boquerón","latitude":"8.50510000","longitude":"-82.57025000"},{"name":"Boquete","latitude":"8.78024000","longitude":"-82.44136000"},{"name":"Breñón","latitude":"8.62491000","longitude":"-82.81277000"},{"name":"Bugaba","latitude":"8.48255000","longitude":"-82.61991000"},{"name":"Bugabita Arriba","latitude":"8.52143000","longitude":"-82.63638000"},{"name":"Caimito","latitude":"8.54162000","longitude":"-82.41900000"},{"name":"Caldera","latitude":"8.64907000","longitude":"-82.38058000"},{"name":"Cañas Gordas","latitude":"8.74309000","longitude":"-82.91275000"},{"name":"Celmira","latitude":"8.54026000","longitude":"-82.80022000"},{"name":"Cerro Punta","latitude":"8.84968000","longitude":"-82.57261000"},{"name":"Cerro Viejo","latitude":"8.25349000","longitude":"-81.57658000"},{"name":"Chiriquí","latitude":"8.39291000","longitude":"-82.31993000"},{"name":"Cochea Abajo","latitude":"8.50512000","longitude":"-82.35878000"},{"name":"Cordillera","latitude":"8.70683000","longitude":"-82.60327000"},{"name":"David","latitude":"8.42729000","longitude":"-82.43085000"},{"name":"Distrito de Alanje","latitude":"8.39842000","longitude":"-82.64065000"},{"name":"Distrito de Barú","latitude":"8.29482000","longitude":"-82.92726000"},{"name":"Distrito de Boquerón","latitude":"8.61667000","longitude":"-82.56667000"},{"name":"Distrito de Boquete","latitude":"8.74896000","longitude":"-82.36842000"},{"name":"Distrito de Bugaba","latitude":"8.68786000","longitude":"-82.67937000"},{"name":"Distrito de David","latitude":"8.40000000","longitude":"-82.40000000"},{"name":"Distrito de Dolega","latitude":"8.61667000","longitude":"-82.45000000"},{"name":"Distrito de Gualaca","latitude":"8.57398000","longitude":"-82.22207000"},{"name":"Distrito de Remedios","latitude":"8.20253000","longitude":"-81.81163000"},{"name":"Distrito de Renacimiento","latitude":"8.71667000","longitude":"-82.76667000"},{"name":"Distrito de San Félix","latitude":"8.27768000","longitude":"-81.87377000"},{"name":"Distrito de San Lorenzo","latitude":"8.29366000","longitude":"-82.08922000"},{"name":"Distrito de Tolé","latitude":"8.19015000","longitude":"-81.66007000"},{"name":"Divalá","latitude":"8.41066000","longitude":"-82.71332000"},{"name":"Dolega District","latitude":"8.56667000","longitude":"-82.41407000"},{"name":"El Nancito","latitude":"8.23811000","longitude":"-81.73218000"},{"name":"El Palmar","latitude":"8.30098000","longitude":"-82.85344000"},{"name":"El Porvenir","latitude":"8.22919000","longitude":"-81.83278000"},{"name":"El Tejar","latitude":"8.42973000","longitude":"-82.57294000"},{"name":"Finca Blanco","latitude":"8.37979000","longitude":"-82.87385000"},{"name":"Gómez","latitude":"8.56085000","longitude":"-82.74142000"},{"name":"Guabal","latitude":"8.57466000","longitude":"-82.53730000"},{"name":"Guaca Arriba","latitude":"8.53733000","longitude":"-82.49281000"},{"name":"Gualaca","latitude":"8.53006000","longitude":"-82.29959000"},{"name":"Guarumal","latitude":"8.34523000","longitude":"-82.53205000"},{"name":"Guayabal","latitude":"8.62193000","longitude":"-82.57935000"},{"name":"Horconcitos","latitude":"8.31142000","longitude":"-82.15102000"},{"name":"La Concepción","latitude":"8.51212000","longitude":"-82.61858000"},{"name":"La Esperanza","latitude":"8.40344000","longitude":"-82.79197000"},{"name":"La Estrella","latitude":"8.51572000","longitude":"-82.67212000"},{"name":"Lajas Adentro","latitude":"8.24981000","longitude":"-81.87779000"},{"name":"Lajas de Tolé","latitude":"8.16994000","longitude":"-81.69654000"},{"name":"Las Lajas","latitude":"8.24184000","longitude":"-81.86931000"},{"name":"Las Lomas","latitude":"8.42927000","longitude":"-82.38743000"},{"name":"Limones","latitude":"8.10007000","longitude":"-82.86679000"},{"name":"Los Algarrobos","latitude":"8.49601000","longitude":"-82.42417000"},{"name":"Los Anastacios","latitude":"8.53027000","longitude":"-82.42295000"},{"name":"Los Ángeles","latitude":"8.52271000","longitude":"-82.19997000"},{"name":"Los Naranjos","latitude":"8.79210000","longitude":"-82.44665000"},{"name":"Manaca Civil","latitude":"8.32458000","longitude":"-82.81570000"},{"name":"Manaca Norte","latitude":"8.33419000","longitude":"-82.81003000"},{"name":"Mata del Nance","latitude":"8.45056000","longitude":"-82.40057000"},{"name":"Monte Lirio","latitude":"8.78935000","longitude":"-82.82865000"},{"name":"Nuevo San Carlitos","latitude":"8.45698000","longitude":"-82.43712000"},{"name":"Paja de Sombrero","latitude":"8.68335000","longitude":"-82.31911000"},{"name":"Palmira","latitude":"8.73401000","longitude":"-82.45887000"},{"name":"Palmira Centro","latitude":"8.73956000","longitude":"-82.45228000"},{"name":"Paraíso","latitude":"8.65842000","longitude":"-82.58625000"},{"name":"Paso Canoas Arriba","latitude":"8.56516000","longitude":"-82.82214000"},{"name":"Pedregal","latitude":"8.36586000","longitude":"-82.43524000"},{"name":"Plaza de Caisán","latitude":"8.73672000","longitude":"-82.81968000"},{"name":"Potrerillos Abajo","latitude":"8.63978000","longitude":"-82.48560000"},{"name":"Potrerillos Arriba","latitude":"8.68547000","longitude":"-82.49090000"},{"name":"Progreso","latitude":"8.44669000","longitude":"-82.83859000"},{"name":"Pueblo Viejo","latitude":"8.25081000","longitude":"-81.66259000"},{"name":"Puerto Armuelles","latitude":"8.27775000","longitude":"-82.86206000"},{"name":"Punta de Burica","latitude":"8.03333000","longitude":"-82.86667000"},{"name":"Quebrada de Piedra","latitude":"8.09418000","longitude":"-81.67915000"},{"name":"Querévalo","latitude":"8.37174000","longitude":"-82.52670000"},{"name":"Quinteño","latitude":"8.47102000","longitude":"-82.39352000"},{"name":"Remedios","latitude":"8.22436000","longitude":"-81.82747000"},{"name":"Rincón","latitude":"8.46374000","longitude":"-82.27951000"},{"name":"Río Sereno","latitude":"8.81741000","longitude":"-82.85731000"},{"name":"Rovira Arriba","latitude":"8.63822000","longitude":"-82.49965000"},{"name":"San Andrés","latitude":"8.60260000","longitude":"-82.72588000"},{"name":"San Carlos","latitude":"8.51663000","longitude":"-82.50906000"},{"name":"San Félix","latitude":"8.29063000","longitude":"-81.86702000"},{"name":"San Isidro","latitude":"8.53032000","longitude":"-82.82720000"},{"name":"San Lorenzo","latitude":"8.30561000","longitude":"-82.10114000"},{"name":"San Pablo Nuevo Abajo","latitude":"8.42558000","longitude":"-82.50173000"},{"name":"San Pablo Viejo Abajo","latitude":"8.45339000","longitude":"-82.50179000"},{"name":"Santa Clara","latitude":"8.83376000","longitude":"-82.77945000"},{"name":"Santa Cruz","latitude":"8.23219000","longitude":"-81.91323000"},{"name":"Santa Marta","latitude":"8.51406000","longitude":"-82.69870000"},{"name":"Santa Rosa","latitude":"8.59958000","longitude":"-82.68489000"},{"name":"Santo Domingo","latitude":"8.50803000","longitude":"-82.71295000"},{"name":"Santo Tomás","latitude":"8.38959000","longitude":"-82.65058000"},{"name":"Sioguí Abajo","latitude":"8.48678000","longitude":"-82.66539000"},{"name":"Sioguí Arriba","latitude":"8.53865000","longitude":"-82.68619000"},{"name":"Sortova","latitude":"8.54642000","longitude":"-82.65170000"},{"name":"Tijeras","latitude":"8.47514000","longitude":"-82.56058000"},{"name":"Tinajas","latitude":"8.55281000","longitude":"-82.45963000"},{"name":"Tolé","latitude":"8.23989000","longitude":"-81.67168000"},{"name":"Veladero","latitude":"8.23136000","longitude":"-81.65417000"},{"name":"Volcán","latitude":"8.77291000","longitude":"-82.63823000"}]},{"name":"Coclé Province","state_code":"2","latitude":"8.62660680","longitude":"-80.36586500","cities":[{"name":"Aguadulce","latitude":"8.24183000","longitude":"-80.54609000"},{"name":"Aguas Blancas","latitude":"8.50351000","longitude":"-80.31169000"},{"name":"Alto de La Estancia","latitude":"8.58792000","longitude":"-80.18443000"},{"name":"Antón","latitude":"8.39733000","longitude":"-80.26063000"},{"name":"Barranco Colorado","latitude":"8.38937000","longitude":"-80.63546000"},{"name":"Caballero","latitude":"8.54343000","longitude":"-80.19769000"},{"name":"Cabuya","latitude":"8.54703000","longitude":"-80.16756000"},{"name":"Caimito","latitude":"8.62271000","longitude":"-80.23919000"},{"name":"Cañaveral","latitude":"8.51700000","longitude":"-80.42916000"},{"name":"Capellanía","latitude":"8.29858000","longitude":"-80.55480000"},{"name":"Chigoré","latitude":"8.53035000","longitude":"-80.35117000"},{"name":"Chiguirí Arriba","latitude":"8.67187000","longitude":"-80.18975000"},{"name":"Churuquita Chiquita","latitude":"8.57555000","longitude":"-80.27161000"},{"name":"Churuquita Grande","latitude":"8.59449000","longitude":"-80.27182000"},{"name":"Coclé","latitude":"8.45601000","longitude":"-80.42899000"},{"name":"Distrito de Aguadulce","latitude":"8.21270000","longitude":"-80.61441000"},{"name":"Distrito de Antón","latitude":"8.45394000","longitude":"-80.18361000"},{"name":"Distrito de La Pintada","latitude":"8.71801000","longitude":"-80.53946000"},{"name":"Distrito de Natá","latitude":"8.34416000","longitude":"-80.60934000"},{"name":"Distrito de Olá","latitude":"8.48053000","longitude":"-80.65324000"},{"name":"Distrito Penonomé","latitude":"8.63000000","longitude":"-80.28333000"},{"name":"El Caño","latitude":"8.40195000","longitude":"-80.51791000"},{"name":"El Chirú","latitude":"8.39876000","longitude":"-80.18721000"},{"name":"El Coco","latitude":"8.39716000","longitude":"-80.35000000"},{"name":"El Copé","latitude":"8.62036000","longitude":"-80.58433000"},{"name":"El Cortezo","latitude":"8.34556000","longitude":"-80.58721000"},{"name":"El Cristo","latitude":"8.25071000","longitude":"-80.62093000"},{"name":"El Potrero","latitude":"8.52146000","longitude":"-80.51681000"},{"name":"El Retiro","latitude":"8.48014000","longitude":"-80.15426000"},{"name":"El Roble","latitude":"8.16850000","longitude":"-80.65897000"},{"name":"Entradero","latitude":"8.56880000","longitude":"-80.20743000"},{"name":"Farallón","latitude":"8.35658000","longitude":"-80.13723000"},{"name":"Guzman","latitude":"8.51969000","longitude":"-80.58405000"},{"name":"Juan Díaz","latitude":"8.46240000","longitude":"-80.28280000"},{"name":"La Loma","latitude":"8.16667000","longitude":"-80.63742000"},{"name":"La Pintada","latitude":"8.59299000","longitude":"-80.44349000"},{"name":"Las Huacas del Quije","latitude":"8.46702000","longitude":"-80.75089000"},{"name":"Las Marias","latitude":"8.88809000","longitude":"-80.21893000"},{"name":"Las Minas","latitude":"8.64118000","longitude":"-80.39432000"},{"name":"Las Sabanas","latitude":"8.58141000","longitude":"-80.67978000"},{"name":"Llano Grande","latitude":"8.63817000","longitude":"-80.43848000"},{"name":"Llano Marín","latitude":"8.47696000","longitude":"-80.32499000"},{"name":"Los Pollos","latitude":"8.39898000","longitude":"-80.15731000"},{"name":"Natá","latitude":"8.33209000","longitude":"-80.51969000"},{"name":"Nuestro Amo","latitude":"8.44485000","longitude":"-80.58934000"},{"name":"Olá","latitude":"8.41807000","longitude":"-80.65123000"},{"name":"Penonomé","latitude":"8.51889000","longitude":"-80.35727000"},{"name":"Piedras Gordas","latitude":"8.63777000","longitude":"-80.51024000"},{"name":"Pocrí","latitude":"8.25814000","longitude":"-80.55000000"},{"name":"Río Grande","latitude":"8.42679000","longitude":"-80.48457000"},{"name":"Río Hato","latitude":"8.37940000","longitude":"-80.16621000"},{"name":"San Juan de Dios","latitude":"8.55119000","longitude":"-80.22623000"},{"name":"Toabré","latitude":"8.65131000","longitude":"-80.32017000"},{"name":"Toza","latitude":"8.34542000","longitude":"-80.64012000"},{"name":"Vista Hermosa","latitude":"8.52687000","longitude":"-80.37486000"}]},{"name":"Colón Province","state_code":"3","latitude":"9.18519890","longitude":"-80.05349230","cities":[{"name":"Buena Vista","latitude":"9.27356000","longitude":"-79.69551000"},{"name":"Cativá","latitude":"9.36218000","longitude":"-79.83232000"},{"name":"Coclé del Norte","latitude":"9.07540000","longitude":"-80.57177000"},{"name":"Colón","latitude":"9.35451000","longitude":"-79.90011000"},{"name":"Cristóbal","latitude":"9.35222000","longitude":"-79.90444000"},{"name":"Distrito de Chagres","latitude":"9.12300000","longitude":"-80.11841000"},{"name":"Distrito de Colón","latitude":"9.24313000","longitude":"-79.79463000"},{"name":"Distrito de Donoso","latitude":"9.01999000","longitude":"-80.42967000"},{"name":"Distrito de Portobelo","latitude":"9.49748000","longitude":"-79.60730000"},{"name":"Distrito de Santa Isabel","latitude":"9.48333000","longitude":"-79.31667000"},{"name":"El Giral","latitude":"9.24509000","longitude":"-79.69266000"},{"name":"El Guabo","latitude":"9.07842000","longitude":"-80.08316000"},{"name":"El Valle de la Unión","latitude":"9.23630000","longitude":"-79.65986000"},{"name":"Escobal","latitude":"9.14373000","longitude":"-79.96439000"},{"name":"Gatún","latitude":"9.28922000","longitude":"-79.77204000"},{"name":"Gatuncillo","latitude":"9.24346000","longitude":"-79.64856000"},{"name":"Las Margaritas","latitude":"9.32603000","longitude":"-79.89028000"},{"name":"María Chiquita","latitude":"9.43991000","longitude":"-79.75455000"},{"name":"Miramar","latitude":"9.57544000","longitude":"-79.33573000"},{"name":"Nombre de Dios","latitude":"9.57937000","longitude":"-79.47109000"},{"name":"Nuevo Chagres","latitude":"9.23979000","longitude":"-80.08267000"},{"name":"Nuevo San Juan","latitude":"9.22205000","longitude":"-79.66602000"},{"name":"Nuevo Vigía","latitude":"9.24263000","longitude":"-79.60756000"},{"name":"Palenque","latitude":"9.56970000","longitude":"-79.36341000"},{"name":"Palmas Bellas","latitude":"9.22838000","longitude":"-80.08503000"},{"name":"Palmira","latitude":"9.54359000","longitude":"-79.21946000"},{"name":"Playa Chiquita","latitude":"9.56620000","longitude":"-79.29185000"},{"name":"Portobelo","latitude":"9.55303000","longitude":"-79.65693000"},{"name":"Puerto Escondido","latitude":"9.19333000","longitude":"-80.08833000"},{"name":"Puerto Pilón","latitude":"9.36316000","longitude":"-79.79333000"},{"name":"Quebrada Bonita Adentro","latitude":"9.29662000","longitude":"-79.70606000"},{"name":"Río Alejandro","latitude":"9.37149000","longitude":"-79.78809000"},{"name":"Río Duque","latitude":"9.25688000","longitude":"-79.67937000"},{"name":"Río Rita","latitude":"9.30296000","longitude":"-79.79234000"},{"name":"Sabanitas","latitude":"9.34269000","longitude":"-79.80961000"},{"name":"Santa Isabel","latitude":"9.53922000","longitude":"-79.19570000"},{"name":"Santa Rita Arriba","latitude":"9.33032000","longitude":"-79.79363000"},{"name":"Viento Frío","latitude":"9.58263000","longitude":"-79.40690000"}]},{"name":"Darién Province","state_code":"5","latitude":"7.86817130","longitude":"-77.83672820","cities":[{"name":"Boca de Cupé","latitude":"8.03003000","longitude":"-77.58978000"},{"name":"Camogantí","latitude":"8.04171000","longitude":"-77.88682000"},{"name":"Cucunatí","latitude":"8.57508000","longitude":"-78.25671000"},{"name":"Distrito de Chepigana","latitude":"7.84374000","longitude":"-77.83830000"},{"name":"Distrito de Pinogana","latitude":"7.89343000","longitude":"-77.52562000"},{"name":"Garachiné","latitude":"8.06684000","longitude":"-78.36436000"},{"name":"Jaqué","latitude":"7.51826000","longitude":"-78.16343000"},{"name":"La Palma","latitude":"8.40608000","longitude":"-78.13964000"},{"name":"Metetí","latitude":"8.49909000","longitude":"-77.97897000"},{"name":"Mortí","latitude":"8.84246000","longitude":"-77.97539000"},{"name":"Púcuro","latitude":"7.97876000","longitude":"-77.48758000"},{"name":"Santa Fé","latitude":"8.65525000","longitude":"-78.16140000"},{"name":"Yaviza","latitude":"8.15835000","longitude":"-77.69276000"}]},{"name":"Emberá-Wounaan Comarca","state_code":"EM","latitude":"8.37669830","longitude":"-77.65361250","cities":[{"name":"Bayamón","latitude":"7.96817000","longitude":"-78.21648000"},{"name":"Cémaco","latitude":"8.08285000","longitude":"-77.54210000"},{"name":"Corozal","latitude":"8.20108000","longitude":"-77.59637000"},{"name":"Sambú","latitude":"7.82013000","longitude":"-78.11005000"},{"name":"Unión Chocó","latitude":"8.08404000","longitude":"-77.53507000"},{"name":"Yape","latitude":"8.09839000","longitude":"-77.59817000"}]},{"name":"Guna Yala","state_code":"KY","latitude":"9.23443950","longitude":"-78.19262500","cities":[{"name":"Achutupo","latitude":"9.19827000","longitude":"-77.98729000"},{"name":"Ailigandí","latitude":"9.22810000","longitude":"-78.02778000"},{"name":"Cartí Sugdup","latitude":"9.46460000","longitude":"-78.95931000"},{"name":"El Porvenir","latitude":"9.55276000","longitude":"-78.95230000"},{"name":"Mulatupo","latitude":"8.94672000","longitude":"-77.75080000"},{"name":"Narganá","latitude":"9.44394000","longitude":"-78.58666000"},{"name":"Playón Chico","latitude":"9.31128000","longitude":"-78.23270000"},{"name":"Puerto Obaldía","latitude":"8.66632000","longitude":"-77.41922000"},{"name":"San Ignacio de Tupile","latitude":"9.28905000","longitude":"-78.15206000"},{"name":"Tubualá","latitude":"9.51667000","longitude":"-79.03333000"},{"name":"Ustupo","latitude":"9.13112000","longitude":"-77.92620000"}]},{"name":"Herrera Province","state_code":"6","latitude":"7.77042820","longitude":"-80.72144170","cities":[{"name":"Boca de Parita","latitude":"8.00796000","longitude":"-80.45320000"},{"name":"Cabuya","latitude":"8.03138000","longitude":"-80.63227000"},{"name":"Cerro Largo","latitude":"7.83377000","longitude":"-80.83168000"},{"name":"Chitré","latitude":"7.96082000","longitude":"-80.42944000"},{"name":"Chumical","latitude":"7.84482000","longitude":"-80.72627000"},{"name":"Chupampa","latitude":"8.07620000","longitude":"-80.77656000"},{"name":"Distrito de Chitré","latitude":"7.98333000","longitude":"-80.43333000"},{"name":"Distrito de Las Minas","latitude":"7.76525000","longitude":"-80.82249000"},{"name":"Distrito de Los Pozos","latitude":"7.70944000","longitude":"-80.64311000"},{"name":"Distrito de Ocú","latitude":"7.90641000","longitude":"-80.79752000"},{"name":"Distrito de Parita","latitude":"8.06240000","longitude":"-80.56373000"},{"name":"Distrito de Pesé","latitude":"7.88194000","longitude":"-80.63261000"},{"name":"Distrito de Santa María","latitude":"8.11667000","longitude":"-80.68333000"},{"name":"El Calabacito","latitude":"7.71843000","longitude":"-80.59757000"},{"name":"El Capurí","latitude":"7.72571000","longitude":"-80.64349000"},{"name":"El Cedro","latitude":"7.68565000","longitude":"-80.65927000"},{"name":"El Pedregoso","latitude":"7.93642000","longitude":"-80.63807000"},{"name":"El Rincón","latitude":"8.11923000","longitude":"-80.61707000"},{"name":"El Toro","latitude":"7.75110000","longitude":"-80.86943000"},{"name":"La Arena","latitude":"7.96766000","longitude":"-80.46523000"},{"name":"La Trinidad","latitude":"7.91457000","longitude":"-80.70332000"},{"name":"Las Guabas","latitude":"7.90949000","longitude":"-80.80706000"},{"name":"Las Minas","latitude":"7.79581000","longitude":"-80.74570000"},{"name":"Leones Arriba","latitude":"7.76590000","longitude":"-80.84515000"},{"name":"Limón de Tijeras","latitude":"7.81756000","longitude":"-80.91335000"},{"name":"Llano Bonito","latitude":"7.97637000","longitude":"-80.41646000"},{"name":"Llano de La Cruz","latitude":"7.95178000","longitude":"-80.64239000"},{"name":"Llano Grande","latitude":"7.97406000","longitude":"-80.71103000"},{"name":"Los Canelos","latitude":"8.11722000","longitude":"-80.70769000"},{"name":"Los Castillos","latitude":"7.98565000","longitude":"-80.61886000"},{"name":"Los Cerritos","latitude":"7.79746000","longitude":"-80.61071000"},{"name":"Los Cerros de Paja","latitude":"7.71821000","longitude":"-80.67273000"},{"name":"Los Pozos","latitude":"7.78300000","longitude":"-80.64524000"},{"name":"Monagrillo","latitude":"7.98179000","longitude":"-80.43764000"},{"name":"Ocú","latitude":"7.94052000","longitude":"-80.77936000"},{"name":"París","latitude":"8.05053000","longitude":"-80.55409000"},{"name":"Parita","latitude":"7.99393000","longitude":"-80.52097000"},{"name":"Peñas Chatas","latitude":"8.01502000","longitude":"-80.80366000"},{"name":"Pesé","latitude":"7.90863000","longitude":"-80.61433000"},{"name":"Pitaloza Arriba","latitude":"7.64216000","longitude":"-80.66788000"},{"name":"Portobelillo","latitude":"8.01738000","longitude":"-80.59538000"},{"name":"Potuga","latitude":"8.06317000","longitude":"-80.62271000"},{"name":"Quebrada del Rosario","latitude":"7.71238000","longitude":"-80.74222000"},{"name":"Rincón Hondo","latitude":"7.84436000","longitude":"-80.60397000"},{"name":"Sabana Grande","latitude":"7.88002000","longitude":"-80.63818000"},{"name":"San Juan Bautista","latitude":"7.96099000","longitude":"-80.41283000"},{"name":"Santa María","latitude":"8.11143000","longitude":"-80.66582000"}]},{"name":"Los Santos Province","state_code":"7","latitude":"7.59093020","longitude":"-80.36586500","cities":[{"name":"Agua Buena","latitude":"7.83465000","longitude":"-80.39405000"},{"name":"Ave María","latitude":"7.32481000","longitude":"-80.45361000"},{"name":"Bahía Honda","latitude":"7.70517000","longitude":"-80.45342000"},{"name":"Bajo Corral","latitude":"7.60463000","longitude":"-80.26016000"},{"name":"Bayano","latitude":"7.63014000","longitude":"-80.38201000"},{"name":"Bella Vista","latitude":"7.75000000","longitude":"-80.23333000"},{"name":"Cambutal","latitude":"7.26534000","longitude":"-80.49105000"},{"name":"Cañas","latitude":"7.44713000","longitude":"-80.26480000"},{"name":"Cedro Arriba","latitude":"7.78097000","longitude":"-80.53057000"},{"name":"Distrito de Guararé","latitude":"7.77021000","longitude":"-80.37515000"},{"name":"Distrito de Las Tablas","latitude":"7.64843000","longitude":"-80.29933000"},{"name":"Distrito de Los Santos","latitude":"7.88333000","longitude":"-80.45000000"},{"name":"Distrito de Macaracas","latitude":"7.65817000","longitude":"-80.53526000"},{"name":"Distrito de Pedasí","latitude":"7.48528000","longitude":"-80.12747000"},{"name":"Distrito de Pocrí","latitude":"7.63721000","longitude":"-80.16470000"},{"name":"Distrito de Tonosí","latitude":"7.43597000","longitude":"-80.45828000"},{"name":"El Cacao","latitude":"7.44570000","longitude":"-80.40938000"},{"name":"El Cañafístulo","latitude":"7.61768000","longitude":"-80.23322000"},{"name":"El Carate","latitude":"7.73124000","longitude":"-80.29691000"},{"name":"El Cocal","latitude":"7.73697000","longitude":"-80.27980000"},{"name":"El Cortezo","latitude":"7.42661000","longitude":"-80.63311000"},{"name":"El Ejido","latitude":"7.91634000","longitude":"-80.38686000"},{"name":"El Guásimo","latitude":"7.80640000","longitude":"-80.52991000"},{"name":"El Hato","latitude":"7.79316000","longitude":"-80.38267000"},{"name":"El Macano","latitude":"7.68489000","longitude":"-80.40309000"},{"name":"El Manantial","latitude":"7.78245000","longitude":"-80.24713000"},{"name":"El Muñoz","latitude":"7.67582000","longitude":"-80.32130000"},{"name":"El Pedregoso","latitude":"7.69173000","longitude":"-80.32793000"},{"name":"Flores","latitude":"7.48157000","longitude":"-80.40695000"},{"name":"Guararé","latitude":"7.81531000","longitude":"-80.28345000"},{"name":"Guararé Arriba","latitude":"7.80023000","longitude":"-80.35983000"},{"name":"La Colorada","latitude":"7.82362000","longitude":"-80.55552000"},{"name":"La Enea","latitude":"7.83333000","longitude":"-80.27417000"},{"name":"La Espigadilla","latitude":"7.88389000","longitude":"-80.39039000"},{"name":"La Laja","latitude":"7.73102000","longitude":"-80.25298000"},{"name":"La Mesa","latitude":"7.65670000","longitude":"-80.61794000"},{"name":"La Miel","latitude":"7.56022000","longitude":"-80.32736000"},{"name":"La Palma","latitude":"7.71667000","longitude":"-80.38333000"},{"name":"La Pasera","latitude":"7.79757000","longitude":"-80.30342000"},{"name":"La Tiza","latitude":"7.75110000","longitude":"-80.29216000"},{"name":"La Tronosa","latitude":"7.43609000","longitude":"-80.58698000"},{"name":"Lajamina","latitude":"7.58587000","longitude":"-80.13212000"},{"name":"Las Cruces","latitude":"7.82285000","longitude":"-80.43003000"},{"name":"Las Guabas","latitude":"7.81469000","longitude":"-80.50155000"},{"name":"Las Palmas","latitude":"7.68314000","longitude":"-80.49728000"},{"name":"Las Palmitas","latitude":"7.76523000","longitude":"-80.29350000"},{"name":"Las Tablas","latitude":"7.76472000","longitude":"-80.27483000"},{"name":"Las Trancas","latitude":"7.73400000","longitude":"-80.37384000"},{"name":"Llano Abajo","latitude":"7.78598000","longitude":"-80.41060000"},{"name":"Llano de Piedra","latitude":"7.65972000","longitude":"-80.56347000"},{"name":"Llano Largo","latitude":"7.90607000","longitude":"-80.42561000"},{"name":"Los Ángeles","latitude":"7.88422000","longitude":"-80.35772000"},{"name":"Los Asientos","latitude":"7.51656000","longitude":"-80.13521000"},{"name":"Los Olivos","latitude":"7.91589000","longitude":"-80.48884000"},{"name":"Los Santos","latitude":"7.93333000","longitude":"-80.41667000"},{"name":"Macaracas","latitude":"7.73168000","longitude":"-80.55364000"},{"name":"Mogollón","latitude":"7.64261000","longitude":"-80.45950000"},{"name":"Nuario","latitude":"7.53047000","longitude":"-80.32692000"},{"name":"Oria Arriba","latitude":"7.50505000","longitude":"-80.20567000"},{"name":"Palmira","latitude":"7.66347000","longitude":"-80.35728000"},{"name":"Paraíso","latitude":"7.68510000","longitude":"-80.16082000"},{"name":"Paritilla","latitude":"7.62848000","longitude":"-80.17240000"},{"name":"Pedasí","latitude":"7.53034000","longitude":"-80.02699000"},{"name":"Peña Blanca","latitude":"7.71931000","longitude":"-80.28366000"},{"name":"Perales","latitude":"7.77461000","longitude":"-80.32494000"},{"name":"Pocrí","latitude":"7.65816000","longitude":"-80.12119000"},{"name":"Río Hondo","latitude":"7.71192000","longitude":"-80.35904000"},{"name":"Sabana Grande","latitude":"7.83543000","longitude":"-80.36490000"},{"name":"San José","latitude":"7.67395000","longitude":"-80.24438000"},{"name":"Santa Ana Arriba","latitude":"7.93300000","longitude":"-80.36369000"},{"name":"Santo Domingo","latitude":"7.74614000","longitude":"-80.24173000"},{"name":"Sesteadero","latitude":"7.73885000","longitude":"-80.24854000"},{"name":"Tonosí","latitude":"7.40684000","longitude":"-80.44217000"},{"name":"Tres Quebradas","latitude":"7.84018000","longitude":"-80.40740000"},{"name":"Valle Rico","latitude":"7.62011000","longitude":"-80.35076000"},{"name":"Vallerriquito","latitude":"7.62163000","longitude":"-80.31975000"},{"name":"Villa Lourdes","latitude":"7.81141000","longitude":"-80.47029000"}]},{"name":"Ngöbe-Buglé Comarca","state_code":"NB","latitude":"8.65958330","longitude":"-81.77870210","cities":[{"name":"Bahía Azul","latitude":"9.14176000","longitude":"-81.89425000"},{"name":"Besiko","latitude":"8.54863000","longitude":"-82.08980000"},{"name":"Bisira","latitude":"8.89553000","longitude":"-81.85352000"},{"name":"Boca de Balsa","latitude":"8.52995000","longitude":"-82.03132000"},{"name":"Buenos Aires","latitude":"8.41384000","longitude":"-81.48440000"},{"name":"Camarón Arriba","latitude":"8.38324000","longitude":"-81.99345000"},{"name":"Cerro Banco","latitude":"8.45797000","longitude":"-82.03081000"},{"name":"Cerro Caña","latitude":"8.35174000","longitude":"-81.61050000"},{"name":"Cerro Plata","latitude":"8.47733000","longitude":"-81.54585000"},{"name":"Chichica","latitude":"8.35885000","longitude":"-81.66582000"},{"name":"Guayabito","latitude":"8.53949000","longitude":"-81.48225000"},{"name":"Hato Chami","latitude":"8.44281000","longitude":"-81.77196000"},{"name":"Hato Corotú","latitude":"8.33516000","longitude":"-81.97030000"},{"name":"Kankintú","latitude":"8.89503000","longitude":"-81.85750000"},{"name":"Kusapín","latitude":"9.17119000","longitude":"-81.89621000"},{"name":"Lajero Arriba","latitude":"8.29060000","longitude":"-81.77047000"},{"name":"Llano Ñopo","latitude":"8.41996000","longitude":"-81.61865000"},{"name":"Loma Yuca","latitude":"8.71817000","longitude":"-81.40492000"},{"name":"Mirono","latitude":"8.40469000","longitude":"-81.83064000"},{"name":"Müna","latitude":"8.35035000","longitude":"-81.67219000"},{"name":"Nole Düima","latitude":"8.32682000","longitude":"-81.81531000"},{"name":"Nurun","latitude":"8.47815000","longitude":"-81.47015000"},{"name":"Oma","latitude":"8.35019000","longitude":"-81.80177000"},{"name":"Paredón Arriba","latitude":"8.45977000","longitude":"-81.19592000"},{"name":"Plan de Chorcha","latitude":"8.46168000","longitude":"-82.15924000"},{"name":"Pueblo Nuevo","latitude":"8.88070000","longitude":"-82.22411000"},{"name":"Quebrada Canoa","latitude":"8.43333000","longitude":"-81.78333000"},{"name":"Quebrada Tula","latitude":"8.84037000","longitude":"-81.99645000"},{"name":"Sitio Prado","latitude":"8.37233000","longitude":"-81.58141000"},{"name":"Tobobe","latitude":"9.12111000","longitude":"-81.82471000"}]},{"name":"Panamá Oeste Province","state_code":"10","latitude":"9.11967510","longitude":"-79.29021330","cities":[{"name":"Alto del Espino","latitude":"8.84213000","longitude":"-79.84551000"},{"name":"Altos de San Francisco","latitude":"8.86167000","longitude":"-79.79000000"},{"name":"Arenosa","latitude":"9.03978000","longitude":"-79.95128000"},{"name":"Arosemena","latitude":"8.97091000","longitude":"-79.96641000"},{"name":"Arraiján","latitude":"8.95187000","longitude":"-79.66011000"},{"name":"Bejuco","latitude":"8.60037000","longitude":"-79.88988000"},{"name":"Buenos Aires","latitude":"8.63146000","longitude":"-79.94775000"},{"name":"Cabuya","latitude":"8.57472000","longitude":"-79.92714000"},{"name":"Caimito","latitude":"8.81143000","longitude":"-79.94738000"},{"name":"Capira","latitude":"8.75636000","longitude":"-79.87996000"},{"name":"Cermeño","latitude":"8.74082000","longitude":"-79.85299000"},{"name":"Cerro Cama","latitude":"9.02802000","longitude":"-79.90744000"},{"name":"Chame","latitude":"8.57753000","longitude":"-79.88595000"},{"name":"Cirí de Los Sotos","latitude":"8.97206000","longitude":"-80.09209000"},{"name":"Distrito Arraiján","latitude":"8.95000000","longitude":"-79.70000000"},{"name":"Distrito de Capira","latitude":"8.76228000","longitude":"-79.88275000"},{"name":"Distrito de Chame","latitude":"8.60000000","longitude":"-79.91667000"},{"name":"Distrito de La Chorrera","latitude":"8.95000000","longitude":"-79.85000000"},{"name":"Distrito de San Carlos","latitude":"8.53196000","longitude":"-80.06906000"},{"name":"El Cacao","latitude":"8.76134000","longitude":"-80.01294000"},{"name":"El Coco","latitude":"8.87009000","longitude":"-79.80415000"},{"name":"El Espavé","latitude":"8.66161000","longitude":"-79.87584000"},{"name":"El Espino","latitude":"8.83795000","longitude":"-79.84925000"},{"name":"El Higo","latitude":"8.44731000","longitude":"-80.03603000"},{"name":"El Líbano","latitude":"8.61685000","longitude":"-79.83483000"},{"name":"Guadalupe","latitude":"8.85452000","longitude":"-79.81408000"},{"name":"Guayabito","latitude":"8.54828000","longitude":"-80.01350000"},{"name":"Hato Montaña","latitude":"8.91938000","longitude":"-79.73915000"},{"name":"La Chorrera","latitude":"8.88028000","longitude":"-79.78333000"},{"name":"La Ermita","latitude":"8.45622000","longitude":"-80.06835000"},{"name":"La Herradura","latitude":"8.84848000","longitude":"-79.80404000"},{"name":"La Laguna","latitude":"9.04404000","longitude":"-79.84215000"},{"name":"La Mitra","latitude":"8.84091000","longitude":"-79.78648000"},{"name":"La Pesa","latitude":"8.85073000","longitude":"-79.82374000"},{"name":"Las Colinas","latitude":"8.55000000","longitude":"-80.08333000"},{"name":"Las Lajas","latitude":"8.54963000","longitude":"-79.93521000"},{"name":"Las Uvas","latitude":"8.45937000","longitude":"-80.00075000"},{"name":"Llano Largo","latitude":"8.83463000","longitude":"-79.80765000"},{"name":"Los Llanitos","latitude":"8.59787000","longitude":"-80.09503000"},{"name":"Mendoza","latitude":"9.01471000","longitude":"-79.85073000"},{"name":"Nueva Arenosa","latitude":"8.86944000","longitude":"-79.99472000"},{"name":"Nueva Gorgona","latitude":"8.55000000","longitude":"-79.87547000"},{"name":"Nuevo Arraiján","latitude":"8.92453000","longitude":"-79.72004000"},{"name":"Nuevo Emperador","latitude":"9.00273000","longitude":"-79.73141000"},{"name":"Playa Leona","latitude":"8.78389000","longitude":"-79.77547000"},{"name":"Potrero Grande","latitude":"8.88051000","longitude":"-79.82795000"},{"name":"Puerto Caimito","latitude":"8.87022000","longitude":"-79.71423000"},{"name":"Río Congo","latitude":"8.96666000","longitude":"-79.76105000"},{"name":"San Carlos","latitude":"8.47323000","longitude":"-79.96104000"},{"name":"San José","latitude":"8.93333000","longitude":"-79.73333000"},{"name":"San Vicente de Bique","latitude":"8.91143000","longitude":"-79.67360000"},{"name":"Santa Clara","latitude":"9.02875000","longitude":"-79.75443000"},{"name":"Santa Rita","latitude":"8.85681000","longitude":"-79.87954000"},{"name":"Sorá","latitude":"8.63191000","longitude":"-80.00888000"},{"name":"Veracruz","latitude":"8.88988000","longitude":"-79.62603000"},{"name":"Villa Carmen","latitude":"8.79832000","longitude":"-79.86929000"},{"name":"Villa Rosario","latitude":"8.77379000","longitude":"-79.87547000"},{"name":"Vista Alegre","latitude":"8.92772000","longitude":"-79.70280000"}]},{"name":"Panamá Province","state_code":"8","latitude":"9.11967510","longitude":"-79.29021330","cities":[{"name":"Alcalde Díaz","latitude":"9.12016000","longitude":"-79.55641000"},{"name":"Ancón","latitude":"8.96015000","longitude":"-79.55140000"},{"name":"Brujas","latitude":"8.58536000","longitude":"-78.53008000"},{"name":"Cabra Número Uno","latitude":"9.10863000","longitude":"-79.33694000"},{"name":"Caimitillo","latitude":"9.15559000","longitude":"-79.53974000"},{"name":"Calzada Larga","latitude":"9.17272000","longitude":"-79.56212000"},{"name":"Cañita","latitude":"9.22236000","longitude":"-78.89509000"},{"name":"Cerro Azul","latitude":"9.15735000","longitude":"-79.42097000"},{"name":"Chepillo","latitude":"8.95396000","longitude":"-79.12856000"},{"name":"Chepo","latitude":"9.17019000","longitude":"-79.10083000"},{"name":"Chilibre","latitude":"9.15093000","longitude":"-79.62098000"},{"name":"Chimán","latitude":"8.69125000","longitude":"-78.63570000"},{"name":"Contadora","latitude":"8.62483000","longitude":"-79.03748000"},{"name":"Curundú","latitude":"8.97092000","longitude":"-79.54612000"},{"name":"Distrito de Balboa","latitude":"8.46667000","longitude":"-79.00000000"},{"name":"Distrito de Chepo","latitude":"9.17391000","longitude":"-78.70374000"},{"name":"Distrito de Chimán","latitude":"8.76043000","longitude":"-78.56470000"},{"name":"Distrito de Panamá","latitude":"9.30612000","longitude":"-79.45246000"},{"name":"Distrito de Taboga","latitude":"8.78333000","longitude":"-79.55833000"},{"name":"El Chorrillo","latitude":"8.94964000","longitude":"-79.54715000"},{"name":"El Progreso","latitude":"9.26667000","longitude":"-79.11667000"},{"name":"Gonzalillo","latitude":"9.09183000","longitude":"-79.51928000"},{"name":"Howard","latitude":"8.93942000","longitude":"-79.59097000"},{"name":"Juan Díaz","latitude":"9.05000000","longitude":"-79.45000000"},{"name":"La Cabima","latitude":"9.11865000","longitude":"-79.53660000"},{"name":"La Colorada","latitude":"9.10224000","longitude":"-79.41600000"},{"name":"La Ensenada","latitude":"8.36618000","longitude":"-78.84606000"},{"name":"La Esmeralda","latitude":"8.26817000","longitude":"-78.92460000"},{"name":"La Guinea","latitude":"8.34250000","longitude":"-78.93430000"},{"name":"La Mesa","latitude":"9.17308000","longitude":"-79.27401000"},{"name":"Las Cumbres","latitude":"9.08916000","longitude":"-79.52809000"},{"name":"Las Margaritas","latitude":"9.18426000","longitude":"-79.08730000"},{"name":"Lídice","latitude":"8.74869000","longitude":"-79.90974000"},{"name":"Los Lotes","latitude":"9.12425000","longitude":"-79.28929000"},{"name":"Nueva Esperanza","latitude":"9.10210000","longitude":"-79.33414000"},{"name":"Nuevo Belén","latitude":"9.07939000","longitude":"-79.39556000"},{"name":"Pacora","latitude":"9.07937000","longitude":"-79.28997000"},{"name":"Panamá","latitude":"8.99360000","longitude":"-79.51973000"},{"name":"Parque Lefevre","latitude":"9.01667000","longitude":"-79.48333000"},{"name":"Pásiga","latitude":"8.93647000","longitude":"-78.90917000"},{"name":"Pedregal","latitude":"9.06667000","longitude":"-79.43333000"},{"name":"Río Abajo","latitude":"9.01667000","longitude":"-79.50000000"},{"name":"San Antonio","latitude":"9.17290000","longitude":"-79.54743000"},{"name":"San Felipe","latitude":"8.95118000","longitude":"-79.53726000"},{"name":"San Miguel","latitude":"8.45685000","longitude":"-78.93695000"},{"name":"San Miguelito","latitude":"9.05032000","longitude":"-79.47068000"},{"name":"San Vicente","latitude":"9.11445000","longitude":"-79.59755000"},{"name":"Tocumen","latitude":"9.08939000","longitude":"-79.38310000"},{"name":"Tortí","latitude":"8.92132000","longitude":"-78.40546000"},{"name":"Unión de Azuero","latitude":"9.15256000","longitude":"-79.17005000"},{"name":"Unión Santeña","latitude":"8.83525000","longitude":"-78.65104000"},{"name":"Villa Unida","latitude":"9.18908000","longitude":"-79.62452000"},{"name":"Vista Hermosa","latitude":"9.11178000","longitude":"-79.36113000"}]},{"name":"Veraguas Province","state_code":"9","latitude":"8.12310330","longitude":"-81.07546570","cities":[{"name":"Alto de Jesús","latitude":"8.26152000","longitude":"-81.48412000"},{"name":"Arenas","latitude":"7.36865000","longitude":"-80.86268000"},{"name":"Atalaya","latitude":"8.04213000","longitude":"-80.92528000"},{"name":"Barnizal","latitude":"8.40460000","longitude":"-80.77765000"},{"name":"Bisvalles","latitude":"8.18298000","longitude":"-81.22092000"},{"name":"Boquerón","latitude":"8.24414000","longitude":"-80.85897000"},{"name":"Boró","latitude":"8.16933000","longitude":"-81.30071000"},{"name":"Calabacito","latitude":"8.24817000","longitude":"-81.08187000"},{"name":"Calidonia","latitude":"7.95756000","longitude":"-81.38633000"},{"name":"Calobre","latitude":"8.31886000","longitude":"-80.84067000"},{"name":"Calovébora","latitude":"8.78703000","longitude":"-81.21056000"},{"name":"Cañazas","latitude":"8.32004000","longitude":"-81.21152000"},{"name":"Canto del Llano","latitude":"8.12472000","longitude":"-80.96374000"},{"name":"Corozal","latitude":"8.07712000","longitude":"-81.43990000"},{"name":"Distrito de Atalaya","latitude":"8.02899000","longitude":"-80.91739000"},{"name":"Distrito de Calobre","latitude":"8.39684000","longitude":"-80.85124000"},{"name":"Distrito de Cañazas","latitude":"8.35596000","longitude":"-81.28633000"},{"name":"Distrito de La Mesa","latitude":"8.10976000","longitude":"-81.17767000"},{"name":"Distrito de Las Palmas","latitude":"8.14532000","longitude":"-81.42849000"},{"name":"Distrito de Montijo","latitude":"7.95316000","longitude":"-81.05301000"},{"name":"Distrito de Río de Jesús","latitude":"7.91438000","longitude":"-81.16133000"},{"name":"Distrito de San Francisco","latitude":"8.26965000","longitude":"-81.00108000"},{"name":"Distrito de Santa Fé","latitude":"8.72063000","longitude":"-80.95858000"},{"name":"Distrito de Santiago","latitude":"8.12425000","longitude":"-80.87827000"},{"name":"Distrito de Soná","latitude":"7.84378000","longitude":"-81.36612000"},{"name":"El Alto","latitude":"8.51191000","longitude":"-81.03646000"},{"name":"El Barrito","latitude":"7.96059000","longitude":"-80.94801000"},{"name":"El Coclá","latitude":"8.32143000","longitude":"-80.92069000"},{"name":"El Espino de Santa Rosa","latitude":"8.09286000","longitude":"-80.82380000"},{"name":"El Marañón","latitude":"8.03582000","longitude":"-81.21489000"},{"name":"El María","latitude":"8.02905000","longitude":"-81.44384000"},{"name":"El Pájaro","latitude":"7.95342000","longitude":"-81.12154000"},{"name":"El Pantano","latitude":"8.53755000","longitude":"-81.06941000"},{"name":"El Peñón","latitude":"8.35000000","longitude":"-80.97620000"},{"name":"El Picador","latitude":"8.37803000","longitude":"-81.25621000"},{"name":"El Potrero","latitude":"8.37692000","longitude":"-80.79434000"},{"name":"El Rincón","latitude":"8.18422000","longitude":"-81.43333000"},{"name":"El Uvito","latitude":"8.11648000","longitude":"-80.98461000"},{"name":"Guarumal","latitude":"7.79404000","longitude":"-81.25904000"},{"name":"La Colorada","latitude":"8.01319000","longitude":"-80.98590000"},{"name":"La Garceana","latitude":"7.93708000","longitude":"-81.01643000"},{"name":"La Laguna","latitude":"8.33882000","longitude":"-80.72949000"},{"name":"La Loma","latitude":"7.43708000","longitude":"-80.89118000"},{"name":"La Mesa","latitude":"8.14707000","longitude":"-81.18114000"},{"name":"La Montañuela","latitude":"8.02487000","longitude":"-80.86325000"},{"name":"La Peña","latitude":"8.12784000","longitude":"-81.02693000"},{"name":"La Raya de Calobre","latitude":"8.21630000","longitude":"-80.82729000"},{"name":"La Raya de Santa María","latitude":"8.16429000","longitude":"-80.82143000"},{"name":"La Yeguada","latitude":"8.43060000","longitude":"-80.85752000"},{"name":"Las Guías Abajo","latitude":"8.19451000","longitude":"-80.75494000"},{"name":"Las Huacas","latitude":"7.90167000","longitude":"-81.14056000"},{"name":"Las Palmas","latitude":"8.13564000","longitude":"-81.45674000"},{"name":"Leones Arriba","latitude":"7.75415000","longitude":"-81.11556000"},{"name":"Llano Grande","latitude":"8.07473000","longitude":"-81.13626000"},{"name":"Lolá","latitude":"8.09326000","longitude":"-81.47163000"},{"name":"Los Algarrobos","latitude":"8.10898000","longitude":"-81.01355000"},{"name":"Los Castillos","latitude":"8.02326000","longitude":"-81.11941000"},{"name":"Los Higos","latitude":"8.20553000","longitude":"-80.86022000"},{"name":"Mariato District","latitude":"7.67810000","longitude":"-81.00409000"},{"name":"Monjarás","latitude":"8.36942000","longitude":"-80.86667000"},{"name":"Montijo","latitude":"7.98858000","longitude":"-81.05643000"},{"name":"Piedras Gordas","latitude":"8.52419000","longitude":"-80.91152000"},{"name":"Ponuga","latitude":"7.88245000","longitude":"-80.97880000"},{"name":"Puerto Vidal","latitude":"8.04834000","longitude":"-81.60499000"},{"name":"Quebrada de Oro","latitude":"8.03548000","longitude":"-81.38692000"},{"name":"Río de Jesús","latitude":"7.97882000","longitude":"-81.16162000"},{"name":"Río Grande","latitude":"7.71907000","longitude":"-81.33423000"},{"name":"Rodeo Viejo","latitude":"8.11205000","longitude":"-81.31684000"},{"name":"San Bartolo","latitude":"8.21063000","longitude":"-81.27572000"},{"name":"San Francisco","latitude":"8.06667000","longitude":"-81.36667000"},{"name":"San José","latitude":"8.46704000","longitude":"-80.80514000"},{"name":"San Juan","latitude":"8.30311000","longitude":"-81.01575000"},{"name":"San Marcelo","latitude":"8.27252000","longitude":"-81.15988000"},{"name":"San Pedro del Espino","latitude":"8.14011000","longitude":"-81.08663000"},{"name":"Santa Fé","latitude":"8.51063000","longitude":"-81.07802000"},{"name":"Santiago de Veraguas","latitude":"8.10000000","longitude":"-80.98333000"},{"name":"Soná","latitude":"8.01223000","longitude":"-81.32163000"},{"name":"Tebario","latitude":"7.71369000","longitude":"-80.97825000"},{"name":"Utirá","latitude":"7.97208000","longitude":"-81.21777000"},{"name":"Viguí","latitude":"8.33921000","longitude":"-81.49823000"},{"name":"Zapotillo","latitude":"8.00532000","longitude":"-81.50653000"}]}]}