{
  "code": "PE",
  "states": [
    {
      "name": "Amazonas",
      "state_code": "AMA",
      "latitude": null,
      "longitude": null,
      "cities": [
        {
          "name": "Bagua Grande",
          "latitude": "-5.75611000",
          "longitude": "-78.44111000"
        },
        {
          "name": "Cajaruro",
          "latitude": "-5.73639000",
          "longitude": "-78.42556000"
        },
        {
          "name": "Chachapoyas",
          "latitude": "-6.23169000",
          "longitude": "-77.86903000"
        },
        {
          "name": "Condorcanqui",
          "latitude": "-4.16515000",
          "longitude": "-78.03840000"
        },
        {
          "name": "La Peca",
          "latitude": "-5.61111000",
          "longitude": "-78.43500000"
        },
        {
          "name": "Provincia de Bagua",
          "latitude": "-5.09006000",
          "longitude": "-78.39972000"
        },
        {
          "name": "Provincia de Bongará",
          "latitude": "-5.68341000",
          "longitude": "-77.87308000"
        },
        {
          "name": "Provincia de Chachapoyas",
          "latitude": "-6.27480000",
          "longitude": "-77.81067000"
        },
        {
          "name": "Provincia de Luya",
          "latitude": "-6.41667000",
          "longitude": "-78.00000000"
        },
        {
          "name": "Provincia de Rodríguez de Mendoza",
          "latitude": "-6.33333000",
          "longitude": "-77.41667000"
        },
        {
          "name": "Utcubamba",
          "latitude": "-5.77031000",
          "longitude": "-78.32850000"
        }
      ]
    },
    {
      "name": "Áncash",
      "state_code": "ANC",
      "latitude": "-9.32504970",
      "longitude": "-77.56194190",
      "cities": [
        {
          "name": "Asuncion",
          "latitude": "-9.18987000",
          "longitude": "-77.39878000"
        },
        {
          "name": "Carás",
          "latitude": "-9.04692000",
          "longitude": "-77.80901000"
        },
        {
          "name": "Carhuaz",
          "latitude": "-9.28194000",
          "longitude": "-77.64472000"
        },
        {
          "name": "Carlos Fermin Fitzcarrald",
          "latitude": "-9.04415000",
          "longitude": "-77.24168000"
        },
        {
          "name": "Chimbote",
          "latitude": "-9.08528000",
          "longitude": "-78.57833000"
        },
        {
          "name": "Coishco",
          "latitude": "-9.02306000",
          "longitude": "-78.61556000"
        },
        {
          "name": "Huaraz",
          "latitude": "-9.52779000",
          "longitude": "-77.52778000"
        },
        {
          "name": "Huarmey",
          "latitude": "-10.06806000",
          "longitude": "-78.15222000"
        },
        {
          "name": "Pomabamba",
          "latitude": "-8.83333000",
          "longitude": "-77.46667000"
        },
        {
          "name": "Provincia de Aija",
          "latitude": "-9.83333000",
          "longitude": "-77.66667000"
        },
        {
          "name": "Provincia de Antonio Raymondi",
          "latitude": "-9.08333000",
          "longitude": "-77.08333000"
        },
        {
          "name": "Provincia de Bolognesi",
          "latitude": "-10.10723000",
          "longitude": "-77.14804000"
        },
        {
          "name": "Provincia de Carhuaz",
          "latitude": "-9.31700000",
          "longitude": "-77.55100000"
        },
        {
          "name": "Provincia de Casma",
          "latitude": "-9.47638000",
          "longitude": "-78.24738000"
        },
        {
          "name": "Provincia de Corongo",
          "latitude": "-8.58333000",
          "longitude": "-77.91667000"
        },
        {
          "name": "Provincia de Huaraz",
          "latitude": "-9.56109000",
          "longitude": "-77.64605000"
        },
        {
          "name": "Provincia de Huari",
          "latitude": "-9.33333000",
          "longitude": "-77.16667000"
        },
        {
          "name": "Provincia de Huarmey",
          "latitude": "-9.91667000",
          "longitude": "-78.00000000"
        },
        {
          "name": "Provincia de Huaylas",
          "latitude": "-8.91667000",
          "longitude": "-77.83333000"
        },
        {
          "name": "Provincia de Mariscal Luzuriaga",
          "latitude": "-8.83333000",
          "longitude": "-77.25000000"
        },
        {
          "name": "Provincia de Pallasca",
          "latitude": "-8.33333000",
          "longitude": "-77.91667000"
        },
        {
          "name": "Provincia de Pomabamba",
          "latitude": "-8.82311000",
          "longitude": "-77.47559000"
        },
        {
          "name": "Provincia de Recuay",
          "latitude": "-10.00000000",
          "longitude": "-77.41667000"
        },
        {
          "name": "Provincia de Santa",
          "latitude": "-9.00000000",
          "longitude": "-78.25000000"
        },
        {
          "name": "Provincia de Sihuas",
          "latitude": "-8.50000000",
          "longitude": "-77.50000000"
        },
        {
          "name": "Provincia de Yungay",
          "latitude": "-9.16667000",
          "longitude": "-77.75000000"
        },
        {
          "name": "Puerto Santa",
          "latitude": "-8.98772000",
          "longitude": "-78.64727000"
        },
        {
          "name": "Yauya",
          "latitude": "-8.98333000",
          "longitude": "-77.30000000"
        },
        {
          "name": "Yungay",
          "latitude": "-9.13833000",
          "longitude": "-77.74361000"
        }
      ]
    },
    {
      "name": "Apurímac",
      "state_code": "APU",
      "latitude": "-14.05045330",
      "longitude": "-73.08774900",
      "cities": [
        {
          "name": "Abancay",
          "latitude": "-13.63389000",
          "longitude": "-72.88139000"
        },
        {
          "name": "Andahuaylas",
          "latitude": "-13.65556000",
          "longitude": "-73.38722000"
        },
        {
          "name": "Provincia de Abancay",
          "latitude": "-13.66667000",
          "longitude": "-72.91667000"
        },
        {
          "name": "Provincia de Andahuaylas",
          "latitude": "-13.66667000",
          "longitude": "-73.41667000"
        },
        {
          "name": "Provincia de Antabamba",
          "latitude": "-14.41667000",
          "longitude": "-72.75000000"
        },
        {
          "name": "Provincia de Aymaraes",
          "latitude": "-14.41667000",
          "longitude": "-73.25000000"
        },
        {
          "name": "Provincia de Cotabambas",
          "latitude": "-14.00000000",
          "longitude": "-72.20000000"
        },
        {
          "name": "Provincia de Grau",
          "latitude": "-14.00000000",
          "longitude": "-72.58333000"
        },
        {
          "name": "San Jerónimo",
          "latitude": "-13.65138000",
          "longitude": "-73.36388000"
        },
        {
          "name": "Talavera",
          "latitude": "-13.65306000",
          "longitude": "-73.42917000"
        }
      ]
    },
    {
      "name": "Arequipa",
      "state_code": "ARE",
      "latitude": "-16.40904740",
      "longitude": "-71.53745100",
      "cities": [
        {
          "name": "Acarí",
          "latitude": "-15.42393000",
          "longitude": "-74.61361000"
        },
        {
          "name": "Arequipa",
          "latitude": "-16.39889000",
          "longitude": "-71.53500000"
        },
        {
          "name": "Camaná",
          "latitude": "-16.62375000",
          "longitude": "-72.71055000"
        },
        {
          "name": "Ccolo",
          "latitude": "-15.50611000",
          "longitude": "-71.49184000"
        },
        {
          "name": "Chivay",
          "latitude": "-15.63833000",
          "longitude": "-71.60111000"
        },
        {
          "name": "Cocachacra",
          "latitude": "-17.08833000",
          "longitude": "-71.75750000"
        },
        {
          "name": "Cotahuasi",
          "latitude": "-15.21306000",
          "longitude": "-72.88861000"
        },
        {
          "name": "Huarancante",
          "latitude": "-15.76803000",
          "longitude": "-71.45952000"
        },
        {
          "name": "Huarichancara",
          "latitude": "-15.63972000",
          "longitude": "-71.06111000"
        },
        {
          "name": "Jatun Orcochiri",
          "latitude": "-15.75003000",
          "longitude": "-71.34641000"
        },
        {
          "name": "Jayune",
          "latitude": "-15.56277000",
          "longitude": "-71.30312000"
        },
        {
          "name": "Llongasora",
          "latitude": "-15.63951000",
          "longitude": "-71.29921000"
        },
        {
          "name": "Lluta",
          "latitude": "-16.01472000",
          "longitude": "-72.01417000"
        },
        {
          "name": "Mollendo",
          "latitude": "-17.02306000",
          "longitude": "-72.01472000"
        },
        {
          "name": "Orcopampa",
          "latitude": "-15.26611000",
          "longitude": "-72.34167000"
        },
        {
          "name": "Provincia de Arequipa",
          "latitude": "-16.33333000",
          "longitude": "-71.50000000"
        },
        {
          "name": "Provincia de Camaná",
          "latitude": "-16.41667000",
          "longitude": "-72.83333000"
        },
        {
          "name": "Provincia de Caravelí",
          "latitude": "-15.58333000",
          "longitude": "-74.00000000"
        },
        {
          "name": "Provincia de Castilla",
          "latitude": "-15.58333000",
          "longitude": "-72.41667000"
        },
        {
          "name": "Provincia de Caylloma",
          "latitude": "-15.66667000",
          "longitude": "-71.58333000"
        },
        {
          "name": "Provincia de Condesuyos",
          "latitude": "-15.58333000",
          "longitude": "-72.83333000"
        },
        {
          "name": "Provincia de Islay",
          "latitude": "-17.00000000",
          "longitude": "-71.83333000"
        },
        {
          "name": "Provincia de La Unión",
          "latitude": "-15.00000000",
          "longitude": "-72.83333000"
        },
        {
          "name": "Pucara",
          "latitude": "-15.97993000",
          "longitude": "-71.45988000"
        },
        {
          "name": "Punta de Bombón",
          "latitude": "-17.17190000",
          "longitude": "-71.79240000"
        },
        {
          "name": "Vizcachane",
          "latitude": "-15.80861000",
          "longitude": "-71.20111000"
        },
        {
          "name": "Yura",
          "latitude": "-16.25223000",
          "longitude": "-71.67969000"
        }
      ]
    },
    {
      "name": "Ayacucho",
      "state_code": "AYA",
      "latitude": "-13.16387370",
      "longitude": "-74.22356410",
      "cities": [
        {
          "name": "Ayacucho",
          "latitude": "-13.15878000",
          "longitude": "-74.22321000"
        },
        {
          "name": "Ayna",
          "latitude": "-12.65000000",
          "longitude": "-73.91667000"
        },
        {
          "name": "Coracora",
          "latitude": "-15.03333000",
          "longitude": "-73.78333000"
        },
        {
          "name": "Huanta",
          "latitude": "-12.93333000",
          "longitude": "-74.25000000"
        },
        {
          "name": "Paucar Del Sara Sara",
          "latitude": "-15.12275000",
          "longitude": "-73.26177000"
        },
        {
          "name": "Provincia de Cangallo",
          "latitude": "-13.57300000",
          "longitude": "-74.38900000"
        },
        {
          "name": "Provincia de Huamanga",
          "latitude": "-13.20000000",
          "longitude": "-74.25000000"
        },
        {
          "name": "Provincia de Huanca Sancos",
          "latitude": "-14.07600000",
          "longitude": "-74.42800000"
        },
        {
          "name": "Provincia de Huanta",
          "latitude": "-12.50000000",
          "longitude": "-74.16667000"
        },
        {
          "name": "Provincia de La Mar",
          "latitude": "-12.91667000",
          "longitude": "-73.83333000"
        },
        {
          "name": "Provincia de Lucanas",
          "latitude": "-14.50000000",
          "longitude": "-74.33333000"
        },
        {
          "name": "Provincia de Parinacochas",
          "latitude": "-15.02965000",
          "longitude": "-73.63487000"
        },
        {
          "name": "Provincia de Sucre",
          "latitude": "-14.10300000",
          "longitude": "-73.78600000"
        },
        {
          "name": "Provincia de Víctor Fajardo",
          "latitude": "-13.75000000",
          "longitude": "-74.33333000"
        },
        {
          "name": "Provincia de Vilcas Huamán",
          "latitude": "-13.63200000",
          "longitude": "-73.88800000"
        },
        {
          "name": "Puquio",
          "latitude": "-14.70000000",
          "longitude": "-74.13333000"
        },
        {
          "name": "San Miguel",
          "latitude": "-13.01250000",
          "longitude": "-73.98083000"
        },
        {
          "name": "Tambo",
          "latitude": "-14.79847000",
          "longitude": "-73.92438000"
        }
      ]
    },
    {
      "name": "Cajamarca",
      "state_code": "CAJ",
      "latitude": "-7.16174650",
      "longitude": "-78.51278550",
      "cities": [
        {
          "name": "Bambamarca",
          "latitude": "-6.68333000",
          "longitude": "-78.53333000"
        },
        {
          "name": "Bellavista",
          "latitude": "-5.66417000",
          "longitude": "-78.67722000"
        },
        {
          "name": "Cajabamba",
          "latitude": "-7.61667000",
          "longitude": "-78.05000000"
        },
        {
          "name": "Cajamarca",
          "latitude": "-7.16378000",
          "longitude": "-78.50027000"
        },
        {
          "name": "Celendín",
          "latitude": "-6.86590000",
          "longitude": "-78.14585000"
        },
        {
          "name": "Chota",
          "latitude": "-6.55000000",
          "longitude": "-78.65000000"
        },
        {
          "name": "Jaén",
          "latitude": "-5.70729000",
          "longitude": "-78.80785000"
        },
        {
          "name": "Provincia de Cajabamba",
          "latitude": "-7.50000000",
          "longitude": "-78.16667000"
        },
        {
          "name": "Provincia de Cajamarca",
          "latitude": "-7.33333000",
          "longitude": "-78.41667000"
        },
        {
          "name": "Provincia de Celendín",
          "latitude": "-6.83333000",
          "longitude": "-78.25000000"
        },
        {
          "name": "Provincia de Chota",
          "latitude": "-6.38332000",
          "longitude": "-79.18055000"
        },
        {
          "name": "Provincia de Contumazá",
          "latitude": "-7.33333000",
          "longitude": "-78.91667000"
        },
        {
          "name": "Provincia de Cutervo",
          "latitude": "-6.36667000",
          "longitude": "-78.85000000"
        },
        {
          "name": "Provincia de Hualgayoc",
          "latitude": "-6.68000000",
          "longitude": "-78.53000000"
        },
        {
          "name": "Provincia de Jaén",
          "latitude": "-5.71074000",
          "longitude": "-79.00438000"
        },
        {
          "name": "Provincia de San Ignacio",
          "latitude": "-5.08333000",
          "longitude": "-79.00000000"
        },
        {
          "name": "Provincia de San Miguel",
          "latitude": "-7.00000000",
          "longitude": "-79.00000000"
        },
        {
          "name": "Provincia de Santa Cruz",
          "latitude": "-6.83333000",
          "longitude": "-79.00000000"
        },
        {
          "name": "San Ignacio",
          "latitude": "-5.14583000",
          "longitude": "-79.00139000"
        }
      ]
    },
    {
      "name": "Callao",
      "state_code": "CAL",
      "latitude": "-12.05084910",
      "longitude": "-77.12598430",
      "cities": [
        {
          "name": "Callao",
          "latitude": "-12.05659000",
          "longitude": "-77.11814000"
        }
      ]
    },
    {
      "name": "Cusco",
      "state_code": "CUS",
      "latitude": "-13.53195000",
      "longitude": "-71.96746260",
      "cities": [
        {
          "name": "Anta",
          "latitude": "-13.47056000",
          "longitude": "-72.14833000"
        },
        {
          "name": "Cahuanuyo",
          "latitude": "-14.34147000",
          "longitude": "-71.46311000"
        },
        {
          "name": "Calca",
          "latitude": "-13.33333000",
          "longitude": "-71.95000000"
        },
        {
          "name": "Callanca",
          "latitude": "-14.18137000",
          "longitude": "-71.14070000"
        },
        {
          "name": "Ccaquiracunca",
          "latitude": "-14.27683000",
          "longitude": "-71.45026000"
        },
        {
          "name": "Ccuntuma",
          "latitude": "-14.12540000",
          "longitude": "-71.41216000"
        },
        {
          "name": "Checacupe",
          "latitude": "-14.02694000",
          "longitude": "-71.45278000"
        },
        {
          "name": "Checca",
          "latitude": "-14.47278000",
          "longitude": "-71.39389000"
        },
        {
          "name": "Chignayhua",
          "latitude": "-14.24610000",
          "longitude": "-71.44442000"
        },
        {
          "name": "Chinchero",
          "latitude": "-13.39222000",
          "longitude": "-72.04778000"
        },
        {
          "name": "Combapata",
          "latitude": "-14.10111000",
          "longitude": "-71.42944000"
        },
        {
          "name": "Conchopata",
          "latitude": "-14.46968000",
          "longitude": "-71.19843000"
        },
        {
          "name": "Cullcuyre",
          "latitude": "-14.09272000",
          "longitude": "-71.33119000"
        },
        {
          "name": "Cusco",
          "latitude": "-13.52264000",
          "longitude": "-71.96734000"
        },
        {
          "name": "Huayna Alcalde",
          "latitude": "-14.26989000",
          "longitude": "-71.09599000"
        },
        {
          "name": "Jayobamba",
          "latitude": "-14.09425000",
          "longitude": "-71.33922000"
        },
        {
          "name": "Langui",
          "latitude": "-14.43194000",
          "longitude": "-71.27306000"
        },
        {
          "name": "Layo",
          "latitude": "-14.49361000",
          "longitude": "-71.15500000"
        },
        {
          "name": "Lima Pampa",
          "latitude": "-14.08976000",
          "longitude": "-71.33664000"
        },
        {
          "name": "Maranganí",
          "latitude": "-14.35672000",
          "longitude": "-71.16924000"
        },
        {
          "name": "Maras",
          "latitude": "-13.33500000",
          "longitude": "-72.15667000"
        },
        {
          "name": "Mosoc Cancha",
          "latitude": "-14.28514000",
          "longitude": "-71.08773000"
        },
        {
          "name": "Mosoc Llacta",
          "latitude": "-14.12000000",
          "longitude": "-71.47278000"
        },
        {
          "name": "Ollantaytambo",
          "latitude": "-13.25722000",
          "longitude": "-72.26306000"
        },
        {
          "name": "Oropesa",
          "latitude": "-13.59278000",
          "longitude": "-71.77194000"
        },
        {
          "name": "Pampamarca",
          "latitude": "-14.14639000",
          "longitude": "-71.45944000"
        },
        {
          "name": "Pangoa",
          "latitude": "-12.11667000",
          "longitude": "-73.00000000"
        },
        {
          "name": "Paucartambo",
          "latitude": "-13.31522000",
          "longitude": "-71.59364000"
        },
        {
          "name": "Pisac",
          "latitude": "-13.42250000",
          "longitude": "-71.84667000"
        },
        {
          "name": "Provincia de Acomayo",
          "latitude": "-13.91667000",
          "longitude": "-71.66667000"
        },
        {
          "name": "Provincia de Anta",
          "latitude": "-13.50000000",
          "longitude": "-72.33333000"
        },
        {
          "name": "Provincia de Calca",
          "latitude": "-13.00000000",
          "longitude": "-72.16667000"
        },
        {
          "name": "Provincia de Canas",
          "latitude": "-14.41083000",
          "longitude": "-71.33694000"
        },
        {
          "name": "Provincia de Canchis",
          "latitude": "-14.08194000",
          "longitude": "-71.18556000"
        },
        {
          "name": "Provincia de Chumbivilcas",
          "latitude": "-14.41667000",
          "longitude": "-72.00000000"
        },
        {
          "name": "Provincia de Cusco",
          "latitude": "-13.50000000",
          "longitude": "-72.00000000"
        },
        {
          "name": "Provincia de Espinar",
          "latitude": "-14.75000000",
          "longitude": "-71.41667000"
        },
        {
          "name": "Provincia de La Convención",
          "latitude": "-12.00000000",
          "longitude": "-73.00000000"
        },
        {
          "name": "Provincia de Paruro",
          "latitude": "-13.91667000",
          "longitude": "-71.91667000"
        },
        {
          "name": "Provincia de Paucartambo",
          "latitude": "-13.16667000",
          "longitude": "-71.41667000"
        },
        {
          "name": "Provincia de Quispicanchis",
          "latitude": "-13.41667000",
          "longitude": "-71.00000000"
        },
        {
          "name": "Provincia de Urubamba",
          "latitude": "-13.25000000",
          "longitude": "-72.33333000"
        },
        {
          "name": "Qquea",
          "latitude": "-14.05417000",
          "longitude": "-71.38583000"
        },
        {
          "name": "Queromarca",
          "latitude": "-14.18391000",
          "longitude": "-71.38343000"
        },
        {
          "name": "San Pablo",
          "latitude": "-14.20278000",
          "longitude": "-71.31556000"
        },
        {
          "name": "Santa Ana",
          "latitude": "-12.86667000",
          "longitude": "-72.71667000"
        },
        {
          "name": "Santo Tomas",
          "latitude": "-14.44556000",
          "longitude": "-72.08417000"
        },
        {
          "name": "Sicuani",
          "latitude": "-14.26944000",
          "longitude": "-71.22611000"
        },
        {
          "name": "Tinta",
          "latitude": "-14.14500000",
          "longitude": "-71.40694000"
        },
        {
          "name": "Tungasuca",
          "latitude": "-14.16389000",
          "longitude": "-71.47667000"
        },
        {
          "name": "Urcos",
          "latitude": "-13.68611000",
          "longitude": "-71.62278000"
        },
        {
          "name": "Urubamba",
          "latitude": "-13.30472000",
          "longitude": "-72.11583000"
        },
        {
          "name": "Yanaoca",
          "latitude": "-14.21806000",
          "longitude": "-71.43167000"
        }
      ]
    },
    {
      "name": "Huancavelica",
      "state_code": "HUV",
      "latitude": "-12.78619780",
      "longitude": "-74.97640240",
      "cities": [
        {
          "name": "Huancavelica",
          "latitude": "-12.78261000",
          "longitude": "-74.97266000"
        },
        {
          "name": "Huaytara",
          "latitude": "-13.65616000",
          "longitude": "-75.09234000"
        },
        {
          "name": "Pampas",
          "latitude": "-12.39490000",
          "longitude": "-74.86687000"
        },
        {
          "name": "Provincia de Acobamba",
          "latitude": "-12.75000000",
          "longitude": "-74.66667000"
        },
        {
          "name": "Provincia de Angaraes",
          "latitude": "-13.00000000",
          "longitude": "-74.75000000"
        },
        {
          "name": "Provincia de Castrovirreyna",
          "latitude": "-13.14535000",
          "longitude": "-75.40598000"
        },
        {
          "name": "Provincia de Churcampa",
          "latitude": "-12.60000000",
          "longitude": "-74.52000000"
        },
        {
          "name": "Provincia de Huancavelica",
          "latitude": "-12.66667000",
          "longitude": "-75.25000000"
        },
        {
          "name": "Provincia de Tayacaja",
          "latitude": "-12.25000000",
          "longitude": "-74.75000000"
        }
      ]
    },
    {
      "name": "Huanuco",
      "state_code": "HUC",
      "latitude": "-9.92076480",
      "longitude": "-76.24108430",
      "cities": [
        {
          "name": "Ambo",
          "latitude": "-10.13083000",
          "longitude": "-76.20472000"
        },
        {
          "name": "Huacaybamba",
          "latitude": "-8.99480000",
          "longitude": "-76.81027000"
        },
        {
          "name": "Huánuco",
          "latitude": "-9.93062000",
          "longitude": "-76.24223000"
        },
        {
          "name": "La Unión",
          "latitude": "-9.82702000",
          "longitude": "-76.80199000"
        },
        {
          "name": "Lauricocha",
          "latitude": "-10.20055000",
          "longitude": "-76.70359000"
        },
        {
          "name": "Llata",
          "latitude": "-9.41667000",
          "longitude": "-76.78333000"
        },
        {
          "name": "Provincia de Ambo",
          "latitude": "-10.16667000",
          "longitude": "-76.16667000"
        },
        {
          "name": "Provincia de Dos de Mayo",
          "latitude": "-9.91667000",
          "longitude": "-76.75000000"
        },
        {
          "name": "Provincia de Huamalíes",
          "latitude": "-9.25000000",
          "longitude": "-76.50000000"
        },
        {
          "name": "Provincia de Huánuco",
          "latitude": "-9.66667000",
          "longitude": "-76.08333000"
        },
        {
          "name": "Provincia de Leoncio Prado",
          "latitude": "-9.16667000",
          "longitude": "-76.00000000"
        },
        {
          "name": "Provincia de Marañón",
          "latitude": "-8.75000000",
          "longitude": "-76.66667000"
        },
        {
          "name": "Provincia de Pachitea",
          "latitude": "-9.95262000",
          "longitude": "-75.81390000"
        },
        {
          "name": "Puerto Inca",
          "latitude": "-9.36696000",
          "longitude": "-75.08958000"
        },
        {
          "name": "San Miguel de Cauri",
          "latitude": "-10.13818000",
          "longitude": "-76.62288000"
        },
        {
          "name": "Tingo María",
          "latitude": "-9.29532000",
          "longitude": "-75.99574000"
        },
        {
          "name": "Yanacancha",
          "latitude": "-10.24111000",
          "longitude": "-76.64556000"
        },
        {
          "name": "Yarowilca",
          "latitude": "-9.80263000",
          "longitude": "-76.59516000"
        }
      ]
    },
    {
      "name": "Ica",
      "state_code": "ICA",
      "latitude": "42.35288320",
      "longitude": "-71.04300970",
      "cities": [
        {
          "name": "Chincha Alta",
          "latitude": "-13.40985000",
          "longitude": "-76.13235000"
        },
        {
          "name": "Ica",
          "latitude": "-14.06777000",
          "longitude": "-75.72861000"
        },
        {
          "name": "Los Aquijes",
          "latitude": "-14.09667000",
          "longitude": "-75.69083000"
        },
        {
          "name": "Minas de Marcona",
          "latitude": "-15.21194000",
          "longitude": "-75.11028000"
        },
        {
          "name": "Nazca",
          "latitude": "-14.83098000",
          "longitude": "-74.93895000"
        },
        {
          "name": "Palpa",
          "latitude": "-14.53361000",
          "longitude": "-75.18556000"
        },
        {
          "name": "Paracas",
          "latitude": "-13.86667000",
          "longitude": "-76.26667000"
        },
        {
          "name": "Pisco",
          "latitude": "-13.71029000",
          "longitude": "-76.20538000"
        },
        {
          "name": "Provincia de Chincha",
          "latitude": "-13.31791000",
          "longitude": "-75.93930000"
        },
        {
          "name": "Provincia de Ica",
          "latitude": "-14.33861000",
          "longitude": "-75.64833000"
        },
        {
          "name": "Provincia de Nazca",
          "latitude": "-15.00000000",
          "longitude": "-75.08333000"
        },
        {
          "name": "Provincia de Palpa",
          "latitude": "-14.41667000",
          "longitude": "-75.16667000"
        },
        {
          "name": "Provincia de Pisco",
          "latitude": "-13.80377000",
          "longitude": "-75.94264000"
        },
        {
          "name": "Río Grande",
          "latitude": "-14.51600000",
          "longitude": "-75.19933000"
        },
        {
          "name": "San Clemente",
          "latitude": "-13.66667000",
          "longitude": "-76.15000000"
        },
        {
          "name": "San Juan Bautista",
          "latitude": "-14.01083000",
          "longitude": "-75.73583000"
        },
        {
          "name": "Santiago",
          "latitude": "-14.18469000",
          "longitude": "-75.71124000"
        },
        {
          "name": "Subtanjalla",
          "latitude": "-14.01889000",
          "longitude": "-75.75806000"
        },
        {
          "name": "Villa Tupac Amaru",
          "latitude": "-13.71135000",
          "longitude": "-76.14980000"
        }
      ]
    },
    {
      "name": "Junín",
      "state_code": "JUN",
      "latitude": "-11.15819250",
      "longitude": "-75.99263060",
      "cities": [
        {
          "name": "Acolla",
          "latitude": "-11.73193000",
          "longitude": "-75.54634000"
        },
        {
          "name": "Carhuamayo",
          "latitude": "-10.91667000",
          "longitude": "-76.03333000"
        },
        {
          "name": "Chanchamayo",
          "latitude": "-11.05000000",
          "longitude": "-75.31667000"
        },
        {
          "name": "Chupaca",
          "latitude": "-12.06667000",
          "longitude": "-75.28333000"
        },
        {
          "name": "Concepción",
          "latitude": "-11.91762000",
          "longitude": "-75.31401000"
        },
        {
          "name": "Huancayo",
          "latitude": "-12.06513000",
          "longitude": "-75.20486000"
        },
        {
          "name": "Huasahuasi",
          "latitude": "-11.26527000",
          "longitude": "-75.64722000"
        },
        {
          "name": "Huayucachi",
          "latitude": "-12.13333000",
          "longitude": "-75.23333000"
        },
        {
          "name": "Jauja",
          "latitude": "-11.77584000",
          "longitude": "-75.49656000"
        },
        {
          "name": "Junín",
          "latitude": "-11.15895000",
          "longitude": "-75.99304000"
        },
        {
          "name": "La Oroya",
          "latitude": "-11.51893000",
          "longitude": "-75.89935000"
        },
        {
          "name": "Mazamari",
          "latitude": "-11.32583000",
          "longitude": "-74.53083000"
        },
        {
          "name": "Morococha",
          "latitude": "-11.59972000",
          "longitude": "-76.14111000"
        },
        {
          "name": "Orcotuna",
          "latitude": "-11.96886000",
          "longitude": "-75.30780000"
        },
        {
          "name": "Perené",
          "latitude": "-10.94510000",
          "longitude": "-75.22394000"
        },
        {
          "name": "Pilcomay",
          "latitude": "-12.04722000",
          "longitude": "-75.24931000"
        },
        {
          "name": "Provincia de Chupaca",
          "latitude": "-12.30000000",
          "longitude": "-75.43300000"
        },
        {
          "name": "Provincia de Concepción",
          "latitude": "-11.75000000",
          "longitude": "-75.00000000"
        },
        {
          "name": "Provincia de Huancayo",
          "latitude": "-12.17319000",
          "longitude": "-75.16169000"
        },
        {
          "name": "Provincia de Jauja",
          "latitude": "-11.72600000",
          "longitude": "-75.54700000"
        },
        {
          "name": "Provincia de Junín",
          "latitude": "-11.08333000",
          "longitude": "-76.00000000"
        },
        {
          "name": "Provincia de Satipo",
          "latitude": "-11.50000000",
          "longitude": "-74.25000000"
        },
        {
          "name": "Provincia de Tarma",
          "latitude": "-11.40562000",
          "longitude": "-75.69129000"
        },
        {
          "name": "Provincia de Yauli",
          "latitude": "-11.66667000",
          "longitude": "-76.16667000"
        },
        {
          "name": "San Agustin",
          "latitude": "-11.97195000",
          "longitude": "-75.25562000"
        },
        {
          "name": "San Jerónimo",
          "latitude": "-11.95591000",
          "longitude": "-75.28411000"
        },
        {
          "name": "San Pedro de Cajas",
          "latitude": "-11.25061000",
          "longitude": "-75.86116000"
        },
        {
          "name": "San Ramón",
          "latitude": "-11.12417000",
          "longitude": "-75.35733000"
        },
        {
          "name": "Satipo",
          "latitude": "-11.25222000",
          "longitude": "-74.63861000"
        },
        {
          "name": "Sicaya",
          "latitude": "-12.03333000",
          "longitude": "-75.28333000"
        },
        {
          "name": "Tarma",
          "latitude": "-11.41899000",
          "longitude": "-75.68992000"
        }
      ]
    },
    {
      "name": "La Libertad",
      "state_code": "LAL",
      "latitude": "13.49069700",
      "longitude": "-89.30846070",
      "cities": [
        {
          "name": "Ascope",
          "latitude": "-7.71444000",
          "longitude": "-79.10778000"
        },
        {
          "name": "Cascas",
          "latitude": "-7.48333000",
          "longitude": "-78.81667000"
        },
        {
          "name": "Chepen",
          "latitude": "-7.14367000",
          "longitude": "-79.45674000"
        },
        {
          "name": "Chicama",
          "latitude": "-7.84472000",
          "longitude": "-79.14694000"
        },
        {
          "name": "Chocope",
          "latitude": "-7.79139000",
          "longitude": "-79.22167000"
        },
        {
          "name": "Gran Chimu",
          "latitude": "-7.57976000",
          "longitude": "-78.64718000"
        },
        {
          "name": "Guadalupe",
          "latitude": "-7.25000000",
          "longitude": "-79.48333000"
        },
        {
          "name": "Huamachuco",
          "latitude": "-7.80000000",
          "longitude": "-78.06667000"
        },
        {
          "name": "Julcan",
          "latitude": "-8.17238000",
          "longitude": "-78.46356000"
        },
        {
          "name": "Laredo",
          "latitude": "-8.08965000",
          "longitude": "-78.96020000"
        },
        {
          "name": "Moche",
          "latitude": "-8.17111000",
          "longitude": "-79.00917000"
        },
        {
          "name": "Otuzco",
          "latitude": "-7.90000000",
          "longitude": "-78.58333000"
        },
        {
          "name": "Pacanga",
          "latitude": "-7.16667000",
          "longitude": "-79.50000000"
        },
        {
          "name": "Pacasmayo",
          "latitude": "-7.40056000",
          "longitude": "-79.57139000"
        },
        {
          "name": "Paiján",
          "latitude": "-7.73291000",
          "longitude": "-79.30150000"
        },
        {
          "name": "Provincia de Bolívar",
          "latitude": "-7.33333000",
          "longitude": "-77.75000000"
        },
        {
          "name": "Provincia de Otuzco",
          "latitude": "-7.90457000",
          "longitude": "-78.56362000"
        },
        {
          "name": "Provincia de Pacasmayo",
          "latitude": "-7.25000000",
          "longitude": "-79.50000000"
        },
        {
          "name": "Provincia de Pataz",
          "latitude": "-8.25000000",
          "longitude": "-77.33333000"
        },
        {
          "name": "Provincia de Santiago de Chuco",
          "latitude": "-8.33333000",
          "longitude": "-78.25000000"
        },
        {
          "name": "Provincia de Trujillo",
          "latitude": "-8.08333000",
          "longitude": "-78.91667000"
        },
        {
          "name": "Pueblo Nuevo",
          "latitude": "-7.18806000",
          "longitude": "-79.51528000"
        },
        {
          "name": "Quiruvilca",
          "latitude": "-7.96667000",
          "longitude": "-78.20000000"
        },
        {
          "name": "Salaverry",
          "latitude": "-8.22100000",
          "longitude": "-78.97698000"
        },
        {
          "name": "San Pedro de Lloc",
          "latitude": "-7.42890000",
          "longitude": "-79.50416000"
        },
        {
          "name": "Sanchez Carrion",
          "latitude": "-7.78538000",
          "longitude": "-77.92586000"
        },
        {
          "name": "Santiago de Cao",
          "latitude": "-7.95889000",
          "longitude": "-79.23917000"
        },
        {
          "name": "Santiago de Chuco",
          "latitude": "-8.14099000",
          "longitude": "-78.17329000"
        },
        {
          "name": "Trujillo",
          "latitude": "-8.11599000",
          "longitude": "-79.02998000"
        },
        {
          "name": "Viru",
          "latitude": "-8.52199000",
          "longitude": "-78.60355000"
        }
      ]
    },
    {
      "name": "Lambayeque",
      "state_code": "LAM",
      "latitude": "-6.71976660",
      "longitude": "-79.90807570",
      "cities": [
        {
          "name": "Chiclayo",
          "latitude": "-6.77137000",
          "longitude": "-79.84088000"
        },
        {
          "name": "Chongoyape",
          "latitude": "-6.64056000",
          "longitude": "-79.38917000"
        },
        {
          "name": "Eten",
          "latitude": "-6.90806000",
          "longitude": "-79.86417000"
        },
        {
          "name": "Ferreñafe",
          "latitude": "-6.63889000",
          "longitude": "-79.78889000"
        },
        {
          "name": "Jayanca",
          "latitude": "-6.39083000",
          "longitude": "-79.82194000"
        },
        {
          "name": "Lambayeque",
          "latitude": "-6.70111000",
          "longitude": "-79.90611000"
        },
        {
          "name": "Mochumí",
          "latitude": "-6.54364000",
          "longitude": "-79.86217000"
        },
        {
          "name": "Monsefú",
          "latitude": "-6.87431000",
          "longitude": "-79.86871000"
        },
        {
          "name": "Mórrope",
          "latitude": "-6.53536000",
          "longitude": "-80.01104000"
        },
        {
          "name": "Motupe",
          "latitude": "-6.15194000",
          "longitude": "-79.71417000"
        },
        {
          "name": "Olmos",
          "latitude": "-5.98472000",
          "longitude": "-79.74528000"
        },
        {
          "name": "Oyotún",
          "latitude": "-6.84438000",
          "longitude": "-79.30093000"
        },
        {
          "name": "Picsi",
          "latitude": "-6.71778000",
          "longitude": "-79.76972000"
        },
        {
          "name": "Pimentel",
          "latitude": "-6.83667000",
          "longitude": "-79.93417000"
        },
        {
          "name": "Provincia de Chiclayo",
          "latitude": "-6.76667000",
          "longitude": "-79.85000000"
        },
        {
          "name": "Provincia de Ferreñafe",
          "latitude": "-6.33333000",
          "longitude": "-79.50000000"
        },
        {
          "name": "Provincia de Lambayeque",
          "latitude": "-6.08333000",
          "longitude": "-80.08333000"
        },
        {
          "name": "Pueblo Nuevo",
          "latitude": "-5.71667000",
          "longitude": "-79.88333000"
        },
        {
          "name": "Reque",
          "latitude": "-6.86556000",
          "longitude": "-79.81778000"
        },
        {
          "name": "San José",
          "latitude": "-6.73813000",
          "longitude": "-79.82750000"
        },
        {
          "name": "Saña",
          "latitude": "-6.91888000",
          "longitude": "-79.58200000"
        },
        {
          "name": "Santa Rosa",
          "latitude": "-6.75772000",
          "longitude": "-79.82747000"
        },
        {
          "name": "Túcume",
          "latitude": "-6.50637000",
          "longitude": "-79.85725000"
        }
      ]
    },
    {
      "name": "Lima",
      "state_code": "LIM",
      "latitude": "-12.04637310",
      "longitude": "-77.04275400",
      "cities": [
        {
          "name": "Asentamiento Humano Nicolas de Pierola",
          "latitude": "-11.93573000",
          "longitude": "-76.70611000"
        },
        {
          "name": "Barranca",
          "latitude": "-10.75000000",
          "longitude": "-77.76667000"
        },
        {
          "name": "Caleta de Carquín",
          "latitude": "-11.09250000",
          "longitude": "-77.62667000"
        },
        {
          "name": "Chancay",
          "latitude": "-11.57139000",
          "longitude": "-77.26722000"
        },
        {
          "name": "Chilca",
          "latitude": "-12.52111000",
          "longitude": "-76.73722000"
        },
        {
          "name": "Chosica",
          "latitude": "-11.94306000",
          "longitude": "-76.70944000"
        },
        {
          "name": "Huacho",
          "latitude": "-11.10667000",
          "longitude": "-77.60500000"
        },
        {
          "name": "Hualmay",
          "latitude": "-11.09639000",
          "longitude": "-77.61389000"
        },
        {
          "name": "Huaral",
          "latitude": "-11.49500000",
          "longitude": "-77.20778000"
        },
        {
          "name": "Huaura",
          "latitude": "-11.07000000",
          "longitude": "-77.59944000"
        },
        {
          "name": "Imperial",
          "latitude": "-13.05927000",
          "longitude": "-76.35269000"
        },
        {
          "name": "Independencia",
          "latitude": "-11.99000000",
          "longitude": "-77.04583000"
        },
        {
          "name": "Lima",
          "latitude": "-12.04318000",
          "longitude": "-77.02824000"
        },
        {
          "name": "Mala",
          "latitude": "-12.65806000",
          "longitude": "-76.63083000"
        },
        {
          "name": "Matucana",
          "latitude": "-11.85000000",
          "longitude": "-76.40000000"
        },
        {
          "name": "Nuevo Imperial",
          "latitude": "-13.07541000",
          "longitude": "-76.31719000"
        },
        {
          "name": "Oyon",
          "latitude": "-10.75869000",
          "longitude": "-76.87634000"
        },
        {
          "name": "Paramonga",
          "latitude": "-10.66667000",
          "longitude": "-77.83333000"
        },
        {
          "name": "Pativilca",
          "latitude": "-10.70000000",
          "longitude": "-77.78333000"
        },
        {
          "name": "Provincia de Cajatambo",
          "latitude": "-10.66667000",
          "longitude": "-77.00000000"
        },
        {
          "name": "Provincia de Cañete",
          "latitude": "-12.75000000",
          "longitude": "-76.33333000"
        },
        {
          "name": "Provincia de Canta",
          "latitude": "-11.46667000",
          "longitude": "-76.61667000"
        },
        {
          "name": "Provincia de Huaral",
          "latitude": "-11.25000000",
          "longitude": "-76.91667000"
        },
        {
          "name": "Provincia de Huarochirí",
          "latitude": "-11.91667000",
          "longitude": "-76.41667000"
        },
        {
          "name": "Provincia de Yauyos",
          "latitude": "-12.41667000",
          "longitude": "-76.00000000"
        },
        {
          "name": "Puerto Supe",
          "latitude": "-10.80135000",
          "longitude": "-77.74333000"
        },
        {
          "name": "Quilmaná",
          "latitude": "-12.94860000",
          "longitude": "-76.38112000"
        },
        {
          "name": "Ricardo Palma",
          "latitude": "-11.91978000",
          "longitude": "-76.65610000"
        },
        {
          "name": "San Bartolo",
          "latitude": "-12.38333000",
          "longitude": "-76.78333000"
        },
        {
          "name": "San Isidro",
          "latitude": "-12.11667000",
          "longitude": "-77.05000000"
        },
        {
          "name": "San Luis",
          "latitude": "-12.07674000",
          "longitude": "-76.99435000"
        },
        {
          "name": "San Vicente de Cañete",
          "latitude": "-13.07556000",
          "longitude": "-76.38528000"
        },
        {
          "name": "Santa María",
          "latitude": "-12.00538000",
          "longitude": "-76.89329000"
        },
        {
          "name": "Santiago de Surco",
          "latitude": "-12.13588000",
          "longitude": "-77.00742000"
        },
        {
          "name": "Sayán",
          "latitude": "-11.13333000",
          "longitude": "-77.19460000"
        },
        {
          "name": "Supe",
          "latitude": "-10.79750000",
          "longitude": "-77.71306000"
        },
        {
          "name": "Urb. Santo Domingo",
          "latitude": "-11.87655000",
          "longitude": "-77.03345000"
        },
        {
          "name": "Végueta",
          "latitude": "-11.02253000",
          "longitude": "-77.64378000"
        }
      ]
    },
    {
      "name": "Loreto",
      "state_code": "LOR",
      "latitude": "-4.37416430",
      "longitude": "-76.13042640",
      "cities": [
        {
          "name": "Andoas",
          "latitude": "-2.90250000",
          "longitude": "-76.40250000"
        },
        {
          "name": "Borja",
          "latitude": "-4.43333333",
          "longitude": "-77.55000000"
        },
        {
          "name": "Caballococha",
          "latitude": "-3.90583333",
          "longitude": "-70.51638889"
        },
        {
          "name": "Cape Pantoja",
          "latitude": "-0.96435000",
          "longitude": "-75.18144000"
        },
        {
          "name": "Indiana",
          "latitude": "-3.50142700",
          "longitude": "-73.04809600"
        },
        {
          "name": "Iquitos",
          "latitude": "-3.73333333",
          "longitude": "-73.25000000"
        },
        {
          "name": "Jeberos",
          "latitude": "-5.28333000",
          "longitude": "-76.28333000"
        },
        {
          "name": "Jenaro Herrera",
          "latitude": "-4.90741000",
          "longitude": "-73.66779000"
        },
        {
          "name": "Lagunas",
          "latitude": "-5.22694000",
          "longitude": "-75.67528000"
        },
        {
          "name": "Nauta",
          "latitude": "-4.50833333",
          "longitude": "-73.58333333"
        },
        {
          "name": "Punchana",
          "latitude": "-3.71666667",
          "longitude": "-73.23333333"
        },
        {
          "name": "Requena",
          "latitude": "-6.74797000",
          "longitude": "-75.05491000"
        },
        {
          "name": "San Antonio del Estrecho",
          "latitude": "-2.45012000",
          "longitude": "-72.66896000"
        },
        {
          "name": "San Lorenzo",
          "latitude": "-4.81667000",
          "longitude": "-76.60000000"
        },
        {
          "name": "San Pablo",
          "latitude": "-4.01922000",
          "longitude": "-71.10281000"
        },
        {
          "name": "Tamshiyacu",
          "latitude": "-4.00320000",
          "longitude": "-73.15850000"
        },
        {
          "name": "Yurimaguas",
          "latitude": "-5.90000000",
          "longitude": "-76.08333333"
        }
      ]
    },
    {
      "name": "Madre de Dios",
      "state_code": "MDD",
      "latitude": "-11.76687050",
      "longitude": "-70.81199530",
      "cities": [
        {
          "name": "Iberia",
          "latitude": "-11.35000000",
          "longitude": "-69.58333000"
        },
        {
          "name": "Provincia de Manú",
          "latitude": "-12.25000000",
          "longitude": "-71.00000000"
        },
        {
          "name": "Provincia de Tahuamanú",
          "latitude": "-11.25000000",
          "longitude": "-70.50000000"
        },
        {
          "name": "Provincia de Tambopata",
          "latitude": "-12.19948000",
          "longitude": "-70.05006000"
        },
        {
          "name": "Puerto Maldonado",
          "latitude": "-12.59331000",
          "longitude": "-69.18913000"
        },
        {
          "name": "Salvación",
          "latitude": "-12.83605000",
          "longitude": "-71.36490000"
        },
        {
          "name": "Tambopata",
          "latitude": "-12.67191000",
          "longitude": "-69.35547000"
        }
      ]
    },
    {
      "name": "Moquegua",
      "state_code": "MOQ",
      "latitude": "-17.19273610",
      "longitude": "-70.93281380",
      "cities": [
        {
          "name": "Ilo",
          "latitude": "-17.63185000",
          "longitude": "-71.34108000"
        },
        {
          "name": "Moquegua",
          "latitude": "-17.19832000",
          "longitude": "-70.93567000"
        },
        {
          "name": "Pacocha",
          "latitude": "-17.64604000",
          "longitude": "-71.34481000"
        },
        {
          "name": "Provincia de General Sánchez Cerro",
          "latitude": "-16.50000000",
          "longitude": "-70.66667000"
        },
        {
          "name": "Provincia de Ilo",
          "latitude": "-17.49694000",
          "longitude": "-71.16722000"
        },
        {
          "name": "Provincia de Mariscal Nieto",
          "latitude": "-17.08361000",
          "longitude": "-71.00333000"
        },
        {
          "name": "Torata",
          "latitude": "-17.07694000",
          "longitude": "-70.84333000"
        }
      ]
    },
    {
      "name": "Pasco",
      "state_code": "PAS",
      "latitude": "46.23050490",
      "longitude": "-119.09223160",
      "cities": [
        {
          "name": "Cerro de Pasco",
          "latitude": "-10.66748000",
          "longitude": "-76.25668000"
        },
        {
          "name": "Chaupimarca",
          "latitude": "-10.40696000",
          "longitude": "-76.46168000"
        },
        {
          "name": "Oxapampa",
          "latitude": "-10.57750000",
          "longitude": "-75.40167000"
        },
        {
          "name": "Paucartambo",
          "latitude": "-10.77326000",
          "longitude": "-75.81109000"
        },
        {
          "name": "Provincia de Daniel Carrión",
          "latitude": "-10.50000000",
          "longitude": "-76.50000000"
        },
        {
          "name": "Provincia de Oxapampa",
          "latitude": "-10.33333000",
          "longitude": "-75.08333000"
        },
        {
          "name": "Provincia de Pasco",
          "latitude": "-10.66667000",
          "longitude": "-76.08333000"
        },
        {
          "name": "Tinyahuarco",
          "latitude": "-10.76771000",
          "longitude": "-76.27523000"
        },
        {
          "name": "Villa Rica",
          "latitude": "-10.73944000",
          "longitude": "-75.26972000"
        }
      ]
    },
    {
      "name": "Piura",
      "state_code": "PIU",
      "latitude": "-5.17828840",
      "longitude": "-80.65488820",
      "cities": [
        {
          "name": "Ayabaca",
          "latitude": "-4.63983000",
          "longitude": "-79.71491000"
        },
        {
          "name": "Bernal",
          "latitude": "-5.45000000",
          "longitude": "-80.75000000"
        },
        {
          "name": "Buenos Aires",
          "latitude": "-5.26083000",
          "longitude": "-79.96417000"
        },
        {
          "name": "Catacaos",
          "latitude": "-5.26667000",
          "longitude": "-80.68333000"
        },
        {
          "name": "Chulucanas",
          "latitude": "-5.09250000",
          "longitude": "-80.16250000"
        },
        {
          "name": "El Alto",
          "latitude": "-4.26851000",
          "longitude": "-81.21719000"
        },
        {
          "name": "Huancabamba",
          "latitude": "-5.23861000",
          "longitude": "-79.45056000"
        },
        {
          "name": "La Breita",
          "latitude": "-4.25691000",
          "longitude": "-80.88599000"
        },
        {
          "name": "La Huaca",
          "latitude": "-4.91167000",
          "longitude": "-80.96000000"
        },
        {
          "name": "La Unión",
          "latitude": "-5.40232000",
          "longitude": "-80.74224000"
        },
        {
          "name": "Las Lomas",
          "latitude": "-4.65333000",
          "longitude": "-80.24667000"
        },
        {
          "name": "Máncora",
          "latitude": "-4.10778000",
          "longitude": "-81.04750000"
        },
        {
          "name": "Marcavelica",
          "latitude": "-4.87778000",
          "longitude": "-80.70528000"
        },
        {
          "name": "Morropon",
          "latitude": "-5.25000000",
          "longitude": "-80.00000000"
        },
        {
          "name": "Paita",
          "latitude": "-5.08917000",
          "longitude": "-81.11444000"
        },
        {
          "name": "Piura",
          "latitude": "-5.19449000",
          "longitude": "-80.63282000"
        },
        {
          "name": "Provincia de Ayabaca",
          "latitude": "-4.75000000",
          "longitude": "-79.83333000"
        },
        {
          "name": "Provincia de Huancabamba",
          "latitude": "-5.50000000",
          "longitude": "-79.58333000"
        },
        {
          "name": "Provincia de Paita",
          "latitude": "-5.10189000",
          "longitude": "-81.09695000"
        },
        {
          "name": "Provincia de Piura",
          "latitude": "-5.21416000",
          "longitude": "-80.40617000"
        },
        {
          "name": "Provincia de Sullana",
          "latitude": "-4.50000000",
          "longitude": "-80.66667000"
        },
        {
          "name": "Provincia de Talara",
          "latitude": "-4.41667000",
          "longitude": "-81.08333000"
        },
        {
          "name": "Querecotillo",
          "latitude": "-4.83778000",
          "longitude": "-80.64556000"
        },
        {
          "name": "Salinera Colán",
          "latitude": "-5.03333000",
          "longitude": "-81.06667000"
        },
        {
          "name": "Salitral",
          "latitude": "-4.85722000",
          "longitude": "-80.68111000"
        },
        {
          "name": "Sechura",
          "latitude": "-5.55694000",
          "longitude": "-80.82222000"
        },
        {
          "name": "Sullana",
          "latitude": "-4.90389000",
          "longitude": "-80.68528000"
        },
        {
          "name": "Talara",
          "latitude": "-4.57722000",
          "longitude": "-81.27194000"
        },
        {
          "name": "Tambo Grande",
          "latitude": "-4.92694000",
          "longitude": "-80.34472000"
        },
        {
          "name": "Vice",
          "latitude": "-5.41667000",
          "longitude": "-80.78333000"
        }
      ]
    },
    {
      "name": "Puno",
      "state_code": "PUN",
      "latitude": "-15.84022180",
      "longitude": "-70.02188050",
      "cities": [
        {
          "name": "Atuncolla",
          "latitude": "-15.68333000",
          "longitude": "-70.15000000"
        },
        {
          "name": "Ayaviri",
          "latitude": "-14.88639000",
          "longitude": "-70.58889000"
        },
        {
          "name": "Azángaro",
          "latitude": "-14.90843000",
          "longitude": "-70.19616000"
        },
        {
          "name": "Desaguadero",
          "latitude": "-16.56556000",
          "longitude": "-69.04167000"
        },
        {
          "name": "El Collao",
          "latitude": "-16.72641000",
          "longitude": "-69.75515000"
        },
        {
          "name": "Hacienda Huancane",
          "latitude": "-15.82327000",
          "longitude": "-70.88540000"
        },
        {
          "name": "Ilave",
          "latitude": "-16.08333000",
          "longitude": "-69.66667000"
        },
        {
          "name": "Juli",
          "latitude": "-16.21667000",
          "longitude": "-69.45000000"
        },
        {
          "name": "Juliaca",
          "latitude": "-15.50000000",
          "longitude": "-70.13333000"
        },
        {
          "name": "La Rinconada",
          "latitude": "-14.63126000",
          "longitude": "-69.44638000"
        },
        {
          "name": "Lampa",
          "latitude": "-15.35000000",
          "longitude": "-70.36667000"
        },
        {
          "name": "Macusani",
          "latitude": "-14.08333000",
          "longitude": "-70.43333000"
        },
        {
          "name": "Ñuñoa",
          "latitude": "-14.47788000",
          "longitude": "-70.63583000"
        },
        {
          "name": "Provincia de Azángaro",
          "latitude": "-14.83333000",
          "longitude": "-70.16667000"
        },
        {
          "name": "Provincia de Carabaya",
          "latitude": "-13.83333000",
          "longitude": "-70.25000000"
        },
        {
          "name": "Provincia de Chucuito",
          "latitude": "-16.60545000",
          "longitude": "-69.35761000"
        },
        {
          "name": "Provincia de Huancané",
          "latitude": "-15.16667000",
          "longitude": "-69.58333000"
        },
        {
          "name": "Provincia de Lampa",
          "latitude": "-15.41667000",
          "longitude": "-70.58333000"
        },
        {
          "name": "Provincia de Melgar",
          "latitude": "-14.75000000",
          "longitude": "-70.75000000"
        },
        {
          "name": "Provincia de Puno",
          "latitude": "-16.00000000",
          "longitude": "-70.00000000"
        },
        {
          "name": "Provincia de Sandia",
          "latitude": "-13.83333000",
          "longitude": "-69.33333000"
        },
        {
          "name": "Puno",
          "latitude": "-15.84220000",
          "longitude": "-70.01990000"
        },
        {
          "name": "San Antonio De Putina",
          "latitude": "-14.71175000",
          "longitude": "-69.61559000"
        },
        {
          "name": "San Roman",
          "latitude": "-15.83333000",
          "longitude": "-70.50000000"
        },
        {
          "name": "Santa Lucía",
          "latitude": "-15.69788000",
          "longitude": "-70.60610000"
        },
        {
          "name": "Taquile",
          "latitude": "-15.76667000",
          "longitude": "-69.68333000"
        },
        {
          "name": "Yunguyo",
          "latitude": "-16.25000000",
          "longitude": "-69.08333000"
        }
      ]
    },
    {
      "name": "San Martín",
      "state_code": "SAM",
      "latitude": "37.08494640",
      "longitude": "-121.61022160",
      "cities": [
        {
          "name": "Bellavista",
          "latitude": "-7.05614000",
          "longitude": "-76.59110000"
        },
        {
          "name": "Chazuta",
          "latitude": "-6.57087000",
          "longitude": "-76.13753000"
        },
        {
          "name": "El Dorado",
          "latitude": "-6.56298000",
          "longitude": "-76.74130000"
        },
        {
          "name": "Huicungo",
          "latitude": "-7.31860000",
          "longitude": "-76.77556000"
        },
        {
          "name": "Jepelacio",
          "latitude": "-6.11667000",
          "longitude": "-76.95000000"
        },
        {
          "name": "Juanjuí",
          "latitude": "-7.17697000",
          "longitude": "-76.72774000"
        },
        {
          "name": "Lamas",
          "latitude": "-6.41667000",
          "longitude": "-76.53333000"
        },
        {
          "name": "Moyobamba",
          "latitude": "-6.03416000",
          "longitude": "-76.97168000"
        },
        {
          "name": "Picota",
          "latitude": "-6.92033000",
          "longitude": "-76.33142000"
        },
        {
          "name": "Provincia de Huallaga",
          "latitude": "-6.75664000",
          "longitude": "-76.90143000"
        },
        {
          "name": "Provincia de Lamas",
          "latitude": "-6.33333000",
          "longitude": "-76.66667000"
        },
        {
          "name": "Provincia de Mariscal Cáceres",
          "latitude": "-7.27390000",
          "longitude": "-77.18216000"
        },
        {
          "name": "Provincia de Moyobamba",
          "latitude": "-5.75000000",
          "longitude": "-77.25000000"
        },
        {
          "name": "Provincia de Rioja",
          "latitude": "-6.00000000",
          "longitude": "-77.41667000"
        },
        {
          "name": "Provincia de San Martín",
          "latitude": "-6.58333000",
          "longitude": "-76.16667000"
        },
        {
          "name": "Rioja",
          "latitude": "-6.05675000",
          "longitude": "-77.16651000"
        },
        {
          "name": "Saposoa",
          "latitude": "-6.93395000",
          "longitude": "-76.77158000"
        },
        {
          "name": "Sisa",
          "latitude": "-6.61085000",
          "longitude": "-76.69302000"
        },
        {
          "name": "Soritor",
          "latitude": "-6.13917000",
          "longitude": "-77.10389000"
        },
        {
          "name": "Tabalosos",
          "latitude": "-6.35000000",
          "longitude": "-76.68333000"
        },
        {
          "name": "Tarapoto",
          "latitude": "-6.50139000",
          "longitude": "-76.36556000"
        },
        {
          "name": "Tocache",
          "latitude": "-8.18770000",
          "longitude": "-76.52046000"
        },
        {
          "name": "Uchiza",
          "latitude": "-8.45917000",
          "longitude": "-76.46333000"
        }
      ]
    },
    {
      "name": "Tacna",
      "state_code": "TAC",
      "latitude": "-18.00656790",
      "longitude": "-70.24627410",
      "cities": [
        {
          "name": "Calana",
          "latitude": "-17.94167000",
          "longitude": "-70.18694000"
        },
        {
          "name": "Candarave",
          "latitude": "-17.26778000",
          "longitude": "-70.24944000"
        },
        {
          "name": "Chipispaya",
          "latitude": "-17.49790000",
          "longitude": "-70.21714000"
        },
        {
          "name": "Chuquitira",
          "latitude": "-17.28891000",
          "longitude": "-70.04363000"
        },
        {
          "name": "Ilabaya",
          "latitude": "-17.42083000",
          "longitude": "-70.51333000"
        },
        {
          "name": "Jorge Basadre",
          "latitude": "-17.57919000",
          "longitude": "-70.73083000"
        },
        {
          "name": "Provincia de Tacna",
          "latitude": "-17.83333000",
          "longitude": "-70.50000000"
        },
        {
          "name": "Provincia de Tarata",
          "latitude": "-17.41667000",
          "longitude": "-70.08333000"
        },
        {
          "name": "Pujocucho",
          "latitude": "-17.15778000",
          "longitude": "-70.35222000"
        },
        {
          "name": "Quilahuani",
          "latitude": "-17.31778000",
          "longitude": "-70.25806000"
        },
        {
          "name": "Tacna",
          "latitude": "-18.01465000",
          "longitude": "-70.25362000"
        },
        {
          "name": "Tarata",
          "latitude": "-17.47444000",
          "longitude": "-70.03278000"
        },
        {
          "name": "Totoral",
          "latitude": "-17.40620000",
          "longitude": "-70.36464000"
        }
      ]
    },
    {
      "name": "Tumbes",
      "state_code": "TUM",
      "latitude": "-3.55649210",
      "longitude": "-80.42708850",
      "cities": [
        {
          "name": "Aguas Verdes",
          "latitude": "-3.48139000",
          "longitude": "-80.24500000"
        },
        {
          "name": "Papayal",
          "latitude": "-4.07771000",
          "longitude": "-80.73690000"
        },
        {
          "name": "Provincia de Contralmirante Villar",
          "latitude": "-4.00000000",
          "longitude": "-80.75000000"
        },
        {
          "name": "Provincia de Tumbes",
          "latitude": "-3.75000000",
          "longitude": "-80.41667000"
        },
        {
          "name": "Provincia de Zarumilla",
          "latitude": "-3.66667000",
          "longitude": "-80.25000000"
        },
        {
          "name": "Tumbes",
          "latitude": "-3.56694000",
          "longitude": "-80.45153000"
        },
        {
          "name": "Zarumilla",
          "latitude": "-3.50306000",
          "longitude": "-80.27306000"
        },
        {
          "name": "Zorritos",
          "latitude": "-3.68046000",
          "longitude": "-80.67819000"
        }
      ]
    },
    {
      "name": "Ucayali",
      "state_code": "UCA",
      "latitude": "-9.82511830",
      "longitude": "-73.08774900",
      "cities": [
        {
          "name": "Atalaya",
          "latitude": "-10.38980000",
          "longitude": "-73.21977000"
        },
        {
          "name": "Campoverde",
          "latitude": "-8.47533000",
          "longitude": "-74.80709000"
        },
        {
          "name": "Padre Abad",
          "latitude": "-8.79680000",
          "longitude": "-75.42850000"
        },
        {
          "name": "Provincia de Coronel Portillo",
          "latitude": "-9.50000000",
          "longitude": "-73.33333000"
        },
        {
          "name": "Pucallpa",
          "latitude": "-8.37915000",
          "longitude": "-74.55387000"
        },
        {
          "name": "Purus",
          "latitude": "-10.37331000",
          "longitude": "-71.58231000"
        }
      ]
    }
  ]
}