{"code":"RW","states":[{"name":"Eastern Province","state_code":"02","latitude":null,"longitude":null,"cities":[{"name":"Kibungo","latitude":"-2.15970000","longitude":"30.54270000"},{"name":"Rwamagana","latitude":"-1.94870000","longitude":"30.43470000"}]},{"name":"Kigali district","state_code":"01","latitude":"-1.94407270","longitude":"30.06188510","cities":[{"name":"Kigali","latitude":"-1.94995000","longitude":"30.05885000"}]},{"name":"Northern Province","state_code":"03","latitude":null,"longitude":null,"cities":[{"name":"Byumba","latitude":"-1.57630000","longitude":"30.06750000"},{"name":"Musanze","latitude":"-1.49984000","longitude":"29.63497000"}]},{"name":"Southern Province","state_code":"05","latitude":null,"longitude":null,"cities":[{"name":"Butare","latitude":"-2.59667000","longitude":"29.73944000"},{"name":"Eglise Catholique, Centrale GIKO","latitude":"-1.93653000","longitude":"29.80610000"},{"name":"Gitarama","latitude":"-2.07444000","longitude":"29.75667000"},{"name":"Nzega","latitude":"-2.47900000","longitude":"29.55640000"}]},{"name":"Western Province","state_code":"04","latitude":null,"longitude":null,"cities":[{"name":"Cyangugu","latitude":"-2.48460000","longitude":"28.90750000"},{"name":"Gisenyi","latitude":"-1.70278000","longitude":"29.25639000"},{"name":"Kibuye","latitude":"-2.06028000","longitude":"29.34778000"}]}]}