{"code":"SA","states":[{"name":"'Asir Region","state_code":"14","latitude":"19.09690620","longitude":"42.86378750","cities":[{"name":"Abha","latitude":"18.21639000","longitude":"42.50528000"},{"name":"Al Majāridah","latitude":"19.12361000","longitude":"41.91111000"},{"name":"An Nimāş","latitude":"19.14547000","longitude":"42.12009000"},{"name":"Khamis Mushait","latitude":"18.30000000","longitude":"42.73333000"},{"name":"Qal‘at Bīshah","latitude":"20.00054000","longitude":"42.60520000"},{"name":"Sabt Al Alayah","latitude":"19.70000000","longitude":"41.91667000"},{"name":"Tabālah","latitude":"19.95000000","longitude":"42.40000000"}]},{"name":"Al Bahah Region","state_code":"11","latitude":"20.27227390","longitude":"41.44125100","cities":[{"name":"Al Bahah","latitude":"20.01288000","longitude":"41.46767000"},{"name":"Al Mindak","latitude":"20.15880000","longitude":"41.28337000"}]},{"name":"Al Jawf Region","state_code":"12","latitude":"29.88735600","longitude":"39.32062410","cities":[{"name":"Qurayyat","latitude":"31.33176000","longitude":"37.34282000"},{"name":"Sakakah","latitude":"29.96974000","longitude":"40.20641000"},{"name":"Şuwayr","latitude":"30.11713000","longitude":"40.38925000"},{"name":"Ţubarjal","latitude":"30.49987000","longitude":"38.21603000"}]},{"name":"Al Madinah Region","state_code":"03","latitude":"24.84039770","longitude":"39.32062410","cities":[{"name":"Al-`Ula","latitude":"26.60853000","longitude":"37.92316000"},{"name":"Badr Ḩunayn","latitude":"23.78292000","longitude":"38.79047000"},{"name":"Medina","latitude":"24.46861000","longitude":"39.61417000"},{"name":"Sulţānah","latitude":"24.49258000","longitude":"39.58572000"},{"name":"Yanbu","latitude":"24.08954000","longitude":"38.06180000"}]},{"name":"Al-Qassim Region","state_code":"05","latitude":"26.20782600","longitude":"43.48373800","cities":[{"name":"Adh Dhibiyah","latitude":"26.02700000","longitude":"43.15700000"},{"name":"Al Bukayrīyah","latitude":"26.13915000","longitude":"43.65782000"},{"name":"Al Fuwayliq","latitude":"26.44360000","longitude":"43.25164000"},{"name":"Al Mithnab","latitude":"25.86012000","longitude":"44.22228000"},{"name":"Ar Rass","latitude":"25.86944000","longitude":"43.49730000"},{"name":"Buraydah","latitude":"26.32599000","longitude":"43.97497000"},{"name":"Tanūmah","latitude":"27.10000000","longitude":"44.13333000"},{"name":"Wed Alnkil","latitude":"25.42670000","longitude":"42.83430000"}]},{"name":"Eastern Province","state_code":"04","latitude":null,"longitude":null,"cities":[{"name":"Abqaiq","latitude":"25.93402000","longitude":"49.66880000"},{"name":"Al Awjām","latitude":"26.56324000","longitude":"49.94331000"},{"name":"Al Baţţālīyah","latitude":"25.43333000","longitude":"49.63333000"},{"name":"Al Hufūf","latitude":"25.36467000","longitude":"49.58764000"},{"name":"Al Jafr","latitude":"25.37736000","longitude":"49.72154000"},{"name":"Al Jubayl","latitude":"27.01740000","longitude":"49.62251000"},{"name":"Al Khafjī","latitude":"28.43905000","longitude":"48.49132000"},{"name":"Al Markaz","latitude":"25.40000000","longitude":"49.73333000"},{"name":"Al Mubarraz","latitude":"25.40768000","longitude":"49.59028000"},{"name":"Al Munayzilah","latitude":"25.38333000","longitude":"49.66667000"},{"name":"Al Muţayrifī","latitude":"25.47878000","longitude":"49.55824000"},{"name":"Al Qārah","latitude":"25.41667000","longitude":"49.66667000"},{"name":"Al Qaţīf","latitude":"26.56542000","longitude":"50.00890000"},{"name":"Al Qurayn","latitude":"25.48333000","longitude":"49.60000000"},{"name":"As Saffānīyah","latitude":"27.97083000","longitude":"48.73000000"},{"name":"Aţ Ţaraf","latitude":"25.36232000","longitude":"49.72757000"},{"name":"At Tūbī","latitude":"26.55778000","longitude":"49.99167000"},{"name":"Dammam","latitude":"26.43442000","longitude":"50.10326000"},{"name":"Dhahran","latitude":"26.28864000","longitude":"50.11396000"},{"name":"Hafar Al-Batin","latitude":"28.43279000","longitude":"45.97077000"},{"name":"Julayjilah","latitude":"25.50000000","longitude":"49.60000000"},{"name":"Khobar","latitude":"26.27944000","longitude":"50.20833000"},{"name":"Mulayjah","latitude":"27.27103000","longitude":"48.42419000"},{"name":"Qaisumah","latitude":"28.31117000","longitude":"46.12729000"},{"name":"Raḩīmah","latitude":"26.70791000","longitude":"50.06194000"},{"name":"Şafwá","latitude":"26.64970000","longitude":"49.95522000"},{"name":"Sayhāt","latitude":"26.48345000","longitude":"50.04849000"},{"name":"Tārūt","latitude":"26.57330000","longitude":"50.04028000"},{"name":"Umm as Sāhik","latitude":"26.65361000","longitude":"49.91639000"}]},{"name":"Ha'il Region","state_code":"06","latitude":"27.70761430","longitude":"41.91964710","cities":[{"name":"Ha'il","latitude":"27.52188000","longitude":"41.69073000"}]},{"name":"Jizan Region","state_code":"09","latitude":"17.17381760","longitude":"42.70761070","cities":[{"name":"Abū ‘Arīsh","latitude":"16.96887000","longitude":"42.83251000"},{"name":"Ad Darb","latitude":"17.72285000","longitude":"42.25261000"},{"name":"Al Jarādīyah","latitude":"16.57946000","longitude":"42.91240000"},{"name":"Farasān","latitude":"16.70222000","longitude":"42.11833000"},{"name":"Jizan","latitude":"16.88917000","longitude":"42.55111000"},{"name":"Mislīyah","latitude":"17.45988000","longitude":"42.55720000"},{"name":"Mizhirah","latitude":"16.82611000","longitude":"42.73333000"},{"name":"Şabyā","latitude":"17.14950000","longitude":"42.62537000"},{"name":"Şāmitah","latitude":"16.59601000","longitude":"42.94435000"}]},{"name":"Makkah Region","state_code":"02","latitude":"21.52355840","longitude":"41.91964710","cities":[{"name":"Al Hadā","latitude":"21.36753000","longitude":"40.28694000"},{"name":"Al Jumūm","latitude":"21.61694000","longitude":"39.69806000"},{"name":"Al Muwayh","latitude":"22.43333000","longitude":"41.75829000"},{"name":"Ash Shafā","latitude":"21.07210000","longitude":"40.31185000"},{"name":"Ghran","latitude":"21.98027000","longitude":"39.36521000"},{"name":"Jeddah","latitude":"21.54238000","longitude":"39.19797000"},{"name":"Mecca","latitude":"21.42664000","longitude":"39.82563000"},{"name":"Rābigh","latitude":"22.79856000","longitude":"39.03493000"},{"name":"Ta’if","latitude":"21.27028000","longitude":"40.41583000"},{"name":"Turabah","latitude":"21.21406000","longitude":"41.63310000"}]},{"name":"Najran Region","state_code":"10","latitude":"18.35146640","longitude":"45.60071080","cities":[{"name":"Najrān","latitude":"17.49326000","longitude":"44.12766000"}]},{"name":"Northern Borders Region","state_code":"08","latitude":"30.07991620","longitude":"42.86378750","cities":[{"name":"Arar","latitude":"30.97531000","longitude":"41.03808000"},{"name":"Turaif","latitude":"31.67252000","longitude":"38.66374000"}]},{"name":"Riyadh Region","state_code":"01","latitude":"22.75543850","longitude":"46.20915470","cities":[{"name":"Ad Dawādimī","latitude":"24.50772000","longitude":"44.39237000"},{"name":"Ad Dilam","latitude":"23.99104000","longitude":"47.16181000"},{"name":"Afif","latitude":"23.90650000","longitude":"42.91724000"},{"name":"Ain AlBaraha","latitude":"24.75806000","longitude":"43.77389000"},{"name":"Al Arţāwīyah","latitude":"26.50387000","longitude":"45.34813000"},{"name":"Al Kharj","latitude":"24.15541000","longitude":"47.33457000"},{"name":"As Sulayyil","latitude":"20.46067000","longitude":"45.57792000"},{"name":"Az Zulfī","latitude":"26.29945000","longitude":"44.81542000"},{"name":"Marāt","latitude":"25.07064000","longitude":"45.45775000"},{"name":"Riyadh","latitude":"24.68773000","longitude":"46.72185000"},{"name":"Sājir","latitude":"25.18251000","longitude":"44.59964000"},{"name":"shokhaibٍ","latitude":"24.49023000","longitude":"46.26871000"},{"name":"Tumayr","latitude":"25.70347000","longitude":"45.86835000"}]},{"name":"Tabuk Region","state_code":"07","latitude":"28.24533350","longitude":"37.63866220","cities":[{"name":"Al Wajh","latitude":"26.24551000","longitude":"36.45249000"},{"name":"Duba","latitude":"27.35134000","longitude":"35.69014000"},{"name":"Tabuk","latitude":"28.39980000","longitude":"36.57151000"},{"name":"Umm Lajj","latitude":"25.02126000","longitude":"37.26850000"}]}]}