{"code":"VE","states":[{"name":"Amazonas","state_code":"Z","latitude":"-3.41684270","longitude":"-65.85606460","cities":[{"name":"Maroa","latitude":"2.71880000","longitude":"-67.56046000"},{"name":"Municipio Autónomo Alto Orinoco","latitude":"2.73456000","longitude":"-64.83032000"},{"name":"Puerto Ayacucho","latitude":"5.66049000","longitude":"-67.58343000"},{"name":"San Carlos de Río Negro","latitude":"1.92027000","longitude":"-67.06089000"},{"name":"San Fernando de Atabapo","latitude":"4.04564000","longitude":"-67.69934000"},{"name":"San Juan de Manapiare","latitude":"5.32665000","longitude":"-66.05402000"}]},{"name":"Anzoátegui","state_code":"B","latitude":"8.59130730","longitude":"-63.95861110","cities":[{"name":"Anaco","latitude":"9.42958000","longitude":"-64.46428000"},{"name":"Aragua de Barcelona","latitude":"9.45588000","longitude":"-64.82928000"},{"name":"Barcelona","latitude":"10.13625000","longitude":"-64.68618000"},{"name":"Cantaura","latitude":"9.30571000","longitude":"-64.35841000"},{"name":"El Tigre","latitude":"8.88902000","longitude":"-64.25270000"},{"name":"Municipio José Gregorio Monagas","latitude":"7.73874000","longitude":"-64.71876000"},{"name":"Onoto","latitude":"9.59714000","longitude":"-65.19350000"},{"name":"Puerto La Cruz","latitude":"10.21382000","longitude":"-64.63280000"},{"name":"Puerto Píritu","latitude":"10.05896000","longitude":"-65.03698000"},{"name":"San José de Guanipa","latitude":"8.88724000","longitude":"-64.16512000"}]},{"name":"Apure","state_code":"C","latitude":"6.92694830","longitude":"-68.52471490","cities":[]},{"name":"Aragua","state_code":"D","latitude":"10.06357580","longitude":"-67.28478750","cities":[{"name":"Cagua","latitude":"10.18634000","longitude":"-67.45935000"},{"name":"El Limón","latitude":"10.30589000","longitude":"-67.63212000"},{"name":"La Victoria","latitude":"10.22677000","longitude":"-67.33122000"},{"name":"Las Tejerías","latitude":"10.25416000","longitude":"-67.17333000"},{"name":"Maracay","latitude":"10.23535000","longitude":"-67.59113000"},{"name":"Palo Negro","latitude":"10.17389000","longitude":"-67.54194000"},{"name":"San Mateo","latitude":"10.21302000","longitude":"-67.42365000"},{"name":"Santa Rita","latitude":"10.20540000","longitude":"-67.55948000"},{"name":"Turmero","latitude":"10.22856000","longitude":"-67.47421000"},{"name":"Villa de Cura","latitude":"10.03863000","longitude":"-67.48938000"}]},{"name":"Barinas","state_code":"E","latitude":"8.62314980","longitude":"-70.23710450","cities":[{"name":"Alto Barinas","latitude":"8.59310000","longitude":"-70.22610000"},{"name":"Barinas","latitude":"8.62261000","longitude":"-70.20749000"},{"name":"Barinitas","latitude":"8.76171000","longitude":"-70.41199000"},{"name":"Municipio Barinas","latitude":"8.61497000","longitude":"-70.19852000"}]},{"name":"Bolívar","state_code":"F","latitude":"37.61448380","longitude":"-93.41047490","cities":[{"name":"Ciudad Bolívar","latitude":"8.12923000","longitude":"-63.54086000"},{"name":"Ciudad Guayana","latitude":"8.35122000","longitude":"-62.64102000"},{"name":"Municipio Padre Pedro Chien","latitude":"8.02455000","longitude":"-61.88187000"},{"name":"Santa Elena de Uairén","latitude":"4.60226000","longitude":"-61.11025000"},{"name":"Upata","latitude":"8.01620000","longitude":"-62.40561000"}]},{"name":"Capital District","state_code":"A","latitude":"41.26148460","longitude":"-95.93108070","cities":[]},{"name":"Carabobo","state_code":"G","latitude":"10.11764330","longitude":"-68.04775090","cities":[{"name":"Guacara","latitude":"10.22609000","longitude":"-67.87700000"},{"name":"Güigüe","latitude":"10.08344000","longitude":"-67.77799000"},{"name":"Los Guayos","latitude":"10.18932000","longitude":"-67.93828000"},{"name":"Mariara","latitude":"10.29532000","longitude":"-67.71770000"},{"name":"Morón","latitude":"10.48715000","longitude":"-68.20078000"},{"name":"Puerto Cabello","latitude":"10.47306000","longitude":"-68.01250000"},{"name":"San Joaquín","latitude":"10.26061000","longitude":"-67.79348000"},{"name":"Tacarigua","latitude":"10.08621000","longitude":"-67.91982000"},{"name":"Tocuyito","latitude":"10.11347000","longitude":"-68.06783000"},{"name":"Valencia","latitude":"10.16202000","longitude":"-68.00765000"}]},{"name":"Cojedes","state_code":"H","latitude":"9.38166820","longitude":"-68.33392750","cities":[{"name":"San Carlos","latitude":"9.66124000","longitude":"-68.58268000"},{"name":"Tinaquillo","latitude":"9.91861000","longitude":"-68.30472000"}]},{"name":"Delta Amacuro","state_code":"Y","latitude":"8.84993070","longitude":"-61.14031960","cities":[{"name":"Tucupita","latitude":"9.05806000","longitude":"-62.05000000"}]},{"name":"Falcón","state_code":"I","latitude":"11.18106740","longitude":"-69.85974060","cities":[{"name":"Chichiriviche","latitude":"10.92872000","longitude":"-68.27283000"},{"name":"Coro","latitude":"11.40450000","longitude":"-69.67344000"},{"name":"Municipio Los Taques","latitude":"11.82308000","longitude":"-70.25353000"},{"name":"Municipio Miranda","latitude":"11.31667000","longitude":"-69.86667000"},{"name":"Punta Cardón","latitude":"11.65806000","longitude":"-70.21500000"},{"name":"Punto Fijo","latitude":"11.69152000","longitude":"-70.19918000"},{"name":"Tucacas","latitude":"10.79006000","longitude":"-68.32564000"}]},{"name":"Federal Dependencies of Venezuela","state_code":"W","latitude":"10.93770530","longitude":"-65.35695730","cities":[]},{"name":"Guárico","state_code":"J","latitude":"8.74893090","longitude":"-66.23671720","cities":[{"name":"Altagracia de Orituco","latitude":"9.86005000","longitude":"-66.38139000"},{"name":"Calabozo","latitude":"8.92416000","longitude":"-67.42929000"},{"name":"San Juan de los Morros","latitude":"9.91152000","longitude":"-67.35381000"},{"name":"Valle de La Pascua","latitude":"9.21554000","longitude":"-66.00734000"},{"name":"Zaraza","latitude":"9.35029000","longitude":"-65.32452000"}]},{"name":"Lara","state_code":"K","latitude":"33.98221650","longitude":"-118.13227470","cities":[{"name":"Barquisimeto","latitude":"10.06470000","longitude":"-69.35703000"},{"name":"Cabudare","latitude":"10.02658000","longitude":"-69.26203000"},{"name":"Carora","latitude":"10.17283000","longitude":"-70.08100000"},{"name":"El Tocuyo","latitude":"9.78709000","longitude":"-69.79294000"},{"name":"Los Rastrojos","latitude":"10.02588000","longitude":"-69.24166000"},{"name":"Quíbor","latitude":"9.92866000","longitude":"-69.62010000"}]},{"name":"Mérida","state_code":"L","latitude":"20.96737020","longitude":"-89.59258570","cities":[{"name":"Ejido","latitude":"8.54665000","longitude":"-71.24087000"},{"name":"El Vigía","latitude":"8.61350000","longitude":"-71.65702000"},{"name":"Mérida","latitude":"8.58972000","longitude":"-71.15611000"},{"name":"Mucumpiz","latitude":"8.41667000","longitude":"-71.13333000"},{"name":"Municipio Libertador","latitude":"8.33333000","longitude":"-71.11667000"}]},{"name":"Miranda","state_code":"M","latitude":"42.35193830","longitude":"-71.52907660","cities":[{"name":"Baruta","latitude":"10.43424000","longitude":"-66.87558000"},{"name":"Carrizal","latitude":"10.34985000","longitude":"-66.98632000"},{"name":"Caucaguita","latitude":"10.35782000","longitude":"-66.80252000"},{"name":"Caucagüito","latitude":"10.48666000","longitude":"-66.73799000"},{"name":"Chacao","latitude":"10.49581000","longitude":"-66.85367000"},{"name":"Charallave","latitude":"10.24247000","longitude":"-66.85723000"},{"name":"Cúa","latitude":"10.16245000","longitude":"-66.88248000"},{"name":"El Cafetal","latitude":"10.46541000","longitude":"-66.82951000"},{"name":"El Hatillo","latitude":"10.42411000","longitude":"-66.82581000"},{"name":"Guarenas","latitude":"10.47027000","longitude":"-66.61934000"},{"name":"Guatire","latitude":"10.47400000","longitude":"-66.54241000"},{"name":"La Dolorita","latitude":"10.48830000","longitude":"-66.78608000"},{"name":"Los Dos Caminos","latitude":"10.49389000","longitude":"-66.82863000"},{"name":"Los Teques","latitude":"10.34447000","longitude":"-67.04325000"},{"name":"Ocumare del Tuy","latitude":"10.11820000","longitude":"-66.77513000"},{"name":"Petare","latitude":"10.47679000","longitude":"-66.80786000"},{"name":"San Antonio de Los Altos","latitude":"10.38853000","longitude":"-66.95179000"},{"name":"Santa Teresa del Tuy","latitude":"10.23291000","longitude":"-66.66474000"}]},{"name":"Monagas","state_code":"N","latitude":"9.32416520","longitude":"-63.01475780","cities":[{"name":"Caripito","latitude":"10.11135000","longitude":"-63.09985000"},{"name":"Maturín","latitude":"9.74569000","longitude":"-63.18323000"},{"name":"Municipio Maturín","latitude":"9.40000000","longitude":"-63.03333000"},{"name":"Municipio Uracoa","latitude":"8.99960000","longitude":"-62.35164000"}]},{"name":"Nueva Esparta","state_code":"O","latitude":"10.99707230","longitude":"-63.91132960","cities":[{"name":"Juan Griego","latitude":"11.08172000","longitude":"-63.96549000"},{"name":"La Asunción","latitude":"11.03333000","longitude":"-63.86278000"},{"name":"Porlamar","latitude":"10.95771000","longitude":"-63.86971000"}]},{"name":"Portuguesa","state_code":"P","latitude":"9.09439990","longitude":"-69.09702300","cities":[{"name":"Acarigua","latitude":"9.55451000","longitude":"-69.19564000"},{"name":"Araure","latitude":"9.58144000","longitude":"-69.23851000"},{"name":"Guanare","latitude":"9.04183000","longitude":"-69.74206000"},{"name":"Villa Bruzual","latitude":"9.33186000","longitude":"-69.11968000"}]},{"name":"Sucre","state_code":"R","latitude":"-19.03534500","longitude":"-65.25921280","cities":[{"name":"Carúpano","latitude":"10.66516000","longitude":"-63.25387000"},{"name":"Cumaná","latitude":"10.45397000","longitude":"-64.18256000"},{"name":"Güiria","latitude":"10.57721000","longitude":"-62.29841000"},{"name":"Municipio Valdez","latitude":"10.57945000","longitude":"-62.30029000"}]},{"name":"Táchira","state_code":"S","latitude":"7.91370010","longitude":"-72.14161320","cities":[{"name":"Colón","latitude":"8.03125000","longitude":"-72.26053000"},{"name":"La Fría","latitude":"8.21523000","longitude":"-72.24888000"},{"name":"La Grita","latitude":"8.13316000","longitude":"-71.98390000"},{"name":"Municipio José María Vargas","latitude":"8.03514000","longitude":"-72.05675000"},{"name":"Rubio","latitude":"7.70131000","longitude":"-72.35569000"},{"name":"San Antonio del Táchira","latitude":"7.81454000","longitude":"-72.44310000"},{"name":"San Cristóbal","latitude":"7.76694000","longitude":"-72.22500000"},{"name":"Táriba","latitude":"7.81880000","longitude":"-72.22427000"}]},{"name":"Trujillo","state_code":"T","latitude":"36.67343430","longitude":"-121.62875880","cities":[{"name":"Boconó","latitude":"9.25385000","longitude":"-70.25105000"},{"name":"Municipio Pampanito","latitude":"9.41147000","longitude":"-70.49592000"},{"name":"Municipio San Rafael de Carvajal","latitude":"9.30756000","longitude":"-70.58965000"},{"name":"Trujillo","latitude":"9.36583000","longitude":"-70.43694000"},{"name":"Valera","latitude":"9.31778000","longitude":"-70.60361000"}]},{"name":"Vargas","state_code":"X","latitude":"29.30522680","longitude":"-94.79138540","cities":[{"name":"Caraballeda","latitude":"10.61216000","longitude":"-66.85192000"},{"name":"Catia La Mar","latitude":"10.60545000","longitude":"-67.03238000"},{"name":"La Guaira","latitude":"10.60156000","longitude":"-66.93293000"},{"name":"Maiquetía","latitude":"10.59450000","longitude":"-66.95624000"}]},{"name":"Yaracuy","state_code":"U","latitude":"10.33938900","longitude":"-68.81088490","cities":[{"name":"Chivacoa","latitude":"10.15951000","longitude":"-68.89453000"},{"name":"Municipio Independencia","latitude":"10.33472000","longitude":"-68.75555000"},{"name":"Nirgua","latitude":"10.15039000","longitude":"-68.56478000"},{"name":"San Felipe","latitude":"10.33991000","longitude":"-68.74247000"},{"name":"Yaritagua","latitude":"10.08081000","longitude":"-69.12420000"}]},{"name":"Zulia","state_code":"V","latitude":"10.29102370","longitude":"-72.14161320","cities":[{"name":"Cabimas","latitude":"10.39907000","longitude":"-71.45206000"},{"name":"Ciudad Ojeda","latitude":"10.20161000","longitude":"-71.31480000"},{"name":"La Villa del Rosario","latitude":"10.32580000","longitude":"-72.31343000"},{"name":"Lagunillas","latitude":"10.13008000","longitude":"-71.25946000"},{"name":"Machiques","latitude":"10.06077000","longitude":"-72.55212000"},{"name":"Maracaibo","latitude":"10.66663000","longitude":"-71.61245000"},{"name":"San Carlos del Zulia","latitude":"9.00098000","longitude":"-71.92683000"},{"name":"Santa Rita","latitude":"10.53642000","longitude":"-71.51104000"}]}]}